id,hierarchy,galil,kahal,name,settlement_type,pop,year,region,modern_name,viv,pow,geocode,olat,olon,kahal_id,subunit,lat,lon,display_name,osm_id,wikidata_id,name_he,name_sim,match_status,confidence
1.0,1.0,Rus,Winnica,Winnica,city,348.0,1765.0,BRT,Vinnytsya,Bracław,Bracław,BRC_WINNICA,49.21939111,28.48875046,284.0,,49.2320162,28.467975,"Вінниця, Вінницька міська громада, Вінницький район, Вінницька область, Україна",361818.0,Q157144,ויניצה,1.0,matched_nominatim,high
2.0,,Rus,Winnica,Nowe Miasto Winnica,city,51.0,1765.0,BRT,Vinnytsya,Bracław,Bracław,BRC_WINNICA,49.23205939,28.46729279,284.0,,49.2320162,28.467975,"Вінниця, Вінницька область, Україна",249748477.0,Q157144,ויניצה,0.889,matched_db_api_modern,medium
3.0,,Rus,Winnica,Wisznia,village,3.0,1765.0,BRT,Lifshyts synagogue,Bracław,Bracław,BRC_WINNICA,49.23284405,28.46557617,284.0,,49.2320162,28.467975,"Вінниця, Вінницька область, Україна",249748477.0,Q157144,ויניצה,0.714,matched_db_api,medium
4.0,,Rus,Winnica,Ludwikowka,village,2.0,1765.0,BRT,Sloboda-Dashkovetska,Bracław,Bracław,BRC_WINNICA,49.24949,28.28078,284.0,,49.253078,28.279499,"Слобода-Дашковецька, Якушинецька сільська громада, Вінницький район, Вінницька область, Україна",5985671.0,Q4423491,,1.0,matched_nominatim_modern,high
5.0,,Rus,Winnica,Szeremetka,village,4.0,1765.0,BRT,Pyrohove,Bracław,Bracław,BRC_WINNICA,49.21588,28.39345,284.0,,49.2130866,28.3738762,"Агрономічна сільська громада, Вінницька область, Україна",1462582959.0,,,0.6,matched_db_api,medium
6.0,,Rus,Winnica,Maydan Juzwiński,village,2.0,1765.0,BRT,Maidan,Bracław,Bracław,BRC_WINNICA,49.23656,28.26179,284.0,,49.2378585,28.2658208,"Майдан, Якушинецька сільська громада, Вінницький район, Вінницька область, Україна",5985670.0,Q4274733,,1.0,matched_nominatim_modern,high
7.0,,Rus,Winnica,Juzwin,city,38.0,1765.0,BRT,Nekrasove,Bracław,Bracław,BRC_WINNICA,49.20318,28.22103,284.0,,,,,,,,,not_found,medium
8.0,,Rus,Winnica,Miedzwiedze Ucho,village,4.0,1765.0,BRT,Medvezhe Vushko,Bracław,Bracław,BRC_WINNICA,49.17934695,28.31176758,284.0,,49.182774,28.311285,"Медвеже Вушко, Вінницька область, Україна",597865764.0,Q4287554,,0.6,matched_db_api,medium
9.0,,Rus,Winnica,Jurkowce,village,3.0,1765.0,BRT,Yurkivtsy,Bracław,Bracław,BRC_WINNICA,49.15,28.4,284.0,,,,,,,,,not_found,medium
10.0,,Rus,Winnica,Skurzynce,village,3.0,1765.0,BRT,Shkurintsy,Bracław,Bracław,BRC_WINNICA,49.16667,28.41667,284.0,,49.173683,28.427494,"Прибузьке, Вінницька область, Україна",337568749.0,Q4377719,,0.9,matched_db_api_modern,high
11.0,,Rus,Winnica,Tiulki,village,4.0,1765.0,BRT,Tiutky,Bracław,Bracław,BRC_WINNICA,49.17609264,28.44394684,284.0,,49.175762,28.450666,"Тютьки, Вінницька область, Україна",337569137.0,Q4467756,,0.833,matched_db_api,medium
12.0,,Rus,Winnica,Łuka,village,4.0,1765.0,BRT,Luka-Meleshkivska,Bracław,Bracław,BRC_WINNICA,49.17564,28.49109,284.0,,49.173946,28.495565,Лука-Мелешківська,571878898.0,Q281189,,1.0,matched_cluster_fix,high
13.0,,Rus,Winnica,Parpurowce,village,3.0,1765.0,BRT,Parpurovtsy,Bracław,Bracław,BRC_WINNICA,49.16827,28.53179,284.0,,49.171795,28.53297,"Парпурівці, Вінницька область, Україна",337568866.0,Q3575411,,0.7,matched_db_api,medium
14.0,,Rus,Winnica,Sołowiuwka,village,5.0,1765.0,BRT,Soloviyevka,Bracław,Bracław,BRC_WINNICA,49.16667,28.56667,284.0,,,,,,,,,not_found,medium
15.0,,Rus,Winnica,Cwiżyn,village,5.0,1765.0,BRT,Tsvizhyn,Bracław,Bracław,BRC_WINNICA,49.12197242,28.54093552,284.0,,49.11977,28.548679,"Цвіжин, Лука-Мелешківська сільська громада, Вінницький район, Вінницька область, Україна",12328975.0,Q4503582,,1.0,matched_nominatim_modern,high
16.0,,Rus,Winnica,Chyżynce,village,3.0,1765.0,BRT,Khyzhyntsi,Bracław,Bracław,BRC_WINNICA,49.17554338,28.56097376,284.0,,49.173458,28.570663,"Хижинці, Лука-Мелешківська сільська громада, Вінницький район, Вінницька область, Україна",6020043.0,Q4497492,,1.0,matched_nominatim_modern,high
17.0,,Rus,Winnica,Siekierzynce,village,2.0,1765.0,BRT,Sokyryntsi,Bracław,Bracław,BRC_WINNICA,49.17101353,28.6022577,284.0,,49.170341,28.610121,"Сокиринці, Лука-Мелешківська сільська громада, Вінницький район, Вінницька область, 23207, Україна",6941103.0,Q4426912,,1.0,matched_nominatim_modern,high
18.0,,Rus,Winnica,Humieńska Karczma,village,4.0,1765.0,BRT,Mykhailivka,Bracław,Bracław,BRC_WINNICA,49.19007385,28.69435264,284.0,,49.19007385,28.69435264,,,,,,reverted_to_original,medium
19.0,,Rus,Winnica,Humienna,village,2.0,1765.0,BRT,Mykhailivka,Bracław,Bracław,BRC_WINNICA,49.19063988,28.69262045,284.0,,,,,,,,,not_found,medium
20.0,,Rus,Winnica,Telepenki,village,5.0,1765.0,BRT,Telepen’ki,Bracław,Bracław,BRC_WINNICA,49.23333,28.65,284.0,,,,,,,,,not_found,medium
21.0,,Rus,Winnica,Hawryszuwka,village,6.0,1765.0,BRT,Havryshivka,Bracław,Bracław,BRC_WINNICA,49.24327,28.63346,284.0,,49.243023,28.639126,"Гавришівка, Вінницька область, Україна",337566713.0,Q4131320,,0.667,matched_db_api,medium
22.0,,Rus,Winnica,Pisarzowka,village,4.0,1765.0,BRT,Pysarivka,Bracław,Bracław,BRC_WINNICA,49.1887,28.60449,284.0,,49.190338,28.606501,"Писарівка, Вінницька область, Україна",337567539.0,Q4363545,,0.737,matched_db_api,medium
23.0,,Rus,Winnica,Tenenki,village,2.0,1765.0,BRT,Tenenki,Bracław,Bracław,BRC_WINNICA,,,284.0,,,,,,,,,no_coords,none
24.0,,Rus,Winnica,Futory Winnickie,village,5.0,1765.0,BRT,Vinnytski Khutory,Bracław,Bracław,BRC_WINNICA,49.21395013,28.54448112,284.0,,49.20467,28.55072,"Вінницькі Хутори, Вінницька міська громада, Вінницький район, Вінницька область, 23201, Україна",6774569.0,Q4111606,,1.0,matched_nominatim_modern,high
25.0,,Rus,Winnica,Słobodka Futorow Winnickich,village,4.0,1765.0,BRT,Malyye Khutora,Bracław,Bracław,BRC_WINNICA,49.21022,28.51614,284.0,,49.2131198,28.5178136,"Вінниця, Вінницька область, Україна",11235299421.0,,,0.769,matched_db_api_modern,medium
26.0,,Rus,Winnica,Słobodka Czosnowska,village,4.0,1765.0,BRT,Słobodka Czosnowska,Bracław,Bracław,BRC_WINNICA,,,284.0,,,,,,,,,no_coords,none
27.0,,Rus,Winnica,Stare Miasto,city,5.0,1765.0,BRT,Malyye Khutora,Bracław,Bracław,BRC_WINNICA,49.21902454,28.49058711,284.0,,49.2187763,28.4938977,"Вінниця, Вінницька область, Україна",4791371904.0,,,0.957,matched_db_api,high
28.0,,Rus,Winnica,Sabarow,village,5.0,1765.0,BRT,Sobariv,Bracław,Bracław,BRC_WINNICA,49.19637,28.45218,284.0,,49.1973821,28.4511405,"Сабарів, Вінниця, Вінницька міська громада, Вінницький район, Вінницька область, 23236, Україна",4845144837.0,Q12149926,,1.0,matched_nominatim,high
29.0,,Rus,Winnica,Zarwańce,village,3.0,1765.0,BRT,Khmelëva,Bracław,Bracław,BRC_WINNICA,49.25413705,28.38867188,284.0,,49.2584825,28.3871024,"Зарванці, Вінницька область, Україна",337565800.0,Q4119442,,0.75,matched_db_api,medium
30.0,,Rus,Winnica,Zarwaniec,village,3.0,1765.0,BRT,Zarwaniec,Bracław,Bracław,BRC_WINNICA,,,284.0,,,,,,,,,no_coords,none
31.0,,Rus,Winnica,Chmielowa,village,5.0,1765.0,BRT,Khmelëva,Bracław,Bracław,BRC_WINNICA,49.26667,28.38333,284.0,,,,,,,,,not_found,medium
32.0,,Rus,Winnica,Jakuszynce,village,7.0,1765.0,BRT,Yakushyntsi,Bracław,Bracław,BRC_WINNICA,49.26141938,28.35159302,284.0,,49.259651,28.36672,"Якушинці, Вінницька область, Україна",337565579.0,Q4537329,,0.632,matched_db_api,medium
33.0,,Rus,Winnica,Łysa Gora,village,3.0,1765.0,BRT,Lysohora,Bracław,Bracław,BRC_WINNICA,49.2677488,28.32828247,284.0,,49.2666623,28.3347896,"Лисогора, Вінницька область, Україна",337564934.0,Q4270744,,0.824,matched_db_api,medium
34.0,,Rus,Winnica,Maydan Jakuszynski,village,4.0,1765.0,BRT,Maidan,Bracław,Bracław,BRC_WINNICA,49.23656,28.26179,284.0,,49.2378585,28.2658208,Майдан,337566223.0,Q4274733,,1.0,matched_refined,high
36.0,1.0,Rus,Kolumnow,Kolumnow,city,111.0,1765.0,BRT,Kalynivka,Bracław,Bracław,BRC_KOLUMNOW,49.44703512,28.52342606,285.0,,49.4583688,28.5262638,"Калинівка, Калинівська міська громада, Хмільницький район, Вінницька область, Україна",4857065563.0,Q1020122,קאליניבקה,1.0,matched_nominatim_modern,high
37.0,,Rus,Kolumnow,Suprunow,village,9.0,1765.0,BRT,Supruniv,Bracław,Bracław,BRC_KOLUMNOW,49.39223,28.30856,285.0,,49.3899549,28.305389,"Супрунів, Вінницька область, Україна",337560742.0,Q4446376,,0.875,matched_db_api,medium
38.0,,Rus,Kolumnow,Futory Kolumnowa,village,3.0,1765.0,BRT,Pavlivka,Bracław,Bracław,BRC_KOLUMNOW,49.4564091,28.47690582,285.0,,49.44569,28.4618,"Павлівка, Калинівська міська громада, Хмільницький район, Вінницька область, 22436, Україна",3673907.0,Q4341644,,1.0,matched_nominatim_modern,high
39.0,,Rus,Kolumnow,Medwidka,village,4.0,1765.0,BRT,Medvidka,Bracław,Bracław,BRC_KOLUMNOW,49.3834903,28.45115662,285.0,,49.380333,28.458368,"Медвідка, Стрижавська селищна громада, Вінницький район, Вінницька область, 23216, Україна",10041556.0,Q4287411,מֶדְבידְקה,1.0,matched_nominatim,high
40.0,,Rus,Kolumnow,Sosenka,village,5.0,1765.0,BRT,Sosonka,Bracław,Bracław,BRC_KOLUMNOW,49.32556952,28.57200623,285.0,,49.3333506,28.5767713,"Сосонка, Вінницька область, Україна",337562594.0,Q4429754,,0.857,matched_db_api,medium
41.0,,Rus,Kolumnow,Sobolowka,village,2.0,1765.0,BRT,Sobolivka,Bracław,Bracław,BRC_KOLUMNOW,49.33541415,28.64341736,285.0,,49.338356,28.650053,"Соболівка, Вінницька область, Україна",337562478.0,Q4178533,,0.889,matched_db_api,medium
42.0,,Rus,Kolumnow,Lesiyowka,village,11.0,1765.0,BRT,Lisova Lysiivka,Bracław,Bracław,BRC_KOLUMNOW,49.36583058,28.60599518,285.0,,49.362598,28.61561,Лісова Лисіївка,337561722.0,Q7242083,,1.0,matched_refined,high
43.0,,Rus,Kolumnow,Mieziaków,village,10.0,1765.0,BRT,Miziakivski Khutory,Bracław,Bracław,BRC_KOLUMNOW,49.32870212,28.35845947,285.0,,49.395901,28.381809,"Мізяків, Вінницька область, Україна",337560563.0,Q4292929,,0.824,matched_db_api,medium
45.0,1.0,Rus,Strzyżawka,Strzyżawka,city,272.0,1765.0,BRT,Stryzhavka,Bracław,Bracław,BRC_STRZYZAWKA,49.30955,28.47208,286.0,,49.3097584,28.4730593,Стрижавка,1739957292.0,Q1999944,,1.0,matched_cluster_fix,high
46.0,,Rus,Strzyżawka,Stadnica,village,7.0,1765.0,BRT,Stadnytsia,Bracław,Bracław,BRC_STRZYZAWKA,49.2876,28.60373,286.0,,,,,,,,,not_found,medium
47.0,,Rus,Strzyżawka,Piatniczany,village,9.0,1765.0,BRT,Vinnytsya,Bracław,Bracław,BRC_STRZYZAWKA,49.2322,28.46871,286.0,,49.2496623,28.4620491,"Вінниця, Вінницька область, Україна",4791371906.0,Q16710653,,0.909,matched_db_api,high
48.0,,Rus,Strzyżawka,Desna,village,4.0,1765.0,BRT,Desna,Bracław,Bracław,BRC_STRZYZAWKA,49.28166,28.54034,286.0,,49.2844045,28.5399831,"Десна, Вінницька міська громада, Вінницький район, Вінницька область, 23240, Україна",4642533.0,Q2473631,,1.0,matched_nominatim,high
49.0,,Rus,Strzyżawka,Ławruwka,village,2.0,1765.0,BRT,Lavrivka,Bracław,Bracław,BRC_STRZYZAWKA,49.34674,28.46324,286.0,,49.34749,28.4618,Лаврівка,337562178.0,Q4252249,,1.0,matched_cluster_fix,high
50.0,,Rus,Strzyżawka,Pereurki,village,6.0,1765.0,BRT,Pereorky,Bracław,Bracław,BRC_STRZYZAWKA,49.31446,28.40795,286.0,,49.31625,28.40481,Переорки,337563189.0,Q4350696,,1.0,matched_cluster_fix,high
51.0,,Rus,Strzyżawka,Woronowica,city,115.0,1765.0,BRT,Voronovytsya,Bracław,Bracław,BRC_STRZYZAWKA,49.10903,28.68681,286.0,,49.1117881,28.6889425,"Вороновиця, Вороновицька селищна громада, Вінницький район, Вінницька область, 23252, Україна",4646843.0,Q2473575,,1.0,matched_nominatim,high
52.0,,Rus,Strzyżawka,Paryiowka,village,11.0,1765.0,BRT,Parpurovtsy,Bracław,Bracław,BRC_STRZYZAWKA,49.16827,28.53179,286.0,,49.16827,28.53179,,,,,,reverted_to_original,medium
53.0,,Rus,Strzyżawka,Kosnorow,village,18.0,1765.0,BRT,Kosakivka,Bracław,Bracław,BRC_STRZYZAWKA,49.29029,28.73535,286.0,,49.29029,28.73535,,,,,,reverted_to_original,medium
54.0,,Rus,Strzyżawka,Michalowka,village,12.0,1765.0,BRT,Mykhailivka,Bracław,Bracław,BRC_STRZYZAWKA,49.19876,28.72415,286.0,,49.195293,28.723215,"Михайлівка, Вороновицька селищна громада, Вінницький район, Вінницька область, 23204, Україна",412810701.0,Q4297488,,1.0,matched_nominatim,high
55.0,,Rus,Strzyżawka,Stepanowka,village,12.0,1765.0,BRT,Stepanivka,Bracław,Bracław,BRC_STRZYZAWKA,49.13028,28.7666,286.0,,49.12571,28.76358,"Степанівка, Вінницька область, Україна",337571007.0,Q4441896,,0.8,matched_db_api,medium
56.0,,Rus,Strzyżawka,Soroczyn,village,3.0,1765.0,BRT,Sorochin,Bracław,Bracław,BRC_STRZYZAWKA,49.08333,28.68333,286.0,,,,,,,,,not_found,medium
57.0,,Rus,Strzyżawka,Szenderowka,village,9.0,1765.0,BRT,Shenderiv,Bracław,Bracław,BRC_STRZYZAWKA,49.05259,28.64139,286.0,,49.053249,28.63723,"Шендерів, Вінницька область, Україна",337574447.0,Q4522860,,0.6,matched_db_api,medium
58.0,,Rus,Strzyżawka,Fedorowka,village,11.0,1765.0,BRT,Federivka,Bracław,Bracław,BRC_STRZYZAWKA,49.05952438,28.60889777,286.0,,49.062923,28.6130725,"Федорівка, Вінницька область, Україна",337574004.0,Q4494125,,0.778,matched_db_api,medium
59.0,,Rus,Strzyżawka,Markowka,village,5.0,1765.0,BRT,Markovka,Bracław,Bracław,BRC_STRZYZAWKA,49.07631,28.61464,286.0,,49.074532,28.614626,"Марківка, Вінницька область, Україна",337573359.0,Q4282121,,0.75,matched_db_api,medium
60.0,,Rus,Strzyżawka,Trostianiec,village,4.0,1765.0,BRT,Trostianets,Bracław,Bracław,BRC_STRZYZAWKA,49.10289,28.60386,286.0,,49.094452,28.613058,"Тростянець, Вінницька область, Україна",337572518.0,Q4463839,,0.818,matched_db_api,medium
61.0,,Rus,Strzyżawka,Kalniszowka,village,10.0,1765.0,BRT,Kal’nishovka,Bracław,Bracław,BRC_STRZYZAWKA,49.0803295,28.65104781,286.0,,49.084259,28.640841,"Кальнишівка, Вінницька область, Україна",337572867.0,Q4210551,,0.762,matched_db_api,medium
62.0,,Rus,Strzyżawka,Kordyszowka,village,6.0,1765.0,BRT,Kordyshivka,Bracław,Bracław,BRC_STRZYZAWKA,49.08951,28.75601,286.0,,49.089661,28.76152,"Кордишівка, Вінницька область, Україна",337572587.0,Q4232796,,0.727,matched_db_api,medium
63.0,,Rus,Strzyżawka,Zarudyńce,village,8.0,1765.0,BRT,Zarudyńce,Bracław,Bracław,BRC_STRZYZAWKA,,,286.0,,,,,,,,,no_coords,none
64.0,,Rus,Strzyżawka,Dubowiec,village,4.0,1765.0,BRT,Dubovets,Bracław,Bracław,BRC_STRZYZAWKA,49.05441634,28.72466602,286.0,,49.0582813,28.7280052,"Дубовець, Вінницька область, Україна",337573969.0,Q4169389,,0.706,matched_db_api,medium
65.0,,Rus,Strzyżawka,Glinianiec,village,12.0,1765.0,BRT,Glinyanets,Bracław,Bracław,BRC_STRZYZAWKA,49.07049544,28.73736877,286.0,,49.0741907,28.7500794,"Глинянець, Вінницька область, Україна",337573353.0,Q4139893,,0.8,matched_db_api,medium
67.0,1.0,Rus,Sieliszcza,Sieliszcza,city,37.0,1765.0,BRT,Selyshche,Bracław,Bracław,BRC_SIELISZCZE,49.12883,28.35927,287.0,,49.1296694,28.358008,"Селище, Вінницька область, Україна",337570856.0,Q619830,,0.737,matched_db_api,medium
68.0,,Rus,Sieliszcza,Rowiec,village,5.0,1765.0,BRT,Riv,Bracław,Bracław,BRC_SIELISZCZE,49.08336,28.05899,287.0,,49.08336,28.05899,,,,,,reverted_to_original,low
69.0,,Rus,Sieliszcza,Biskupka,village,5.0,1765.0,BRT,Pysarivka,Bracław,Bracław,BRC_SIELISZCZE,49.1887,28.60449,287.0,,49.190338,28.606501,Писарівка,337567539.0,Q4363545,,1.0,matched_refined,high
70.0,,Rus,Sieliszcza,Bochenniki,village,4.0,1765.0,BRT,Bokhonyky,Bracław,Bracław,BRC_SIELISZCZE,49.16554,28.37415,287.0,,49.165882,28.368753,"Бохоники, Вінницька область, Україна",337569199.0,Q4095261,,0.778,matched_db_api,medium
71.0,,Rus,Sieliszcza,Czerlinkow,village,5.0,1765.0,BRT,Cherlinkiv,Bracław,Bracław,BRC_SIELISZCZE,49.16667,28.38333,287.0,,,,,,,,,not_found,medium
72.0,,Rus,Sieliszcza,Komarow,village,3.0,1765.0,BRT,Komariv,Bracław,Bracław,BRC_SIELISZCZE,49.13333,28.38333,287.0,,49.14253,28.67397,"Комарів, Вороновицька селищна громада, Вінницький район, Вінницька область, 23251, Україна",5308259.0,Q4229313,,1.0,matched_nominatim_modern,high
73.0,,Rus,Sieliszcza,Pilipi,village,3.0,1765.0,BRT,Pyliava,Bracław,Bracław,BRC_SIELISZCZE,49.07314,28.52343,287.0,,,,,,,,,not_found,medium
74.0,,Rus,Sieliszcza,Gryzince,village,8.0,1765.0,BRT,Grizhintsy,Bracław,Bracław,BRC_SIELISZCZE,49.08786509,28.39563612,287.0,,49.0880032,28.4012213,"Грижинці, Вінницька область, Україна",337572893.0,Q4149519,,0.706,matched_db_api,medium
75.0,,Rus,Sieliszcza,Witawka,village,4.0,1765.0,BRT,Vitava,Bracław,Bracław,BRC_SIELISZCZE,49.07582,28.36041,287.0,,,,,,,,,not_found,medium
77.0,1.0,Rus,Woroszyłowka,Woroszyłowka,city,116.0,1765.0,BRT,Voroshylivka,Bracław,Bracław,BRC_WOROSZYLOWKA,49.04354,28.33367,288.0,,49.043103,28.3326403,"Ворошилівка, Вінницька область, Україна",337574856.0,Q4126003,,0.667,matched_db_api,medium
78.0,,Rus,Woroszyłowka,Borskow,village,3.0,1765.0,BRT,Borskov,Bracław,Bracław,BRC_WOROSZYLOWKA,49.02598,28.38277,288.0,,49.0233426,28.3842148,"Борсків, Вінницька область, Україна",337575713.0,Q4094734,,0.857,matched_db_api,medium
79.0,,Rus,Woroszyłowka,Majanow,village,10.0,1765.0,BRT,Maianiv,Bracław,Bracław,BRC_WOROSZYLOWKA,49.00482214,28.3199102,288.0,,49.0107,28.32172,"Маянів, Вінницька область, Україна",337576315.0,Q4286424,,0.714,matched_db_api,medium
80.0,,Rus,Woroszyłowka,Witawa,village,7.0,1765.0,BRT,Vitava,Bracław,Bracław,BRC_WOROSZYLOWKA,49.07582,28.36041,288.0,,,,,,,,,not_found,medium
81.0,,Rus,Woroszyłowka,Taraszowka,village,5.0,1765.0,BRT,Tarasivka,Bracław,Bracław,BRC_WOROSZYLOWKA,48.90673,28.16376,288.0,,,,,,,,,not_found,low
82.0,,Rus,Woroszyłowka,Okuła,village,5.0,1765.0,BRT,Okuła,Bracław,Bracław,BRC_WOROSZYLOWKA,,,288.0,,,,,,,,,no_coords,none
84.0,1.0,Rus,Krasne,Krasne,city,466.0,1765.0,BRT,Krasne,Bracław,Bracław,BRC_KRASNE,48.91578,28.404,289.0,,48.916512,28.398561,"Красне, Тиврівська селищна громада, Вінницький район, Вінницька область, 23342, Україна",4844800.0,Q966264,,1.0,matched_nominatim,high
85.0,,Rus,Krasne,Hryszowce,village,5.0,1765.0,BRT,Hryshivtsi,Bracław,Bracław,BRC_KRASNE,48.94885,28.3455,289.0,,48.953129,28.340471,"Гришівці, Тиврівська селищна громада, Вінницький район, Вінницька область, Україна",4844818.0,Q4149863,,1.0,matched_nominatim_modern,high
86.0,,Rus,Krasne,Kobyleckie,village,7.0,1765.0,BRT,Kobeletske,Bracław,Bracław,BRC_KRASNE,48.93565,28.30284,289.0,,48.935509,28.30525,"Кобелецьке, Вінницька область, Україна",337579682.0,Q4225084,,0.727,matched_db_api,medium
87.0,,Rus,Krasne,Szczuczyńce,village,8.0,1765.0,BRT,Shchuchyntsi,Bracław,Bracław,BRC_KRASNE,48.96268,28.24673,289.0,,48.959541,28.24276,"Щучинці, Жмеринська міська громада, Жмеринський район, Вінницька область, Україна",6000250.0,Q4529278,,1.0,matched_nominatim_modern,high
88.0,,Rus,Krasne,Stroince,village,7.0,1765.0,BRT,Strointsi,Bracław,Bracław,BRC_KRASNE,48.90824,28.2994,289.0,,48.90633,28.30147,"Строїнці, Вінницька область, Україна",337580628.0,Q4444118,,0.706,matched_db_api,medium
89.0,,Rus,Krasne,Krasnianka,village,7.0,1765.0,BRT,Krasnianka,Bracław,Bracław,BRC_KRASNE,48.86243,28.34048,289.0,,48.862705,28.340137,"Краснянка, Тиврівська селищна громада, Вінницький район, Вінницька область, 23343, Україна",337582910.0,Q4239742,,1.0,matched_nominatim,high
90.0,,Rus,Krasne,Łopatyńce,village,12.0,1765.0,BRT,Lopatyntsi,Bracław,Bracław,BRC_KRASNE,48.81203496,28.36870031,289.0,,48.813786,28.366837,"Лопатинці, Вінницька область, Україна",337584763.0,Q4266676,,0.889,matched_db_api,medium
91.0,,Rus,Krasne,Strzelnik,village,7.0,1765.0,BRT,Strilnyky,Bracław,Bracław,BRC_KRASNE,48.79263,28.41,289.0,,48.793346,28.409977,"Стрільники, Вінницька область, Україна",337585591.0,Q4443791,,0.889,matched_db_api,medium
92.0,,Rus,Krasne,Zwiedenowka,village,8.0,1765.0,BRT,Zvedenivka,Bracław,Bracław,BRC_KRASNE,48.71051,28.41028,289.0,,48.710151,28.4120852,Зведенівка,337588338.0,Q4189344,,1.0,matched_cluster_fix,high
93.0,,Rus,Krasne,Rachny Lasowe,village,13.0,1765.0,BRT,Rakhny-Lisovi,Bracław,Bracław,BRC_KRASNE,48.7868,28.48314,289.0,,48.781792,28.480291,"Рахни-Лісові, Шпиківська селищна громада, Тульчинський район, Вінницька область, 23536, Україна",337586058.0,Q4391217,,1.0,matched_nominatim,high
94.0,,Rus,Krasne,Huta Szpikowska,village,4.0,1765.0,BRT,Shpykiv,Bracław,Bracław,BRC_KRASNE,48.78411,28.56359,289.0,,48.7860654,28.5647525,"Винокурня, Вінницька область, Україна",337585989.0,Q2652167,שפיקיב,0.636,matched_db_api,medium
95.0,,Rus,Krasne,Sledzie,village,4.0,1765.0,BRT,Slidy,Bracław,Bracław,BRC_KRASNE,48.82065,28.51441,289.0,,48.8174253,28.5229855,"Сліди, Вінницька область, Україна",337584605.0,Q4423296,,0.667,matched_db_api,medium
96.0,,Rus,Krasne,Buszynka,village,6.0,1765.0,BRT,Bushynka,Bracław,Bracław,BRC_KRASNE,48.83402,28.46036,289.0,,48.834351,28.457081,"Бушинка, Вінницька область, Україна",337584020.0,Q4100672,,0.933,matched_db_api,high
97.0,,Rus,Krasne,Ujarzynce,village,9.0,1765.0,BRT,Uiaryntsi,Bracław,Bracław,BRC_KRASNE,48.8642,28.4848,289.0,,48.863258,28.484102,"Уяринці, Тиврівська селищна громада, Вінницький район, Вінницька область, 23344, Україна",5588559.0,Q4479884,,1.0,matched_nominatim_modern,high
98.0,,Rus,Krasne,Onypkowce,village,7.0,1765.0,BRT,Onytkivtsi,Bracław,Bracław,BRC_KRASNE,48.94193,28.53665,289.0,,48.942764,28.536524,"Онитківці, Тиврівська селищна громада, Вінницький район, Вінницька область, Україна",5404228.0,Q4334910,,1.0,matched_nominatim_modern,high
99.0,,Rus,Krasne,Żachnowka,village,9.0,1765.0,BRT,Zhakhnivka,Bracław,Bracław,BRC_KRASNE,48.93597,28.57798,289.0,,48.935116,28.573057,"Жахнівка, Вінницька область, Україна",337579729.0,Q4178372,,0.737,matched_db_api,medium
100.0,,Rus,Krasne,Iwanowce,village,6.0,1765.0,BRT,Ivonivtsi,Bracław,Bracław,BRC_KRASNE,48.9071,28.58757,289.0,,48.906269,28.585272,"Івонівці, Тиврівська селищна громада, Вінницький район, Вінницька область, 23351, Україна",5404226.0,Q4197264,,1.0,matched_nominatim_modern,high
101.0,,Rus,Krasne,Worobijowka,village,7.0,1765.0,BRT,Vorobiivka,Bracław,Bracław,BRC_KRASNE,48.92166,28.67686,289.0,,48.924179,28.67672,"Воробіївка, Вінницька область, Україна",337580060.0,Q4125090,,0.667,matched_db_api,medium
102.0,,Rus,Krasne,Rohozna,village,14.0,1765.0,BRT,Rohizna,Bracław,Bracław,BRC_KRASNE,48.88827,28.62958,289.0,,48.88802,28.631109,"Рогізна, Вінницька область, Україна",337581448.0,Q4395620,,0.857,matched_db_api,medium
103.0,,Rus,Krasne,Ułyszka,village,5.0,1765.0,BRT,Mala Vulyha,Bracław,Bracław,BRC_KRASNE,48.86474,28.6277,289.0,,48.8671873,28.629972,"Мала Вулига, Шпиківська селищна громада, Тульчинський район, Вінницька область, 23353, Україна",6020219.0,Q4276798,,1.0,matched_nominatim_modern,high
104.0,,Rus,Krasne,Szpikow,village,21.0,1765.0,BRT,Shpykiv,Bracław,Bracław,BRC_KRASNE,48.78411,28.56359,289.0,,48.7860654,28.5647525,"Шпиків, Шпиківська селищна громада, Тульчинський район, Вінницька область, 23614, Україна",337585989.0,Q2652167,שפיקיב,1.0,matched_nominatim,high
105.0,,Rus,Krasne,Lewkowka,village,4.0,1765.0,BRT,Levkivtsi,Bracław,Bracław,BRC_KRASNE,48.74556,28.53607,289.0,,,,,,,,,not_found,medium
106.0,,Rus,Krasne,Jurkowka,village,5.0,1765.0,BRT,Yurkivka,Bracław,Bracław,BRC_KRASNE,48.68887817,28.57916179,289.0,,48.69244,28.582584,Юрківка,337589056.0,Q4534994,,1.0,matched_cluster_fix,high
107.0,,Rus,Krasne,Ułyha,village,9.0,1765.0,BRT,Velyka Vulyha,Bracław,Bracław,BRC_KRASNE,48.85788,28.58134,289.0,,48.858482,28.576309,Велика Вулига,337582925.0,Q4106244,,1.0,matched_refined,high
108.0,,Rus,Krasne,Stoiany,village,9.0,1765.0,BRT,Stoyany,Bracław,Bracław,BRC_KRASNE,48.86667,28.55,289.0,,,,,,,,,not_found,medium
109.0,,Rus,Krasne,Perohow,village,6.0,1765.0,BRT,Pyrohiv,Bracław,Bracław,BRC_KRASNE,48.90648,28.48187,289.0,,48.90667,28.479309,"Пирогів, Тиврівська селищна громада, Вінницький район, Вінницька область, Україна",4819387.0,Q4363365,,1.0,matched_nominatim_modern,high
110.0,,Rus,Krasne,Rachny Polowe,village,13.0,1765.0,BRT,Rakhny-Polovi,Bracław,Bracław,BRC_KRASNE,48.91118,28.51259,289.0,,48.912159,28.509871,"Рахни-Польові, Вінницька область, Україна",337580457.0,Q4391213,,0.72,matched_db_api,medium
111.0,,Rus,Krasne,Rapaicha,village,5.0,1765.0,BRT,Rapaicha,Bracław,Bracław,BRC_KRASNE,,,289.0,,,,,,,,,no_coords,none
112.0,,Rus,Krasne,Czeremoszna,village,5.0,1765.0,BRT,Cheremoshne,Bracław,Bracław,BRC_KRASNE,48.9553,28.41747,289.0,,48.952332,28.421289,"Черемошне, Вінницька область, Україна",337579162.0,Q4512743,,0.727,matched_db_api,medium
113.0,,Rus,Krasne,Iwankowce,village,7.0,1765.0,BRT,Ivankivtsi,Bracław,Bracław,BRC_KRASNE,48.9605,28.38469,289.0,,48.960911,28.386271,"Іванківці, Тиврівська селищна громада, Вінницький район, Вінницька область, 23326, Україна",4844814.0,Q4195848,,1.0,matched_nominatim_modern,high
114.0,,Rus,Krasne,Sutyska,village,9.0,1765.0,BRT,Sutysky,Bracław,Bracław,BRC_KRASNE,49.03901,28.41956,289.0,,49.03901,28.41956,,,,,,reverted_to_original,medium
115.0,,Rus,Krasne,"Rososze, Przedmieście Krasniańskie",city,11.0,1765.0,BRT,"Rososze, Przedmieście Krasniańskie",Bracław,Bracław,BRC_KRASNE,,,289.0,,,,,,,,,no_coords,none
116.0,,Rus,Krasne,"Szwaczówka, Przedmieście Krasniańskie",city,7.0,1765.0,BRT,"Szwaczówka, Przedmieście Krasniańskie",Bracław,Bracław,BRC_KRASNE,,,289.0,,,,,,,,,no_coords,none
118.0,1.0,Rus,Tomaszpol,Tomaszpol,city,446.0,1765.0,BRT,Tomashpil,Bracław,Bracław,BRC_TOMASZPOL,48.53695,28.51295,290.0,,48.5487589,28.5188146,"Томашпіль, Томашпільська селищна громада, Тульчинський район, Вінницька область, 24200, Україна",337594569.0,Q2641624,,1.0,matched_nominatim,medium
119.0,,Rus,Tomaszpol,Hołowo Rusawa,village,15.0,1765.0,BRT,Golovarusava,Bracław,Bracław,BRC_TOMASZPOL,48.64651,28.51682,290.0,,,,,,,,,not_found,medium
120.0,,Rus,Tomaszpol,Pienkowka,village,10.0,1765.0,BRT,Penkivka,Bracław,Bracław,BRC_TOMASZPOL,48.57829,28.42537,290.0,,48.580479,28.42275,"Пеньківка, Вінницька область, Україна",396720005.0,Q4348710,,0.824,matched_db_api,medium
121.0,,Rus,Tomaszpol,Antonowka,village,13.0,1765.0,BRT,Antonivka,Bracław,Bracław,BRC_TOMASZPOL,48.53093,28.43095,290.0,,48.538937,28.424288,"Антонівка, Вінницька область, Україна",337594930.0,Q4067493,,0.889,matched_db_api,medium
122.0,,Rus,Tomaszpol,Widły,village,11.0,1765.0,BRT,Vyla,Bracław,Bracław,BRC_TOMASZPOL,48.49603,28.43747,290.0,,48.498665,28.436609,"Вила, Вінницька область, Україна",387517274.0,Q335950,,0.667,matched_db_api,medium
123.0,,Rus,Tomaszpol,Rusawka,village,16.0,1765.0,BRT,Rusava,Bracław,Bracław,BRC_TOMASZPOL,48.47752,28.44402,290.0,,48.46859,28.45219,"Томашпільська селищна громада, Вінницька область, Україна",337597419.0,Q4400203,,0.769,matched_db_api,medium
124.0,,Rus,Tomaszpol,Ihnatkow,village,12.0,1765.0,BRT,Hnatkiv,Bracław,Bracław,BRC_TOMASZPOL,48.44822,28.49185,290.0,,48.450726,28.484282,"Гнатків, Вінницька область, Україна",337598051.0,Q4140584,,0.8,matched_db_api,medium
125.0,,Rus,Tomaszpol,Kaczkowka,village,8.0,1765.0,BRT,Kachkivka,Bracław,Bracław,BRC_TOMASZPOL,48.28445,28.46377,290.0,,,,,,,,,not_found,low
127.0,1.0,Rus,Miastkowka,Miastkowka,city,604.0,1765.0,BRT,Horodkivka,Bracław,Bracław,BRC_MIASTKOWKA,48.37714,28.6876,291.0,,48.3805801,28.6870061,Городківка,337600427.0,Q2064434,,1.0,matched_refined,high
128.0,,Rus,Miastkowka,Dachtalia,village,12.0,1765.0,BRT,Dakhtaliia,Bracław,Bracław,BRC_MIASTKOWKA,48.39582,28.57745,291.0,,48.3967078,28.5779943,Дахталія,337600188.0,Q4155363,,1.0,matched_cluster_fix,high
129.0,,Rus,Miastkowka,Netrebowka,village,3.0,1765.0,BRT,Netrebivka,Bracław,Bracław,BRC_MIASTKOWKA,48.41039,28.54678,291.0,,48.4082422,28.5447997,Нетребівка,337599390.0,Q4317942,,1.0,matched_cluster_fix,high
130.0,,Rus,Miastkowka,Jałaniec,village,9.0,1765.0,BRT,Yalanets,Bracław,Bracław,BRC_MIASTKOWKA,48.37992,28.49178,291.0,,48.385757,28.488306,Яланець,337600367.0,Q4537396,,1.0,matched_cluster_fix,high
131.0,,Rus,Miastkowka,Werbka,village,7.0,1765.0,BRT,Verbka,Bracław,Bracław,BRC_MIASTKOWKA,48.28861,28.56858,291.0,,48.288841,28.568348,Вербка,337603806.0,Q4107420,,1.0,matched_cluster_fix,high
132.0,,Rus,Miastkowka,Dżugastra,village,9.0,1765.0,BRT,Dzhuhastra,Bracław,Bracław,BRC_MIASTKOWKA,48.33938,28.63981,291.0,,48.342373,28.639275,"Джугастра, Городківська сільська громада, Тульчинський район, Вінницька область, 24620, Україна",289087562.0,Q619564,,0.947,matched_nominatim,high
133.0,,Rus,Miastkowka,Olszanka,village,13.0,1765.0,BRT,Vilshanka,Bracław,Bracław,BRC_MIASTKOWKA,48.25508411,28.6259079,291.0,,48.24852,28.63072,Вільшанка,337605426.0,Q4334397,,1.0,matched_cluster_fix,high
134.0,,Rus,Miastkowka,Chrestyscza,village,8.0,1765.0,BRT,Chrestyscza,Bracław,Bracław,BRC_MIASTKOWKA,,,291.0,,,,,,,,,no_coords,none
135.0,,Rus,Miastkowka,Stawki,village,10.0,1765.0,BRT,Stavky,Bracław,Bracław,BRC_MIASTKOWKA,48.26271,28.88093,291.0,,48.263969,28.88168,"Ставки, Вінницька область, Україна",337604898.0,Q4438951,,0.833,matched_db_api,medium
136.0,,Rus,Miastkowka,Piszczanka,village,7.0,1765.0,BRT,Pishchanka,Bracław,Bracław,BRC_MIASTKOWKA,48.21249,28.88056,291.0,,48.2077558,28.8864581,"Піщанка, Вінницька область, Україна",337656281.0,Q2473540,,0.952,matched_db_api,high
137.0,,Rus,Miastkowka,Rudnicka,village,18.0,1765.0,BRT,Rudnytske,Bracław,Bracław,BRC_MIASTKOWKA,48.25416974,29.00115967,291.0,,48.2571,28.9349,"Рудниця, Вінницька область, Україна",337605172.0,Q2473553,,0.933,matched_db_api,high
138.0,,Rus,Miastkowka,Wałowiec,village,16.0,1765.0,BRT,Volovaya,Bracław,Bracław,BRC_MIASTKOWKA,48.15546,28.66252,291.0,,,,,,,,,not_found,medium
139.0,,Rus,Miastkowka,Popieluchi,village,9.0,1765.0,BRT,Popeliukhy,Bracław,Bracław,BRC_MIASTKOWKA,48.21579,28.97181,291.0,,,,,,,,,not_found,medium
140.0,,Rus,Miastkowka,Krzykliwska Słoboda,village,4.0,1765.0,BRT,Kriklivets,Bracław,Bracław,BRC_MIASTKOWKA,48.31667,28.98333,291.0,,48.321651,28.98056,"Крикливець, Крижопільська селищна громада, Тульчинський район, Вінницька область, 24641, Україна",337602592.0,Q4241009,,1.0,matched_nominatim_modern,high
141.0,,Rus,Miastkowka,Krzykliwiec,village,12.0,1765.0,BRT,Kryklyvets,Bracław,Bracław,BRC_MIASTKOWKA,48.3208,28.98154,291.0,,48.321651,28.98056,"Крикливець, Вінницька область, Україна",337602592.0,Q4241009,,0.7,matched_db_api,medium
142.0,,Rus,Miastkowka,Żabokrzycz,village,41.0,1765.0,BRT,Zhabokrych,Bracław,Bracław,BRC_MIASTKOWKA,48.38498618,28.99909973,291.0,,48.3832397,29.0006939,"Жабокрич, Крижопільська селищна громада, Тульчинський район, Вінницька область, 24640, Україна",337600397.0,Q4177731,ז'בוקריץ',1.0,matched_nominatim,high
143.0,,Rus,Miastkowka,Lewkow,village,9.0,1765.0,BRT,Levkiv,Bracław,Bracław,BRC_MIASTKOWKA,48.43751,29.06444,291.0,,,,,,,,,not_found,medium
144.0,,Rus,Miastkowka,Sokołowka,village,26.0,1765.0,BRT,Sokolivka,Bracław,Bracław,BRC_MIASTKOWKA,48.44085,28.99771,291.0,,48.4416223,28.9962266,"Соколівка, Крижопільська селищна громада, Тульчинський район, Вінницька область, 24635, Україна",337598470.0,Q4427323,,1.0,matched_nominatim,high
145.0,,Rus,Miastkowka,Szarapanowka,village,28.0,1765.0,BRT,Sharapanivka,Bracław,Bracław,BRC_MIASTKOWKA,48.49339,28.88071,291.0,,48.4928606,28.8821987,"Шарапанівка, Вінницька область, Україна",337596615.0,Q4520419,,0.833,matched_db_api,medium
146.0,,Rus,Miastkowka,Czobotarki,village,8.0,1765.0,BRT,Zhabokrych,Bracław,Bracław,BRC_MIASTKOWKA,48.38284,29.00683,291.0,,48.4282529,28.9009091,"Заболотне, Вінницька область, Україна",337598792.0,Q4182521,,0.8,matched_db_api,medium
147.0,,Rus,Miastkowka,Tarnawka,village,9.0,1765.0,BRT,Ternivka,Bracław,Bracław,BRC_MIASTKOWKA,48.39432,28.90156,291.0,,48.389622,28.899191,"Тернівка, Вінницька область, Україна",337600281.0,Q4456019,,0.625,matched_db_api,medium
148.0,,Rus,Miastkowka,Zielinianka,village,14.0,1765.0,BRT,Zelenianka,Bracław,Bracław,BRC_MIASTKOWKA,48.34352,28.87739,291.0,,48.3463494,28.876485,"Зеленянка, Вінницька область, Україна",337601447.0,Q4190476,,0.857,matched_db_api,medium
149.0,,Rus,Miastkowka,Characzkowka,village,16.0,1765.0,BRT,Hariachkivka,Bracław,Bracław,BRC_MIASTKOWKA,48.32784,28.74849,291.0,,48.3358,28.750473,"Гарячківка, Вінницька область, Україна",337601839.0,Q4146347,,0.667,matched_db_api,medium
150.0,,Rus,Miastkowka,Wysoka Grobla,village,6.0,1765.0,BRT,Vysoka Hreblia,Bracław,Bracław,BRC_MIASTKOWKA,48.3966,28.70081,291.0,,48.397331,28.699322,"Висока Гребля, Вінницька область, Україна",337600107.0,Q4129262,,0.759,matched_db_api,medium
152.0,1.0,Rus,Cekinowka,Cekinowka,city,187.0,1765.0,BRT,Tsekynivka,Bracław,Bracław,BRC_CEKINOWKA,48.15331,28.31719,292.0,,48.153152,28.317617,"Цекинівка, Вінницька область, Україна",337657910.0,Q4503709,,0.778,matched_db_api,medium
153.0,,Rus,Cekinowka,Kosnica,village,4.0,1765.0,BRT,Velyka Kisnytsia,Bracław,Bracław,BRC_CEKINOWKA,48.13539,28.44334,292.0,,,,,,,,,not_found,medium
154.0,,Rus,Cekinowka,Gruszka,village,15.0,1765.0,BRT,Hrabarivka,Bracław,Bracław,BRC_CEKINOWKA,48.11224519,28.56754303,292.0,,,,,,,,,not_found,medium
155.0,,Rus,Cekinowka,Tryboszowka,village,12.0,1765.0,BRT,Trybusivka,Bracław,Bracław,BRC_CEKINOWKA,48.18642,28.65272,292.0,,,,,,,,,not_found,medium
156.0,,Rus,Cekinowka,Kietrosy,village,9.0,1765.0,BRT,Dovzhok,Bracław,Bracław,BRC_CEKINOWKA,48.23966,28.52579,292.0,,48.237263,28.517719,"Довжок, Вінницька область, Україна",337605785.0,Q4164880,,0.8,matched_db_api,medium
157.0,,Rus,Cekinowka,Podlesowka,village,7.0,1765.0,BRT,Pidlisivka,Bracław,Bracław,BRC_CEKINOWKA,48.23966,28.47688,292.0,,48.2375275,28.4780194,"Підлісівка, Ямпільська міська громада, Могилів-Подільський район, Вінницька область, 24542, Україна",337605950.0,Q4367783,,1.0,matched_nominatim,high
158.0,,Rus,Cekinowka,Jankułow,village,3.0,1765.0,BRT,Ivankiv,Bracław,Bracław,BRC_CEKINOWKA,48.21102,28.37506,292.0,,48.2136405,28.3787769,"Іванків, Ямпільська міська громада, Могилів-Подільський район, Вінницька область, 24540, Україна",337655934.0,Q4195808,,1.0,matched_nominatim_modern,high
160.0,1.0,Rus,Czeczelnik,Czeczelnik,city,485.0,1765.0,BRT,Chechelnyk,Bracław,Bracław,BRC_CZERNIOWCE,48.21517966,29.3625927,293.0,,48.2126987,29.3598689,"Чечельник, Чечельницька селищна громада, Гайсинський район, Вінницька область, 24800-24804, Україна",246046839.0,Q1721808,,1.0,matched_nominatim,high
161.0,,Rus,Czeczelnik,Nowe Miasto,city,60.0,1765.0,BRT,Olhopil,Bracław,Bracław,BRC_CZERNIOWCE,48.18577,29.49499,293.0,,48.184544,29.486103,"Ольгопіль, Ольгопільська сільська громада, Гайсинський район, Вінницька область, 24830, Україна",337657024.0,Q393307,,1.0,matched_nominatim_modern,high
162.0,,Rus,Czeczelnik,Rohuzna,village,9.0,1765.0,BRT,Rohizka,Bracław,Bracław,BRC_CZERNIOWCE,48.24622549,29.44164276,293.0,,48.2475039,29.444017,"Рогізка, Вінницька область, Україна",337605564.0,Q4395607,,0.714,matched_db_api,medium
163.0,,Rus,Czeczelnik,Demowka,village,25.0,1765.0,BRT,Demivka,Bracław,Bracław,BRC_CZERNIOWCE,48.14547243,29.57622528,293.0,,48.155128,29.571421,"Демівка, Вінницька область, Україна",337657928.0,Q4157633,,0.857,matched_db_api,medium
164.0,,Rus,Czeczelnik,Słoboda Demowska,village,6.0,1765.0,BRT,Demivka,Bracław,Bracław,BRC_CZERNIOWCE,48.14547243,29.57622528,293.0,,48.155128,29.571421,"Демівка, Ольгопільська сільська громада, Гайсинський район, Вінницька область, 24832, Україна",337657928.0,Q4157633,,1.0,matched_nominatim_modern,high
165.0,,Rus,Czeczelnik,Lubomirka,village,20.0,1765.0,BRT,Liubomyrka,Bracław,Bracław,BRC_CZERNIOWCE,48.13344436,29.51322556,293.0,,48.134639,29.5141558,"Любомирка, Ольгопільська сільська громада, Гайсинський район, Вінницька область, 24833, Україна",337658620.0,Q7232760,,0.947,matched_nominatim,high
166.0,,Rus,Czeczelnik,Matyiowka,village,12.0,1765.0,BRT,Stratiivka,Bracław,Bracław,BRC_CZERNIOWCE,48.14111974,29.41623688,293.0,,48.142323,29.431952,"Стратіївка, Вінницька область, Україна",337658472.0,Q4443430,,0.6,matched_db_api,medium
167.0,,Rus,Czeczelnik,Popowa Grobla,village,21.0,1765.0,BRT,Popova Hreblia,Bracław,Bracław,BRC_CZERNIOWCE,48.12994996,29.29761887,293.0,,48.13591,29.30191,"Попова Гребля, Вінницька область, Україна",337658659.0,Q4512036,,0.815,matched_db_api,medium
168.0,,Rus,Czeczelnik,Rozboyna,village,11.0,1765.0,BRT,Stratiivka,Bracław,Bracław,BRC_CZERNIOWCE,48.13998,29.42608,293.0,,48.142323,29.431952,"Стратіївка, Ольгопільська сільська громада, Гайсинський район, Вінницька область, 24831, Україна",337658472.0,Q4443430,,1.0,matched_nominatim_modern,high
169.0,,Rus,Czeczelnik,Łuh,village,17.0,1765.0,BRT,Staro-Lug,Bracław,Bracław,BRC_CZERNIOWCE,48.21437897,29.14089203,293.0,,,,,,,,,not_found,low
170.0,,Rus,Czeczelnik,Werbka,village,46.0,1765.0,BRT,Verbka,Bracław,Bracław,BRC_CZERNIOWCE,48.21460774,29.27616119,293.0,,48.215561,29.278219,"Вербка, Вінницька область, Україна",1092127549.0,Q4107426,,0.833,matched_db_api,medium
171.0,,Rus,Czeczelnik,Biały Kamień,village,5.0,1765.0,BRT,Bilyi Kamin,Bracław,Bracław,BRC_CZERNIOWCE,48.26491251,29.37675476,293.0,,48.2670748,29.3740317,"Білий Камінь, Вінницька область, Україна",337604916.0,Q4083074,,0.87,matched_db_api,medium
172.0,,Rus,Czeczelnik,Sawranka,village,7.0,1765.0,BRT,Sarazhinka,Bracław,Bracław,BRC_CZERNIOWCE,48.08834,29.44918,293.0,,48.0860801,29.4489546,"Саражинка, Одеська область, Україна",1107804200.0,Q4408274,,0.824,matched_db_api,medium
174.0,1.0,Rus,Raszkow,Raszkow,city,103.0,1765.0,BRT,Oleksiivka,Bracław,Bracław,BRC_RASZKOW,47.95061559,28.8236618,294.0,,47.9500431,28.8303236,"Рашков, Районул Каменка / Каменский район / Кам'янський район, Unitățile administrativ-teritoriale din stînga Nistrului, Нистрения / Приднестровье / Придністров'я, Moldova",19015114.0,Q20858803,,1.0,matched_nominatim,high
175.0,,Rus,Raszkow,Podeyna,village,6.0,1765.0,BRT,Zahnitkiv,Bracław,Bracław,BRC_RASZKOW,47.99279375,28.77559662,294.0,,47.9964304,28.7724797,"Подойма, Районул Каменка / Каменский район / Кам'янський район, Нистрения / Приднестровье / Придністров'я, Moldova",278775845.0,Q2457255,,0.714,matched_db_api,medium
176.0,,Rus,Raszkow,Podeymica,village,3.0,1765.0,BRT,Zahnitkiv,Bracław,Bracław,BRC_RASZKOW,47.99991581,28.74555588,294.0,,48.0008812,28.7518097,"Подоймица, Районул Каменка / Каменский район / Кам'янський район, Нистрения / Приднестровье / Придністров'я, Moldova",278775843.0,Q11166454,,0.778,matched_db_api,medium
177.0,,Rus,Raszkow,Kamienka,village,9.0,1765.0,BRT,Bolhan,Bracław,Bracław,BRC_RASZKOW,48.03149376,28.69972229,294.0,,48.0321816,28.7042359,"Каменка, Районул Каменка / Каменский район / Кам'янський район, Нистрения / Приднестровье / Придністров'я, Moldova",278775848.0,Q2021260,,0.933,matched_db_api,high
178.0,,Rus,Raszkow,Kuzmin,village,7.0,1765.0,BRT,Volovaya,Bracław,Bracław,BRC_RASZKOW,48.09327312,28.62977028,294.0,,48.0939291,28.6345618,Кузьмин,278775866.0,Q1994067,,1.0,matched_cluster_fix,medium
179.0,,Rus,Raszkow,Chrustowa,village,11.0,1765.0,BRT,Bolhan,Bracław,Bracław,BRC_RASZKOW,48.10662881,28.73096466,294.0,,48.1125537,28.7351497,"Хрустовая, Районул Каменка / Каменский район / Кам'янський район, Нистрения / Приднестровье / Придністров'я, Moldova",278775855.0,Q2457195,,0.9,matched_db_api,high
180.0,,Rus,Raszkow,Bułhany,village,6.0,1765.0,BRT,Bolhan,Bracław,Bracław,BRC_RASZKOW,48.14373,28.73097,294.0,,48.1527078,28.7404347,"Болган, Вінницька область, Україна",337658388.0,Q335694,,0.769,matched_db_api,medium
181.0,,Rus,Raszkow,Kukuły,village,17.0,1765.0,BRT,Kukuly,Bracław,Bracław,BRC_RASZKOW,48.16997,28.74935,294.0,,48.1809378,28.7513028,"Кукули, Студенянська сільська громада, Тульчинський район, Вінницька область, 24713, Україна",337656912.0,Q281980,,1.0,matched_nominatim,high
182.0,,Rus,Raszkow,Dimitraszkowka,village,11.0,1765.0,BRT,Dmytrashkivka,Bracław,Bracław,BRC_RASZKOW,48.19848,28.77362,294.0,,48.190151,28.77113,"Дмитрашківка, Вінницька область, Україна",337656764.0,Q236963,,0.815,matched_db_api,medium
183.0,,Rus,Raszkow,Studenna,village,10.0,1765.0,BRT,Studena,Bracław,Bracław,BRC_RASZKOW,48.14287,28.8559,294.0,,48.1457286,28.8527159,"Студена, Вінницька область, Україна",337658524.0,Q703589,,0.933,matched_db_api,high
184.0,,Rus,Raszkow,Zahnitkow,village,14.0,1765.0,BRT,Zatyshne,Bracław,Bracław,BRC_RASZKOW,48.16116567,28.89006546,294.0,,48.159599,28.89439,Затишне,337657828.0,Q4188380,,1.0,matched_refined,high
185.0,,Rus,Raszkow,Besztańkow,village,9.0,1765.0,BRT,Bashtankiv,Bracław,Bracław,BRC_RASZKOW,48.10641,29.00075,294.0,,48.1097984,28.9955479,"Баштанків, Одеська область, Україна",337659611.0,Q579328,,0.7,matched_db_api,medium
186.0,,Rus,Raszkow,Honorowka,village,8.0,1765.0,BRT,Honorivka,Bracław,Bracław,BRC_RASZKOW,48.17913692,29.0039761,294.0,,48.179852,29.00631,"Гонорівка, Вінницька область, Україна",337657150.0,Q4143124,,0.778,matched_db_api,medium
187.0,,Rus,Raszkow,Peryżna,village,9.0,1765.0,BRT,Pyrizhna,Bracław,Bracław,BRC_RASZKOW,48.15435673,29.10318859,294.0,,,,,,,,,not_found,medium
188.0,,Rus,Raszkow,Serby,village,5.0,1765.0,BRT,Serby,Bracław,Bracław,BRC_RASZKOW,48.10061,29.0646,294.0,,48.1020607,29.0658646,"Серби, Кодимська міська громада, Подільський район, Одеська область, 66011, Україна",1112758947.0,Q4416724,,1.0,matched_nominatim,high
189.0,,Rus,Raszkow,Biłocz,village,9.0,1765.0,BRT,Shershentsi,Bracław,Bracław,BRC_RASZKOW,47.88365752,28.98536682,294.0,,,,,,,,,not_found,medium
190.0,,Rus,Raszkow,Pisarzowka,village,7.0,1765.0,BRT,Pysarivka,Bracław,Bracław,BRC_RASZKOW,48.04988,29.04549,294.0,,,,,,,,,not_found,medium
191.0,,Rus,Raszkow,Hrabowa,village,7.0,1765.0,BRT,Hrabove,Bracław,Bracław,BRC_RASZKOW,48.02341,29.03594,294.0,,,,,,,,,not_found,medium
192.0,,Rus,Raszkow,Szerzyńce,village,7.0,1765.0,BRT,Shershentsi,Bracław,Bracław,BRC_RASZKOW,47.98823,29.00876,294.0,,47.9929832,29.0132806,"Шершенці, Кодимська міська громада, Подільський район, Одеська область, 66034, Україна",337663538.0,Q4523249,,1.0,matched_nominatim_modern,high
193.0,,Rus,Raszkow,Wadeturkuł,village,9.0,1765.0,BRT,Shershentsi,Bracław,Bracław,BRC_RASZKOW,47.94187684,28.99772644,294.0,,,,,,,,,not_found,medium
194.0,,Rus,Raszkow,Stroince,village,5.0,1765.0,BRT,Oleksiivka,Bracław,Bracław,BRC_RASZKOW,47.88595992,28.93318176,294.0,,,,,,,,,not_found,medium
195.0,,Rus,Raszkow,Manastyrzyszcze,village,6.0,1765.0,BRT,Manastyrzyszcze,Bracław,Bracław,BRC_RASZKOW,,,294.0,,,,,,,,,no_coords,none
196.0,,Rus,Raszkow,Księża Słoboda,village,2.0,1765.0,BRT,Slobidka,Bracław,Bracław,BRC_RASZKOW,47.88372,29.344,294.0,,,,,,,,,not_found,low
198.0,1.0,Rus,Krute,Krute,city,373.0,1765.0,BRT,Kruti,Bracław,Bracław,BRC_KRUTE,47.96086,29.20302,295.0,,47.958069,29.20166,Круті,1107990989.0,Q4242557,,1.0,matched_cluster_fix,high
199.0,,Rus,Krute,Płoty,village,7.0,1765.0,BRT,Kruti,Bracław,Bracław,BRC_KRUTE,47.95712625,29.15713693,295.0,,,,,,,,,not_found,medium
200.0,,Rus,Krute,Łabuszna,village,6.0,1765.0,BRT,Labushne,Bracław,Bracław,BRC_KRUTE,48.02239,29.13654,295.0,,,,,,,,,not_found,medium
201.0,,Rus,Krute,Francuzka,village,7.0,1765.0,BRT,Fedorivka,Bracław,Bracław,BRC_KRUTE,48.06408487,29.19513702,295.0,,48.0625746,29.1998146,Федорівка,337660764.0,Q4494100,,1.0,matched_cluster_fix,high
202.0,,Rus,Krute,Budeje,village,6.0,1765.0,BRT,Budey,Bracław,Bracław,BRC_KRUTE,48.04641478,29.28165436,295.0,,,,,,,,,not_found,medium
203.0,,Rus,Krute,Berezowka,village,4.0,1765.0,BRT,Berezivka,Bracław,Bracław,BRC_KRUTE,47.9849,29.37281,295.0,,,,,,,,,not_found,medium
204.0,,Rus,Krute,Jelenowka,village,5.0,1765.0,BRT,Olenivka,Bracław,Bracław,BRC_KRUTE,47.95326,29.50584,295.0,,,,,,,,,not_found,medium
205.0,,Rus,Krute,Żernaty,village,12.0,1765.0,BRT,Żernaty,Bracław,Bracław,BRC_KRUTE,,,295.0,,,,,,,,,no_coords,none
206.0,,Rus,Krute,Swinna,village,7.0,1765.0,BRT,Sinne,Bracław,Bracław,BRC_KRUTE,47.92094384,29.55974579,295.0,,47.92094384,29.55974579,,,,,,reverted_to_original,medium
207.0,,Rus,Krute,Chotary,village,13.0,1765.0,BRT,Koshary,Bracław,Bracław,BRC_KRUTE,47.70722,29.39333,295.0,,47.6901049,29.3942846,Кошари,3455123791.0,,,1.0,matched_refined,high
208.0,,Rus,Krute,Lubomirka,village,9.0,1765.0,BRT,Liubomyrka,Bracław,Bracław,BRC_KRUTE,47.76337,29.48492,295.0,,,,,,,,,not_found,medium
209.0,,Rus,Krute,Kosy,village,10.0,1765.0,BRT,Kosy,Bracław,Bracław,BRC_KRUTE,47.67896,29.49778,295.0,,47.6792952,29.4973436,Коси,337672180.0,Q4235813,,1.0,matched_cluster_fix,high
210.0,,Rus,Krute,Okno,village,17.0,1765.0,BRT,Okny,Bracław,Bracław,BRC_KRUTE,47.54293,29.45586,295.0,,47.5399,29.45881,Окни,337674892.0,Q1786696,,1.0,matched_cluster_fix,medium
211.0,,Rus,Krute,Kiskułuna,village,10.0,1765.0,BRT,Kiskułuna,Bracław,Bracław,BRC_KRUTE,,,295.0,,,,,,,,,no_coords,none
212.0,,Rus,Krute,Czorna,village,11.0,1765.0,BRT,Chorna,Bracław,Bracław,BRC_KRUTE,47.61999,29.33845,295.0,,47.6050385,29.321936,"Чорна, Одеська область, Україна",337673634.0,Q4518539,,0.909,matched_db_api,high
213.0,,Rus,Krute,Zopała,village,8.0,1765.0,BRT,Topaly,Bracław,Bracław,BRC_KRUTE,47.60120636,29.29712248,295.0,,47.6060313,29.2703664,"Топали, Одеська область, Україна",337673607.0,Q4460645,,0.833,matched_db_api,medium
214.0,,Rus,Krute,Dihor,village,5.0,1765.0,BRT,Dihory,Bracław,Bracław,BRC_KRUTE,47.62812,29.29761,295.0,,47.62616,29.297056,"Дігори, Одеська область, Україна",337673299.0,Q4161327,,0.909,matched_db_api,high
215.0,,Rus,Krute,Gawenos,village,8.0,1765.0,BRT,Havynosy,Bracław,Bracław,BRC_KRUTE,47.6634,29.29858,295.0,,47.66399,29.294106,"Гавиноси, Одеська область, Україна",337672635.0,Q4131048,,0.8,matched_db_api,medium
216.0,,Rus,Krute,Kulna,village,7.0,1765.0,BRT,Stara Kulna,Bracław,Bracław,BRC_KRUTE,47.69476,29.31494,295.0,,47.6990924,29.3162399,"Стара Кульна, Куяльницька сільська громада, Подільський район, Одеська область, 66334, Україна",337671884.0,Q4439712,,0.625,matched_nominatim,medium
217.0,,Rus,Krute,Niestoita,village,6.0,1765.0,BRT,Nestoita,Bracław,Bracław,BRC_KRUTE,47.76793,29.3511,295.0,,47.763401,29.349979,"Нестоїта, Одеська область, Україна",521718468.0,Q4317850,,0.941,matched_db_api,high
218.0,,Rus,Krute,Tymkow,village,6.0,1765.0,BRT,Tymkove,Bracław,Bracław,BRC_KRUTE,47.87481,29.28168,295.0,,47.8741596,29.279467,"Тимкове, Одеська область, Україна",1080538039.0,Q4467049,,0.923,matched_db_api,high
219.0,,Rus,Krute,Słobodzija,village,8.0,1765.0,BRT,Mala Slobidka,Bracław,Bracław,BRC_KRUTE,47.90233807,29.28201605,295.0,,,,,,,,,not_found,medium
220.0,,Rus,Krute,Woronkow,village,5.0,1765.0,BRT,Peremoga Kolkhoz,Bracław,Bracław,BRC_KRUTE,47.70496771,29.11831856,295.0,,47.7020382,29.1201669,"Воронково, Районул Рыбница / Рыбницкий район / Рибницький район, Нистрения / Приднестровье / Придністров'я, Moldova",273151706.0,Q1994793,,0.941,matched_db_api,medium
221.0,,Rus,Krute,Kiełbasna,village,6.0,1765.0,BRT,Domnytsya,Bracław,Bracław,BRC_KRUTE,47.77665581,29.20835495,295.0,,,,,,,,,not_found,medium
222.0,,Rus,Krute,Jahorlik,city,123.0,1765.0,BRT,Tsekhanivka,Bracław,Bracław,BRC_KRUTE,47.37370966,29.16217804,295.0,,,,,,,,,not_found,medium
223.0,,Rus,Krute,Cybulowka,village,9.0,1765.0,BRT,Tsekhanivka,Bracław,Bracław,BRC_KRUTE,47.40229975,29.09900665,295.0,,,,,,,,,not_found,medium
224.0,,Rus,Krute,Harmaki,village,6.0,1765.0,BRT,Tsekhanivka,Bracław,Bracław,BRC_KRUTE,47.42309337,29.08810616,295.0,,,,,,,,,not_found,medium
225.0,,Rus,Krute,Michałowka,village,5.0,1765.0,BRT,Horyachivka,Bracław,Bracław,BRC_KRUTE,47.48380087,29.10896301,295.0,,47.4862333,29.1190329,Михайловка,273143142.0,Q1994814,,1.0,matched_cluster_fix,high
226.0,,Rus,Krute,Botuszany,village,5.0,1765.0,BRT,Novokrasne,Bracław,Bracław,BRC_KRUTE,47.53644234,29.02553558,295.0,,47.528912,29.16321,Новокрасне,512111650.0,Q4324274,,1.0,matched_cluster_fix,high
227.0,,Rus,Krute,Zozulany,village,8.0,1765.0,BRT,Novokrasne,Bracław,Bracław,BRC_KRUTE,47.61704129,28.99017334,295.0,,,,,,,,,not_found,medium
228.0,,Rus,Krute,Wychwatynce,village,7.0,1765.0,BRT,Peremoga Kolkhoz,Bracław,Bracław,BRC_KRUTE,47.66723703,28.99051666,295.0,,,,,,,,,not_found,medium
229.0,,Rus,Krute,Giedyrym,village,7.0,1765.0,BRT,Peremoga Kolkhoz,Bracław,Bracław,BRC_KRUTE,47.71184066,28.97575378,295.0,,,,,,,,,not_found,medium
230.0,,Rus,Krute,Rybnica,village,24.0,1765.0,BRT,Domnytsya,Bracław,Bracław,BRC_KRUTE,47.76471465,29.00047302,295.0,,47.7661115,29.0073366,"Рыбницкий городской совет, Районул Рыбница / Рыбницкий район / Рибницький район, Unitățile administrativ-teritoriale din stînga Nistrului, Нистрения / Приднестровье / Придністров'я, Moldova",9659979.0,Q216363,ריבניצה,1.0,matched_nominatim,high
231.0,,Rus,Krute,Hyrzew,village,5.0,1765.0,BRT,Domnytsya,Bracław,Bracław,BRC_KRUTE,47.79931916,29.00218964,295.0,,,,,,,,,not_found,medium
232.0,,Rus,Krute,Saraceja,village,8.0,1765.0,BRT,Domnytsya,Bracław,Bracław,BRC_KRUTE,47.82214552,29.01832581,295.0,,,,,,,,,not_found,medium
233.0,,Rus,Krute,Mołokisz,village,9.0,1765.0,BRT,Domnytsya,Bracław,Bracław,BRC_KRUTE,47.85486885,29.03995514,295.0,,,,,,,,,not_found,medium
234.0,,Rus,Krute,Haraba Słoboda,village,11.0,1765.0,BRT,Semenivka,Bracław,Bracław,BRC_KRUTE,47.89654965,29.08527374,295.0,,,,,,,,,not_found,medium
236.0,1.0,Rus,Jożefgrod,Jożefgrod,city,756.0,1765.0,BRT,Semenivka,Bracław,Bracław,BRC_JOZEFGROD,47.87490745,29.16870117,296.0,,,,,,,,,not_found,low
237.0,,Rus,Jożefgrod,Borsuki,village,10.0,1765.0,BRT,Borsuky,Bracław,Bracław,BRC_JOZEFGROD,48.04044,29.42072,296.0,,48.040047,29.422029,"Борсуки, Балтська міська громада, Подільський район, Одеська область, 66126, Україна",1105581059.0,Q4078609,,1.0,matched_nominatim,high
238.0,,Rus,Jożefgrod,Budeje,village,3.0,1765.0,BRT,Kodyma,Bracław,Bracław,BRC_JOZEFGROD,48.10306,29.12598,296.0,,,,,,,,,not_found,low
239.0,,Rus,Jożefgrod,Obżyła,village,12.0,1765.0,BRT,Obzhyle,Bracław,Bracław,BRC_JOZEFGROD,47.98716432,29.38173294,296.0,,,,,,,,,not_found,medium
240.0,,Rus,Jożefgrod,Bołboki,village,4.0,1765.0,BRT,Hlybochok,Bracław,Bracław,BRC_JOZEFGROD,47.72824,29.49286,296.0,,,,,,,,,not_found,low
241.0,,Rus,Jożefgrod,Moszniaga,village,10.0,1765.0,BRT,Moshnyahy,Bracław,Bracław,BRC_JOZEFGROD,47.94567148,29.50344086,296.0,,47.9468336,29.5053778,"Мошняги, Одеська область, Україна",337665174.0,Q544977,,0.778,matched_db_api,medium
242.0,,Rus,Jożefgrod,Mirony,village,4.0,1765.0,BRT,Myrony,Bracław,Bracław,BRC_JOZEFGROD,47.94728,29.57473,296.0,,47.9460095,29.5731175,"Мирони, Балтська міська громада, Подільський район, Одеська область, 66144, Україна",337665153.0,Q4296176,,1.0,matched_nominatim,high
243.0,,Rus,Jożefgrod,Lesniczowka,village,12.0,1765.0,BRT,Lisnychivka,Bracław,Bracław,BRC_JOZEFGROD,48.01239,29.52529,296.0,,48.0099545,29.5265214,"Лісничівка, Одеська область, Україна",337662538.0,Q4259575,,0.818,matched_db_api,medium
244.0,,Rus,Jożefgrod,Kozacka,village,10.0,1765.0,BRT,Kozatske,Bracław,Bracław,BRC_JOZEFGROD,47.99381333,29.62354382,296.0,,47.9937928,29.6401421,"Козацьке, Одеська область, Україна",337663549.0,Q4208149,,0.857,matched_db_api,medium
245.0,,Rus,Jożefgrod,Korytna,village,6.0,1765.0,BRT,Korytne,Bracław,Bracław,BRC_JOZEFGROD,47.98629905,29.70662918,296.0,,47.9915091,29.6877087,"Коритне, Одеська область, Україна",337663676.0,Q4234652,,0.857,matched_db_api,medium
246.0,,Rus,Jożefgrod,Kierniczki,village,11.0,1765.0,BRT,Krynychky,Bracław,Bracław,BRC_JOZEFGROD,48.03352,29.70704,296.0,,48.0329338,29.7054541,"Кринички, Одеська область, Україна",337661850.0,Q4241088,,0.737,matched_db_api,medium
247.0,,Rus,Jożefgrod,Papały,village,9.0,1765.0,BRT,Pasat,Bracław,Bracław,BRC_JOZEFGROD,47.96923799,29.80075836,296.0,,47.973518,29.791491,Пасат,337664189.0,Q4346391,,1.0,matched_refined,high
248.0,,Rus,Jożefgrod,Płoska,village,6.0,1765.0,BRT,Ploske,Bracław,Bracław,BRC_JOZEFGROD,47.99669952,29.86530304,296.0,,47.9916264,29.8747042,Плоске,337663853.0,Q4365262,,1.0,matched_cluster_fix,high
249.0,,Rus,Jożefgrod,Kajetanowka,village,4.0,1765.0,BRT,Kaytanivka,Bracław,Bracław,BRC_JOZEFGROD,47.96667,29.88333,296.0,,,,,,,,,not_found,medium
250.0,,Rus,Jożefgrod,Jasionowa,village,9.0,1765.0,BRT,Yanyshivka,Bracław,Bracław,BRC_JOZEFGROD,47.91864299,30.2388382,296.0,,47.91864299,30.2388382,,,,,,reverted_to_original,medium
251.0,,Rus,Jożefgrod,Bobryk Wielki,village,2.0,1765.0,BRT,Bobryk Druhyy,Bracław,Bracław,BRC_JOZEFGROD,47.89769,30.15324,296.0,,47.89769,30.15324,,,,,,reverted_to_original,medium
252.0,,Rus,Jożefgrod,Bobryk Mały,village,4.0,1765.0,BRT,Bobryk Pershyy,Bracław,Bracław,BRC_JOZEFGROD,47.91656906,30.18207341,296.0,,,,,,,,,not_found,medium
253.0,,Rus,Jożefgrod,Krzywe Jezioro,village,9.0,1765.0,BRT,,Bracław,Bracław,BRC_JOZEFGROD,,,296.0,,,,,,,,,no_coords,none
254.0,,Rus,Jożefgrod,Holma,village,6.0,1765.0,BRT,Holma,Bracław,Bracław,BRC_JOZEFGROD,47.92886,29.84923,296.0,,,,,,,,,not_found,medium
255.0,,Rus,Jożefgrod,Jezierna,village,7.0,1765.0,BRT,Jezierna,Bracław,Bracław,BRC_JOZEFGROD,,,296.0,,,,,,,,,no_coords,none
256.0,,Rus,Jożefgrod,Markowka,village,4.0,1765.0,BRT,Karmalyukivka,Bracław,Bracław,BRC_JOZEFGROD,47.95347,29.42893,296.0,,47.9525816,29.4240691,Кармалюківка,1108020836.0,Q4215407,,1.0,matched_refined,high
257.0,,Rus,Jożefgrod,Sarażynka,village,6.0,1765.0,BRT,Sarazhinka,Bracław,Bracław,BRC_JOZEFGROD,48.08834,29.44918,296.0,,48.0860801,29.4489546,"Саражинка, Балтська міська громада, Подільський район, Одеська область, 66123, Україна",1107804200.0,Q4408274,,1.0,matched_nominatim,high
258.0,,Rus,Jożefgrod,Pereyma,village,9.0,1765.0,BRT,Pereima,Bracław,Bracław,BRC_JOZEFGROD,48.07034,29.49857,296.0,,48.071018,29.506189,"Перейма, Одеська область, Україна",1107804186.0,Q4350363,,0.857,matched_db_api,medium
259.0,,Rus,Jożefgrod,Czernecze,village,11.0,1765.0,BRT,Cherneche,Bracław,Bracław,BRC_JOZEFGROD,48.0654,29.59287,296.0,,48.064838,29.60129,"Чернече, Одеська область, Україна",337660735.0,Q4513454,,0.778,matched_db_api,medium
261.0,1.0,Rus,Granow,Granow,city,662.0,1765.0,BRT,Hraniv,Bracław,Bracław,BRC_GRANOW,48.87086,29.56307,297.0,,48.873363,29.566227,"Гранів, Вінницька область, Україна",301524923.0,Q4147942,,0.833,matched_db_api,medium
262.0,,Rus,Granow,Kotytna,village,23.0,1765.0,BRT,Kotytna,Bracław,Bracław,BRC_GRANOW,,,297.0,,,,,,,,,no_coords,none
263.0,,Rus,Granow,Slobodyszcza,village,22.0,1765.0,BRT,Slobodyshche,Bracław,Bracław,BRC_GRANOW,48.96456,29.59651,297.0,,,,,,,,,not_found,medium
264.0,,Rus,Granow,Czartoryika,village,10.0,1765.0,BRT,Chortoryia,Bracław,Bracław,BRC_GRANOW,48.95478,29.57888,297.0,,,,,,,,,not_found,medium
265.0,,Rus,Granow,Grudek,village,23.0,1765.0,BRT,Horodok,Bracław,Bracław,BRC_GRANOW,48.95677,29.52722,297.0,,,,,,,,,not_found,medium
266.0,,Rus,Granow,Lewuchi,village,17.0,1765.0,BRT,Leukhy,Bracław,Bracław,BRC_GRANOW,48.938,29.62909,297.0,,,,,,,,,not_found,medium
267.0,,Rus,Granow,Narajowka,village,16.0,1765.0,BRT,Naraivka,Bracław,Bracław,BRC_GRANOW,48.9017,29.68526,297.0,,48.902789,29.6830881,"Нараївка, Вінницька область, Україна",337580705.0,Q926286,,0.706,matched_db_api,medium
268.0,,Rus,Granow,Sebestyanowka,village,24.0,1765.0,BRT,Velyka Sevastianivka,Bracław,Bracław,BRC_GRANOW,48.88547,29.77252,297.0,,48.883211,29.7795208,Велика Севастянівка,1933977953.0,Q4106332,,1.0,matched_refined,high
269.0,,Rus,Granow,Jwangrod,village,11.0,1765.0,BRT,Ivanhorod,Bracław,Bracław,BRC_GRANOW,48.80557,29.80574,297.0,,48.8009869,29.8039148,"Івангород, Черкаська область, Україна",252417658.0,Q7265327,,0.706,matched_db_api,medium
270.0,,Rus,Granow,Skarzynowka,village,10.0,1765.0,BRT,Skarzhenovka,Bracław,Bracław,BRC_GRANOW,48.76667,29.75,297.0,,,,,,,,,not_found,medium
271.0,,Rus,Granow,Krasnosiułka,village,11.0,1765.0,BRT,Krasnosilka,Bracław,Bracław,BRC_GRANOW,48.50334,29.62515,297.0,,,,,,,,,not_found,low
272.0,,Rus,Granow,Kiwaczowka,village,16.0,1765.0,BRT,Kyvachivka,Bracław,Bracław,BRC_GRANOW,48.76841,29.70171,297.0,,48.763844,29.701614,"Кивачівка, Вінницька область, Україна",385739901.0,Q4220011,,0.7,matched_db_api,medium
273.0,,Rus,Granow,Cwilichowka,village,5.0,1765.0,BRT,Tsvilikhovka,Bracław,Bracław,BRC_GRANOW,48.75714,29.68405,297.0,,48.76144,29.68025,"Цвіліхівка, Вінницька область, Україна",337586843.0,Q4503596,,0.609,matched_db_api,medium
274.0,,Rus,Granow,Topolowka,village,6.0,1765.0,BRT,Topolivka,Bracław,Bracław,BRC_GRANOW,48.75723,29.74462,297.0,,48.7610956,29.7540537,"Тополівка, Вінницька область, Україна",337586848.0,Q312180,,0.778,matched_db_api,medium
275.0,,Rus,Granow,Markowka,village,8.0,1765.0,BRT,Markivka,Bracław,Bracław,BRC_GRANOW,48.71911,29.68556,297.0,,48.7230985,29.6881811,"Марківка, Вінницька область, Україна",337587816.0,Q4282119,,0.875,matched_db_api,medium
276.0,,Rus,Granow,Stepanowka,village,9.0,1765.0,BRT,Stepanivka,Bracław,Bracław,BRC_GRANOW,48.68263,29.67544,297.0,,48.6810831,29.6690095,"Степанівка, Вінницька область, Україна",337589602.0,Q4441931,,0.9,matched_db_api,high
277.0,,Rus,Granow,Karabelowka,village,9.0,1765.0,BRT,Karabelovka,Bracław,Bracław,BRC_GRANOW,48.70389,29.6357,297.0,,48.70644,29.6341766,"Карабелівка, Вінницька область, Україна",337588326.0,Q4213519,,0.909,matched_db_api,high
278.0,,Rus,Granow,Ohijowka,village,14.0,1765.0,BRT,Ogiyevka,Bracław,Bracław,BRC_GRANOW,48.7190552,29.59751129,297.0,,48.716808,29.602659,"Огіївка, Гайсинська міська громада, Гайсинський район, Вінницька область, 23755, Україна",337588107.0,Q4331048,,1.0,matched_nominatim,high
279.0,,Rus,Granow,Kublicz,city,61.0,1765.0,BRT,Kiblych,Bracław,Bracław,BRC_GRANOW,48.72188647,29.56678391,297.0,,48.6744887,29.6443412,"Кублич, Вінницька область, Україна",337589876.0,Q4243658,,0.857,matched_db_api,medium
280.0,,Rus,Granow,Mikołaiow,village,13.0,1765.0,BRT,Meleshkiv,Bracław,Bracław,BRC_GRANOW,48.71769613,29.52163696,297.0,,48.717529,29.523075,Мелешків,337588061.0,Q4289422,,1.0,matched_refined,high
281.0,,Rus,Granow,Mytkow,village,9.0,1765.0,BRT,Mytkiv,Bracław,Bracław,BRC_GRANOW,48.78232429,29.61931229,297.0,,48.7802765,29.6224378,"Митків, Вінницька область, Україна",337586052.0,Q4309614,,0.833,matched_db_api,medium
282.0,,Rus,Granow,Żyszkowka,village,12.0,1765.0,BRT,Tyshkivka,Bracław,Bracław,BRC_GRANOW,48.79612198,29.58429337,297.0,,48.7948787,29.5847495,"Тишківка, Краснопільська сільська громада, Гайсинський район, Вінницька область, 23700, Україна",337585476.0,Q1720513,,1.0,matched_nominatim_modern,high
283.0,,Rus,Granow,Rachnowka,village,10.0,1765.0,BRT,Rakhnivka,Bracław,Bracław,BRC_GRANOW,48.78321,29.54797,297.0,,48.7835114,29.5501323,"Рахнівка, Вінницька область, Україна",337585879.0,Q4391209,,0.778,matched_db_api,medium
284.0,,Rus,Granow,Michalowka,village,14.0,1765.0,BRT,Mykhailivka,Bracław,Bracław,BRC_GRANOW,48.83234,29.54496,297.0,,48.832615,29.541941,"Михайлівка, Краснопільська сільська громада, Гайсинський район, Вінницька область, 23732, Україна",301520623.0,Q4297499,,1.0,matched_nominatim,high
285.0,,Rus,Granow,Adamowka,village,9.0,1765.0,BRT,Adamivka,Bracław,Bracław,BRC_GRANOW,48.86432,29.50999,297.0,,48.8634318,29.5160378,"Адамівка, Гайсинська міська громада, Гайсинський район, Вінницька область, 23700, Україна",337582826.0,Q4057312,,1.0,matched_nominatim,high
287.0,1.0,Rus,Daszow,Daszow,city,406.0,1765.0,BRT,Dashiv,Bracław,Bracław,BRC_DASZOW,49.00351,29.43971,298.0,,49.002801,29.4403131,"Дашів, Дашівська селищна громада, Гайсинський район, Вінницька область, 22740, Україна",337576602.0,Q2653301,,1.0,matched_nominatim,high
288.0,,Rus,Daszow,Nowe Miasto,city,7.0,1765.0,BRT,Dashiv,Bracław,Bracław,BRC_DASZOW,49.00351,29.43971,298.0,,49.002801,29.4403131,"Дашів, Дашівська селищна громада, Гайсинський район, Вінницька область, 22740, Україна",337576602.0,Q2653301,,1.0,matched_nominatim_modern,high
289.0,,Rus,Daszow,Katowa,village,3.0,1765.0,BRT,Kabatnya,Bracław,Bracław,BRC_DASZOW,49.02364,29.24076,298.0,,49.023575,29.238602,"Кабатня, Вінницька область, Україна",337575740.0,Q4206625,,0.889,matched_db_api_modern,medium
290.0,,Rus,Daszow,Kupczyńce,village,21.0,1765.0,BRT,Kupchyntsi,Bracław,Bracław,BRC_DASZOW,49.032,29.4768,298.0,,49.0323625,29.4756301,"Купчинці, Вінницька область, Україна",337575458.0,Q4247656,,0.632,matched_db_api,medium
291.0,,Rus,Daszow,Jastrębińce,village,11.0,1765.0,BRT,Yastrubyntsi,Bracław,Bracław,BRC_DASZOW,49.06764,29.51982,298.0,,49.0645865,29.5166122,"Яструбинці, Вінницька область, Україна",337573569.0,Q603946,,0.696,matched_db_api,medium
292.0,,Rus,Daszow,Budy Konstantynowskie,village,11.0,1765.0,BRT,Stryzhakiv,Bracław,Bracław,BRC_DASZOW,49.15789,29.3495,298.0,,49.1568589,29.3469906,"Стрижаків, Оратівська селищна громада, Вінницький район, Вінницька область, 22640, Україна",337569652.0,Q4443969,,1.0,matched_nominatim_modern,high
293.0,,Rus,Daszow,Jurkowce,village,11.0,1765.0,BRT,Yurkivtsi,Bracław,Bracław,BRC_DASZOW,48.95954,29.21927,298.0,,48.960266,29.2173914,Юрківці,337578815.0,Q4535016,,1.0,matched_refined,high
294.0,,Rus,Daszow,Sitkowce,village,10.0,1765.0,BRT,Sytkivtsi,Bracław,Bracław,BRC_DASZOW,48.90932,29.19871,298.0,,48.9096415,29.2022653,"Ситківці, Райгородська сільська громада, Гайсинський район, Вінницька область, 22863, Україна",337580513.0,Q1999919,,1.0,matched_nominatim,high
295.0,,Rus,Daszow,Dziurzynce,village,13.0,1765.0,BRT,Dzhuryntsi,Bracław,Bracław,BRC_DASZOW,48.92759,29.25372,298.0,,48.919029,29.252819,"Джуринці, Вінницька область, Україна",337580234.0,Q4160639,,0.6,matched_db_api,medium
296.0,,Rus,Daszow,Budy Dziurzynieckie,village,8.0,1765.0,BRT,Dzhuryntsi,Bracław,Bracław,BRC_DASZOW,48.92759,29.25372,298.0,,48.919029,29.252819,"Джуринці, Райгородська сільська громада, Гайсинський район, Вінницька область, 22864, Україна",337580234.0,Q4160639,,1.0,matched_nominatim_modern,high
297.0,,Rus,Daszow,Biłki,village,7.0,1765.0,BRT,Bilky,Bracław,Bracław,BRC_DASZOW,48.95249,29.29666,298.0,,48.95237,29.294399,"Білки, Дашівська селищна громада, Гайсинський район, Вінницька область, 22744, Україна",337579140.0,Q4082041,,1.0,matched_nominatim,high
298.0,,Rus,Daszow,Krzysztofowka,village,7.0,1765.0,BRT,Kryshtopivka,Bracław,Bracław,BRC_DASZOW,48.91172,29.32245,298.0,,48.910755,29.319046,"Криштопівка, Вінницька область, Україна",337580430.0,Q10566610,,0.72,matched_db_api,medium
299.0,,Rus,Daszow,Bundury,village,5.0,1765.0,BRT,Bonduri,Bracław,Bracław,BRC_DASZOW,48.90118,29.42795,298.0,,48.89978,29.429506,"Бондурі, Вінницька область, Україна",337580840.0,Q4093303,,0.714,matched_db_api,medium
300.0,,Rus,Daszow,Kopiiowka,village,4.0,1765.0,BRT,Kopiivka,Bracław,Bracław,BRC_DASZOW,48.97128,29.41528,298.0,,48.9712162,29.4142099,"Копіївка, Вінницька область, Україна",337578214.0,Q335957,,0.824,matched_db_api,medium
301.0,,Rus,Daszow,Januszgrod,village,3.0,1765.0,BRT,Yanyshëvka,Bracław,Bracław,BRC_DASZOW,48.95903152,29.38087463,298.0,,,,,,,,,not_found,medium
302.0,,Rus,Daszow,Tadorowka,village,3.0,1765.0,BRT,Alekseyevka,Bracław,Bracław,BRC_DASZOW,48.93735538,29.39184912,298.0,,48.938435,29.394676,Олексіївка,337579586.0,Q4061787,,0.952,matched_refined,high
303.0,,Rus,Daszow,Rachny,village,6.0,1765.0,BRT,Rakhny,Bracław,Bracław,BRC_DASZOW,48.92789,29.44363,298.0,,48.9298544,29.4361297,"Рахни, Вінницька область, Україна",337579698.0,Q4391212,,0.833,matched_db_api,medium
304.0,,Rus,Daszow,Kitaygrod,village,2.0,1765.0,BRT,Kytaihorod,Bracław,Bracław,BRC_DASZOW,48.96615,29.49527,298.0,,48.9615987,29.4967895,"Китайгород, Вінницька область, Україна",337578238.0,Q4222383,,0.842,matched_db_api,medium
305.0,,Rus,Daszow,Kamienohurka,village,3.0,1765.0,BRT,Kamenogorka,Bracław,Bracław,BRC_DASZOW,48.98235757,29.45365906,298.0,,48.9705304,29.4631253,"Кам’яногірка, Вінницька область, Україна",337578296.0,Q4211170,,0.833,matched_db_api,medium
306.0,,Rus,Daszow,Kalnik,city,111.0,1765.0,BRT,Kalnyk,Bracław,Bracław,BRC_DASZOW,49.03525,29.38785,298.0,,49.0366188,29.3941039,"Кальник, Дашівська селищна громада, Гайсинський район, Вінницька область, 22732, Україна",337575177.0,Q2064160,,1.0,matched_nominatim,high
307.0,,Rus,Daszow,Kantelina,village,10.0,1765.0,BRT,Kantelyna,Bracław,Bracław,BRC_DASZOW,49.0765,29.43992,298.0,,49.0753714,29.4378487,"Кантелина, Дашівська селищна громада, Гайсинський район, Вінницька область, 22734, Україна",337573345.0,Q4212625,,1.0,matched_nominatim,high
308.0,,Rus,Daszow,Koszłanowka,village,8.0,1765.0,BRT,Koshlany,Bracław,Bracław,BRC_DASZOW,49.1048932,29.39735413,298.0,,49.107861,29.4104,"Кошлани, Вінницька область, Україна",337571733.0,Q4237109,,0.632,matched_db_api,medium
309.0,,Rus,Daszow,Zadanowka,village,6.0,1765.0,BRT,Zhadany,Bracław,Bracław,BRC_DASZOW,49.0679,29.38511,298.0,,49.066419,29.3756019,Жадани,337573747.0,Q4177826,,1.0,matched_refined,high
310.0,,Rus,Daszow,Nowa Grobla,village,7.0,1765.0,BRT,,Bracław,Bracław,BRC_DASZOW,,,298.0,,,,,,,,,no_coords,none
311.0,,Rus,Daszow,Paryowka,village,7.0,1765.0,BRT,Pariyevka,Bracław,Bracław,BRC_DASZOW,49.08905,29.28403,298.0,,49.0849998,29.2856744,"Паріївка, Вінницька область, Україна",337572580.0,Q4345116,,0.706,matched_db_api,medium
312.0,,Rus,Daszow,Chrzanowka,village,5.0,1765.0,BRT,Khrinivka,Bracław,Bracław,BRC_DASZOW,49.06166,29.31407,298.0,,49.0623359,29.3099022,"Хрінівка, Вінницька область, Україна",337573963.0,Q4501321,,0.737,matched_db_api,medium
313.0,,Rus,Daszow,Tałałaiowka,village,4.0,1765.0,BRT,Talalaivka,Bracław,Bracław,BRC_DASZOW,49.03333,29.28333,298.0,,,,,,,,,not_found,medium
314.0,,Rus,Daszow,Parchomowka,village,4.0,1765.0,BRT,Parkhomivka,Bracław,Bracław,BRC_DASZOW,49.03292,29.31583,298.0,,49.033901,29.318024,"Пархомівка, Вінницька область, Україна",337575190.0,Q4346252,,0.909,matched_db_api,high
316.0,1.0,Rus,Sawrań,Sawrań,city,150.0,1765.0,BRT,Savran,Bracław,Bracław,BRC_SAWRAN,48.1293,30.0833,299.0,,48.1246576,30.0796984,"Саврань, Савранська селищна громада, Подільський район, Одеська область, 66200, Україна",337658948.0,Q1529447,סאווראן,1.0,matched_nominatim,high
317.0,,Rus,Sawrań,Polaneckie,village,7.0,1765.0,BRT,Polyanetske,Bracław,Bracław,BRC_SAWRAN,48.07338,30.12205,299.0,,48.068257,30.1348555,"Полянецьке, Одеська область, Україна",337660600.0,Q4371479,,0.947,matched_db_api,high
318.0,,Rus,Sawrań,Dubinowa,village,4.0,1765.0,BRT,Dubynove,Bracław,Bracław,BRC_SAWRAN,48.1339,30.28673,299.0,,48.1379728,30.2801835,Дубинове,337658755.0,Q4169196,,1.0,matched_cluster_fix,high
319.0,,Rus,Sawrań,Baksza,village,17.0,1765.0,BRT,Baksha,Bracław,Bracław,BRC_SAWRAN,48.00944,29.9774,299.0,,48.0132524,29.9839012,"Бакша, Одеська область, Україна",337662380.0,Q4076148,,0.909,matched_db_api,high
320.0,,Rus,Sawrań,Horynwa,village,8.0,1765.0,BRT,Herbyné,Bracław,Bracław,BRC_SAWRAN,48.1747862,29.73415375,299.0,,48.1723784,29.7452306,"Гербине, Піщанська сільська громада, Подільський район, Одеська область, 66111, Україна",1106082251.0,Q4136981,,1.0,matched_nominatim_modern,high
321.0,,Rus,Sawrań,Pużaykow,village,10.0,1765.0,BRT,Puzhaykovo,Bracław,Bracław,BRC_SAWRAN,48.10883,29.82747,299.0,,48.120461,29.826509,"Пужайкове, Одеська область, Україна",337659090.0,Q4383394,,0.667,matched_db_api,medium
322.0,,Rus,Sawrań,Mieczetna Wielka,village,5.0,1765.0,BRT,Velyka Mechetnya,Bracław,Bracław,BRC_SAWRAN,48.08733,30.59032,299.0,,,,,,,,,not_found,low
323.0,,Rus,Sawrań,Piszczanna,village,35.0,1765.0,BRT,Pischchana,Bracław,Bracław,BRC_SAWRAN,48.12918,29.73086,299.0,,,,,,,,,not_found,medium
324.0,,Rus,Sawrań,Stanisławczyk,village,5.0,1765.0,BRT,Stanisławczyk,Bracław,Bracław,BRC_SAWRAN,,,299.0,,,,,,,,,no_coords,none
325.0,,Rus,Sawrań,Nedełkowa,village,9.0,1765.0,BRT,Nedilkove,Bracław,Bracław,BRC_SAWRAN,48.0367,30.07001,299.0,,48.03429,30.07542,"Неділкове, Одеська область, Україна",337661804.0,Q4316047,,0.778,matched_db_api,medium
326.0,,Rus,Sawrań,Baybuzowka,village,16.0,1765.0,BRT,Baybuzivka,Bracław,Bracław,BRC_SAWRAN,48.11452,29.90202,299.0,,48.1166019,29.8963472,"Байбузівка, Одеська область, Україна",337659164.0,Q4075386,,0.8,matched_db_api,medium
327.0,,Rus,Sawrań,Kamienna,village,22.0,1765.0,BRT,Kamyane,Bracław,Bracław,BRC_SAWRAN,48.18621,29.93142,299.0,,48.183632,29.93363,"Кам’яне, Одеська область, Україна",1107170414.0,Q4211192,,0.75,matched_db_api,medium
328.0,,Rus,Sawrań,Stauszewskiego Słoboda,village,5.0,1765.0,BRT,Stauszewskiego Słoboda,Bracław,Bracław,BRC_SAWRAN,,,299.0,,,,,,,,,no_coords,none
329.0,,Rus,Sawrań,Osiczki,village,8.0,1765.0,BRT,Osychky,Bracław,Bracław,BRC_SAWRAN,48.12851777,30.02185822,299.0,,48.1298732,30.0214131,"Осички, Одеська область, Україна",337658857.0,Q4339241,,0.857,matched_db_api,medium
330.0,,Rus,Sawrań,Onyskowa,village,5.0,1765.0,BRT,Onyskove,Bracław,Bracław,BRC_SAWRAN,48.15737,30.42205,299.0,,,,,,,,,not_found,medium
331.0,,Rus,Sawrań,Bondarowa,village,30.0,1765.0,BRT,,Bracław,Bracław,BRC_SAWRAN,,,299.0,,,,,,,,,no_coords,none
332.0,,Rus,Sawrań,Szlakowa,village,9.0,1765.0,BRT,Shlyakhove,Bracław,Bracław,BRC_SAWRAN,48.0785,29.75227,299.0,,48.0765268,29.7535206,"Шляхове, Одеська область, Україна",1106020602.0,Q2885242,,0.9,matched_db_api_modern,high
333.0,,Rus,Sawrań,Rakułowa,village,9.0,1765.0,BRT,Rakulove,Bracław,Bracław,BRC_SAWRAN,48.05236,29.78798,299.0,,,,,,,,,not_found,medium
334.0,,Rus,Sawrań,Tryduby,village,5.0,1765.0,BRT,Tryduby,Bracław,Bracław,BRC_SAWRAN,48.07558,30.41274,299.0,,48.0763171,30.4120693,Тридуби,337660515.0,Q4463007,,1.0,matched_cluster_fix,high
335.0,,Rus,Sawrań,Olszanka,village,6.0,1765.0,BRT,Vilshanka,Bracław,Bracław,BRC_SAWRAN,48.14033,30.15997,299.0,,48.14175,30.159531,"Вільшанка, Савранська селищна громада, Подільський район, Одеська область, 66221, Україна",337658483.0,Q4334403,,1.0,matched_nominatim,high
336.0,,Rus,Sawrań,Meczetna Mała,village,8.0,1765.0,BRT,Mala Mechetnya,Bracław,Bracław,BRC_SAWRAN,48.13379,30.42721,299.0,,,,,,,,,not_found,medium
337.0,,Rus,Sawrań,Kurzełozy,village,7.0,1765.0,BRT,Kuriachi Lozy,Bracław,Bracław,BRC_SAWRAN,48.0785377,30.33668518,299.0,,48.083345,30.3451125,Курячі Лози,337660276.0,Q4249172,,1.0,matched_cluster_fix,high
338.0,,Rus,Sawrań,Antonowka,village,5.0,1765.0,BRT,,Bracław,Bracław,BRC_SAWRAN,,,299.0,,,,,,,,,no_coords,none
339.0,,Rus,Sawrań,Gedwiłowa,village,3.0,1765.0,BRT,Hetmanivka,Bracław,Bracław,BRC_SAWRAN,48.06265084,29.99593735,299.0,,48.0660185,29.9973105,Гетьманівка,337660587.0,Q4137715,,1.0,matched_refined,high
340.0,,Rus,Sawrań,Kazawczyn,village,7.0,1765.0,BRT,Kazavchyn,Bracław,Bracław,BRC_SAWRAN,48.27499,29.94415,299.0,,48.2735729,29.9440206,"Казавчин, Гайворонська міська громада, Голованівський район, Кіровоградська область, 26322, Україна",337604127.0,Q4207489,,1.0,matched_nominatim,medium
341.0,,Rus,Sawrań,Poromowka,village,21.0,1765.0,BRT,Poromowka,Bracław,Bracław,BRC_SAWRAN,,,299.0,,,,,,,,,no_coords,none
342.0,,Rus,Sawrań,Beryzki,village,22.0,1765.0,BRT,Berizky,Bracław,Bracław,BRC_SAWRAN,47.9074249,30.55194855,299.0,,,,,,,,,not_found,low
343.0,,Rus,Sawrań,Godziemba,village,24.0,1765.0,BRT,Yosypivka,Bracław,Bracław,BRC_SAWRAN,48.04319,29.91819,299.0,,48.0410629,29.9172247,Йосипівка,337661562.0,Q4206018,,1.0,matched_refined,high
344.0,,Rus,Sawrań,Gierbina,village,9.0,1765.0,BRT,Herbyné,Bracław,Bracław,BRC_SAWRAN,48.17455725,29.73518372,299.0,,,,,,,,,not_found,medium
345.0,,Rus,Sawrań,Jakubowka,village,6.0,1765.0,BRT,Yakubivka,Bracław,Bracław,BRC_SAWRAN,48.23333,29.66667,299.0,,,,,,,,,not_found,medium
346.0,,Rus,Sawrań,Hoōakowka,village,10.0,1765.0,BRT,Holdashivka,Bracław,Bracław,BRC_SAWRAN,48.22232816,29.70428467,299.0,,,,,,,,,not_found,medium
347.0,,Rus,Sawrań,Slusarzowa,village,7.0,1765.0,BRT,Slyusareve,Bracław,Bracław,BRC_SAWRAN,48.10063,30.21327,299.0,,,,,,,,,not_found,medium
349.0,1.0,Rus,Bracław,Bracław,city,101.0,1765.0,BRT,Bratslav,Bracław,Bracław,BRC_BRACLAW,48.82317,28.93827,300.0,,48.8268749,28.9379724,"Брацлав, Брацлавська селищна громада, Тульчинський район, Вінницька область, 22870, Україна",337584288.0,Q903241,ברסלב,1.0,matched_nominatim,high
350.0,,Rus,Bracław,Monastyrsko,village,5.0,1765.0,BRT,Monastyrske,Bracław,Bracław,BRC_BRACLAW,48.8279,28.88894,300.0,,48.829079,28.887859,"Монастирське, Вінницька область, Україна",337584218.0,Q4282256,,0.909,matched_db_api,high
351.0,,Rus,Bracław,Skryckie,village,10.0,1765.0,BRT,Skrytske,Bracław,Bracław,BRC_BRACLAW,48.77227,29.01688,300.0,,48.77483,29.01627,"Скрицьке, Вінницька область, Україна",337586355.0,Q4422573,,0.933,matched_db_api,high
352.0,,Rus,Bracław,Macocha,village,7.0,1765.0,BRT,Machukha,Bracław,Bracław,BRC_BRACLAW,48.76667,29.06667,300.0,,,,,,,,,not_found,medium
353.0,,Rus,Bracław,Anczypałowka,village,4.0,1765.0,BRT,Antsypolivka,Bracław,Bracław,BRC_BRACLAW,48.80293,29.09885,300.0,,48.802715,29.090885,"Анциполівка, Вінницька область, Україна",337585235.0,Q4067785,,0.783,matched_db_api,medium
354.0,,Rus,Bracław,Ziańkowce,village,6.0,1765.0,BRT,Antsypolivka,Bracław,Bracław,BRC_BRACLAW,48.81438388,29.08971529,300.0,,48.817059,29.090647,"Зяньківці, Вінницька область, Україна",337584589.0,Q4195031,,0.889,matched_db_api,medium
355.0,,Rus,Bracław,Szurowce,village,5.0,1765.0,BRT,Sorokoduby,Bracław,Bracław,BRC_BRACLAW,48.82083596,29.01071275,300.0,,48.82465,29.007376,"Сорокодуби, Брацлавська селищна громада, Тульчинський район, Вінницька область, 22874, Україна",337584249.0,Q4429280,,1.0,matched_nominatim_modern,high
356.0,,Rus,Bracław,Salince,village,7.0,1765.0,BRT,Salyntsi,Bracław,Bracław,BRC_BRACLAW,48.84822,29.05403,300.0,,48.846409,29.050331,"Салинці, Вінницька область, Україна",337583640.0,Q4405838,,0.8,matched_db_api,medium
357.0,,Rus,Bracław,Grabowiec,village,3.0,1765.0,BRT,Hrabovets,Bracław,Bracław,BRC_BRACLAW,48.82446488,28.98917588,300.0,,48.8185586,28.9838634,"Грабовець, Брацлавська селищна громада, Тульчинський район, Вінницька область, 22874, Україна",337584388.0,Q4147264,,1.0,matched_nominatim,high
358.0,,Rus,Bracław,Przedmieście,city,6.0,1765.0,BRT,Przedmieście,Bracław,Bracław,BRC_BRACLAW,,,300.0,,,,,,,,,no_coords,none
359.0,,Rus,Bracław,Czukow,village,4.0,1765.0,BRT,Chukiv,Bracław,Bracław,BRC_BRACLAW,48.89435,28.88362,300.0,,48.890854,28.881107,"Чуків, Вінницька область, Україна",337581162.0,Q4517843,,0.667,matched_db_api,medium
360.0,,Rus,Bracław,Bohakow,village,5.0,1765.0,BRT,Buhakiv,Bracław,Bracław,BRC_BRACLAW,48.9016,28.9368,300.0,,48.901859,28.939711,"Бугаків, Вінницька область, Україна",337580832.0,Q4097749,,0.714,matched_db_api,medium
361.0,,Rus,Bracław,Horodnica,village,6.0,1765.0,BRT,Horodnytsia,Bracław,Bracław,BRC_BRACLAW,48.89104,28.98164,300.0,,48.8902367,28.9820949,"Городниця, Райгородська сільська громада, Гайсинський район, Вінницька область, 22856, Україна",337581402.0,Q4145272,,1.0,matched_nominatim,high
362.0,,Rus,Bracław,Samczynice,village,6.0,1765.0,BRT,Samchyntsi,Bracław,Bracław,BRC_BRACLAW,48.86879,29.03189,300.0,,48.871685,29.030075,"Самчинці, Вінницька область, Україна",2689975116.0,Q4407146,,0.7,matched_db_api,medium
363.0,,Rus,Bracław,Święcica,village,5.0,1765.0,BRT,Shevchenkovo,Bracław,Bracław,BRC_BRACLAW,49.04611,29.07147,300.0,,49.04611,29.07147,,,,,,reverted_to_original,low
364.0,,Rus,Bracław,Ksiądzowka,village,4.0,1765.0,BRT,Ksiądzowka,Bracław,Bracław,BRC_BRACLAW,,,300.0,,,,,,,,,no_coords,none
365.0,,Rus,Bracław,Kruszlince Wielkie,village,6.0,1765.0,BRT,Hranitne,Bracław,Bracław,BRC_BRACLAW,48.85859206,29.00672482,300.0,,48.845211,28.99498,"Гранітне, Брацлавська селищна громада, Тульчинський район, Вінницька область, 22874, Україна",337583551.0,Q4147873,,1.0,matched_nominatim_modern,high
366.0,,Rus,Bracław,Kruszlince Małe,village,5.0,1765.0,BRT,Korzhivka,Bracław,Bracław,BRC_BRACLAW,48.87103163,28.97857668,300.0,,48.86787,28.98399,"Коржівка, Райгородська сільська громада, Гайсинський район, Вінницька область, 22856, Україна",337582558.0,Q4233037,,1.0,matched_nominatim_modern,high
368.0,1.0,Rus,Tywrow,Tywrow,city,103.0,1765.0,BRT,Tyvriv,Bracław,Bracław,BRC_TYWROW,49.01206,28.50044,301.0,,49.0139727,28.507999,"Тиврів, Тиврівська селищна громада, Вінницький район, Вінницька область, Україна",4494377.0,Q2473589,,1.0,matched_nominatim,high
369.0,,Rus,Tywrow,Michałowka,village,24.0,1765.0,BRT,Mikhaylovka,Bracław,Bracław,BRC_TYWROW,49.03333,28.53333,301.0,,,,,,,,,not_found,medium
370.0,,Rus,Tywrow,Tywrow - Część Jaroszynskiego,city,96.0,1765.0,BRT,Tyvriv,Bracław,Bracław,BRC_TYWROW,49.01206,28.50044,301.0,,49.0139727,28.507999,"Тиврів, Тиврівська селищна громада, Вінницький район, Вінницька область, Україна",4494377.0,Q2473589,,1.0,matched_nominatim_modern,high
371.0,,Rus,Tywrow,Szersznie,village,5.0,1765.0,BRT,Shershni,Bracław,Bracław,BRC_TYWROW,49.02279,28.42879,301.0,,49.023987,28.428423,"Шершні, Вінницька область, Україна",337575798.0,Q4523262,,0.706,matched_db_api,medium
372.0,,Rus,Tywrow,Kurniki,village,2.0,1765.0,BRT,Kurnyky,Bracław,Bracław,BRC_TYWROW,48.99076,28.41157,301.0,,48.99147,28.41511,"Курники, Вінницька область, Україна",337577304.0,Q4248630,,1.0,matched_db_api,high
373.0,,Rus,Tywrow,Szostakowka,village,2.0,1765.0,BRT,Shchuchyntsi,Bracław,Bracław,BRC_TYWROW,48.96268,28.24673,301.0,,48.96268,28.24673,,,,,,reverted_to_original,low
374.0,,Rus,Tywrow,Dzwonnicha,village,7.0,1765.0,BRT,Dzvonykha,Bracław,Bracław,BRC_TYWROW,48.98582,28.56954,301.0,,48.98975,28.5672,"Дзвониха, Вінницька область, Україна",337577392.0,Q4160751,,0.737,matched_db_api,medium
375.0,,Rus,Tywrow,Sokolince,village,3.0,1765.0,BRT,Sokolyntsi,Bracław,Bracław,BRC_TYWROW,49.00822,28.59081,301.0,,49.009678,28.590462,"Соколинці, Вінницька область, Україна",337576607.0,Q4427035,,0.842,matched_db_api,medium
376.0,,Rus,Tywrow,Tywrow - Część Krzywskich,city,86.0,1765.0,BRT,Tyvriv,Bracław,Bracław,BRC_TYWROW,49.01206,28.50044,301.0,,49.0139727,28.507999,"Тиврів, Тиврівська селищна громада, Вінницький район, Вінницька область, Україна",4494377.0,Q2473589,,1.0,matched_nominatim_modern,high
377.0,,Rus,Tywrow,Kliszczow,village,8.0,1765.0,BRT,Koliukhiv,Bracław,Bracław,BRC_TYWROW,48.98891125,28.63141629,301.0,,48.98769,28.629339,"Колюхів, Тиврівська селищна громада, Вінницький район, Вінницька область, 23306, Україна",5190564.0,Q4229056,,1.0,matched_nominatim_modern,high
378.0,,Rus,Tywrow,Pilawa,village,6.0,1765.0,BRT,Pyliava,Bracław,Bracław,BRC_TYWROW,49.07314,28.52343,301.0,,49.074551,28.518789,"Пилява, Вінницька область, Україна",337573420.0,Q4362876,,0.769,matched_db_api,medium
379.0,,Rus,Tywrow,Huta,village,2.0,1765.0,BRT,Huta,Bracław,Bracław,BRC_TYWROW,,,301.0,,,,,,,,,no_coords,none
380.0,,Rus,Tywrow,Łatańce,village,5.0,1765.0,BRT,Łatańce,Bracław,Bracław,BRC_TYWROW,,,301.0,,,,,,,,,no_coords,none
381.0,,Rus,Tywrow,Jankow,village,4.0,1765.0,BRT,Ivanivka,Bracław,Bracław,BRC_TYWROW,49.11306,28.50504,301.0,,49.111772,28.5025769,"Іванівка, Лука-Мелешківська сільська громада, Вінницький район, Вінницька область, Україна",11627365.0,Q92565,,1.0,matched_nominatim_modern,high
383.0,1.0,Rus,Przyłyka,Przyłyka,city,203.0,1765.0,BRT,Stara Pryluka,Bracław,Bracław,BRC_PRZYLUKA,49.38550177,28.71620178,302.0,,49.395561,28.71483,Стара Прилука,337560578.0,Q236971,,1.0,matched_refined,high
384.0,,Rus,Przyłyka,Turbow,village,8.0,1765.0,BRT,Turbiv,Bracław,Bracław,BRC_PRZYLUKA,49.34436211,28.72306824,302.0,,49.339939,28.7260729,"Турбів, Турбівська селищна громада, Вінницький район, Вінницька область, 22513, Україна",6054543.0,Q2353469,,1.0,matched_nominatim,high
385.0,,Rus,Przyłyka,Wachnowka,village,5.0,1765.0,BRT,Vakhnivka,Bracław,Bracław,BRC_PRZYLUKA,49.31594673,28.83876801,302.0,,49.3235033,28.8391757,"Вахнівка, Вінницька область, Україна",337562863.0,Q218470,,0.667,matched_db_api,medium
386.0,,Rus,Przyłyka,Bryckie,village,2.0,1765.0,BRT,Bryts'ke,Bracław,Bracław,BRC_PRZYLUKA,49.35353208,28.89816284,302.0,,49.353329,28.907431,"Брицьке, Вінницька область, Україна",337561994.0,Q312277,,0.714,matched_db_api,medium
387.0,,Rus,Przyłyka,Biała,village,3.0,1765.0,BRT,Bila,Bracław,Bracław,BRC_PRZYLUKA,49.3890775,28.91601563,302.0,,49.3903948,28.9163038,"Біла, Турбівська селищна громада, Вінницький район, Вінницька область, 22520, Україна",337560714.0,Q281723,,1.0,matched_nominatim,high
388.0,,Rus,Przyłyka,Szenderowka,village,2.0,1765.0,BRT,Shenderovka,Bracław,Bracław,BRC_PRZYLUKA,49.40829262,28.91532898,302.0,,49.4096638,28.9182266,"Шендерівка, Вінницька область, Україна",337560023.0,Q486135,,0.818,matched_db_api,medium
389.0,,Rus,Przyłyka,Zbarasz,village,4.0,1765.0,BRT,Zbarazh,Bracław,Bracław,BRC_PRZYLUKA,49.49243762,28.85541916,302.0,,49.494438,28.855591,"Збараж, Вінницька область, Україна",337557278.0,Q4189201,,0.857,matched_db_api,medium
390.0,,Rus,Przyłyka,Hermanowka,village,2.0,1765.0,BRT,Grigor’yevka,Bracław,Bracław,BRC_PRZYLUKA,49.44848597,28.86726379,302.0,,49.4498126,28.87516,"Григорівка, Вінницька область, Україна",337558794.0,Q4149166,,0.857,matched_db_api_modern,medium
391.0,,Rus,Przyłyka,Oweczacze,village,5.0,1765.0,BRT,Druzhne,Bracław,Bracław,BRC_PRZYLUKA,49.46667,28.81667,302.0,,49.466282,28.81542,"Дружне, Калинівська міська громада, Хмільницький район, Вінницька область, 22453, Україна",337558138.0,Q4168869,,1.0,matched_nominatim_modern,high
392.0,,Rus,Przyłyka,Konstantynowka,village,4.0,1765.0,BRT,Kostiantynivka,Bracław,Bracław,BRC_PRZYLUKA,49.40635,28.81384,302.0,,49.40586,28.81302,"Костянтинівка, Вінницька область, Україна",337560197.0,Q218147,,0.857,matched_db_api,medium
393.0,,Rus,Przyłyka,Nowa Grobla,village,5.0,1765.0,BRT,Nova Hreblia,Bracław,Bracław,BRC_PRZYLUKA,49.46421669,28.75988728,302.0,,49.471432,28.769421,"Нова Гребля, Вінницька область, Україна",337557934.0,Q335935,,0.783,matched_db_api,medium
394.0,,Rus,Przyłyka,Psiarowka,village,6.0,1765.0,BRT,Pysarivka,Bracław,Bracław,BRC_PRZYLUKA,49.52765969,28.47896576,302.0,,49.52765969,28.47896576,,,,,,reverted_to_original,medium
395.0,,Rus,Przyłyka,Czerniatyn Większy,village,5.0,1765.0,BRT,Malyy Chernyatin,Bracław,Bracław,BRC_PRZYLUKA,49.50893719,28.70418549,302.0,,49.5025136,28.7210145,"Чернятин, Вінницька область, Україна",337557033.0,Q4514524,,0.667,matched_db_api,medium
396.0,,Rus,Przyłyka,Czerniatyn Mały,village,2.0,1765.0,BRT,Cherepashyntsi,Bracław,Bracław,BRC_PRZYLUKA,49.53679545,28.59535217,302.0,,49.53186,28.5902,Черепашинці,337555836.0,Q4512881,,1.0,matched_refined,high
397.0,,Rus,Przyłyka,Koluczyńce,village,4.0,1765.0,BRT,Kutiuzhyntsi,Bracław,Bracław,BRC_PRZYLUKA,49.48373966,28.62865448,302.0,,49.482079,28.62969,"Котюжинці, Вінницька область, Україна",337557545.0,Q4236368,,0.917,matched_db_api_modern,high
398.0,,Rus,Przyłyka,Łosiowka,village,4.0,1765.0,BRT,Pol’ova Losiivka,Bracław,Bracław,BRC_PRZYLUKA,49.44915558,28.67980957,302.0,,49.4493813,28.6818448,Польова Лисіївка,337558710.0,Q4369612,,0.933,matched_refined,high
399.0,,Rus,Przyłyka,Warszya,village,5.0,1765.0,BRT,Warszya,Bracław,Bracław,BRC_PRZYLUKA,,,302.0,,,,,,,,,no_coords,none
400.0,,Rus,Przyłyka,Krzywiec,village,2.0,1765.0,BRT,Krzywiec,Bracław,Bracław,BRC_PRZYLUKA,,,302.0,,,,,,,,,no_coords,none
401.0,,Rus,Przyłyka,Kisiele,village,3.0,1765.0,BRT,Kisiele,Bracław,Bracław,BRC_PRZYLUKA,,,302.0,,,,,,,,,no_coords,none
402.0,,Rus,Przyłyka,Cholewince,village,3.0,1765.0,BRT,Cholewince,Bracław,Bracław,BRC_PRZYLUKA,,,302.0,,,,,,,,,no_coords,none
404.0,1.0,Rus,Ilince,Ilince,city,386.0,1765.0,BRT,Illintsi,Bracław,Bracław,BRC_ILINCE,49.10544,29.20589,303.0,,49.1136358,29.2024356,"Іллінці, Іллінецька міська громада, Вінницький район, Вінницька область, 22700, Україна",337571536.0,Q932248,אילינצי,1.0,matched_nominatim,high
405.0,,Rus,Ilince,Raykow,village,2.0,1765.0,BRT,Rayki,Bracław,Bracław,BRC_ILINCE,49.08448948,29.24778838,303.0,,49.086884,29.248301,"Райки, Вінницька область, Україна",337572813.0,Q4388943,,0.8,matched_db_api_modern,medium
406.0,,Rus,Ilince,Wasylowka,village,10.0,1765.0,BRT,Vasylivka,Bracław,Bracław,BRC_ILINCE,49.02481225,29.25933838,303.0,,49.0247699,29.2659546,"Василівка, Іллінецька міська громада, Вінницький район, Вінницька область, Україна",6040592.0,Q4104233,,1.0,matched_nominatim,high
407.0,,Rus,Ilince,Łysa Gora,village,5.0,1765.0,BRT,Lysa Hora,Bracław,Bracław,BRC_ILINCE,49.0112,29.20202,303.0,,49.010818,29.198158,"Лиса Гора, Вінницька область, Україна",337576309.0,Q4270641,,0.9,matched_db_api,high
408.0,,Rus,Ilince,Krasnienkie,village,17.0,1765.0,BRT,Krasnenke,Bracław,Bracław,BRC_ILINCE,49.0236,29.13762,303.0,,49.022606,29.134747,"Красненьке, Вінницька область, Україна",337575842.0,Q4238189,,0.9,matched_db_api,high
409.0,,Rus,Ilince,Boryssowka,village,4.0,1765.0,BRT,Borysivka,Bracław,Bracław,BRC_ILINCE,49.07262,29.18834,303.0,,49.0727155,29.1883149,"Борисівка, Вінницька область, Україна",337573811.0,Q4093923,,0.737,matched_db_api,medium
410.0,,Rus,Ilince,Ułanowka,village,13.0,1765.0,BRT,Ulanivka,Bracław,Bracław,BRC_ILINCE,49.09526598,29.15771433,303.0,,49.0939175,29.1592767,"Уланівка, Вінницька область, Україна",337572342.0,Q6686718,,0.875,matched_db_api,medium
411.0,,Rus,Ilince,Pawłowka,village,4.0,1765.0,BRT,Pavlivka,Bracław,Bracław,BRC_ILINCE,49.13046,29.15051,303.0,,49.130634,29.146421,"Павлівка, Іллінецька міська громада, Вінницький район, Вінницька область, 22713, Україна",337570713.0,Q4341641,,1.0,matched_nominatim,high
412.0,,Rus,Ilince,Newinka,village,11.0,1765.0,BRT,Nemenka,Bracław,Bracław,BRC_ILINCE,49.10944203,29.25298496,303.0,,49.1137364,29.2591864,"Неменка, Вінницька область, Україна",337571224.0,Q4316861,,0.714,matched_db_api,medium
413.0,,Rus,Ilince,Dańkowka,village,8.0,1765.0,BRT,Dankivka,Bracław,Bracław,BRC_ILINCE,49.10169296,29.31447782,303.0,,49.1018827,29.3152219,"Даньківка, Вінницька область, Україна",337572209.0,Q4154937,,0.875,matched_db_api,medium
414.0,,Rus,Ilince,Dąbrowince,village,5.0,1765.0,BRT,Dibrovyntsi,Bracław,Bracław,BRC_ILINCE,49.10111,29.34981,303.0,,49.1027297,29.3510033,"Дібровинці, Вінницька область, Україна",337571935.0,Q4161157,,0.636,matched_db_api,medium
415.0,,Rus,Ilince,Jabłonowica,village,7.0,1765.0,BRT,Yablunovytsia,Bracław,Bracław,BRC_ILINCE,49.1386,29.40675,303.0,,49.1368831,29.4060484,"Яблуновиця, Вінницька область, Україна",337570166.0,Q4535862,,0.696,matched_db_api,medium
416.0,,Rus,Ilince,Skibince,village,7.0,1765.0,BRT,Skybyn,Bracław,Bracław,BRC_ILINCE,49.15477817,29.3973344,303.0,,49.1540437,29.397923,"Скибин, Вінницька область, Україна",337569621.0,Q4421831,,0.857,matched_db_api,medium
417.0,,Rus,Ilince,Strzyżakow,village,6.0,1765.0,BRT,Stryzhakiv,Bracław,Bracław,BRC_ILINCE,49.15789,29.3495,303.0,,49.1568589,29.3469906,"Стрижаків, Вінницька область, Україна",337569652.0,Q4443969,,0.7,matched_db_api,medium
418.0,,Rus,Ilince,Babin,village,11.0,1765.0,BRT,Babyn,Bracław,Bracław,BRC_ILINCE,49.13442,29.32637,303.0,,49.1359049,29.3259862,"Бабин, Іллінецька міська громада, Вінницький район, Вінницька область, 22714, Україна",337570475.0,Q4074320,,1.0,matched_nominatim,high
419.0,,Rus,Ilince,Swiniadła,village,5.0,1765.0,BRT,Synarna,Bracław,Bracław,BRC_ILINCE,49.1576103,29.30697165,303.0,,49.1581791,29.3088353,"Синарна, Вінницька область, Україна",337569448.0,Q4420018,,0.625,matched_db_api,medium
420.0,,Rus,Ilince,Tiahun,village,11.0,1765.0,BRT,Tiahun,Bracław,Bracław,BRC_ILINCE,,,303.0,,,,,,,,,no_coords,none
422.0,1.0,Ostrog,Tetyiow,Tetyiow,city,364.0,1765.0,BRT,Plokhanovka,Bracław,Bracław,BRC_TETYJOW,49.36292394,29.65587616,304.0,,49.3686166,29.6771098,"Тетіїв, Київська область, Україна",337561478.0,Q70602,,0.857,matched_db_api,medium
423.0,,Ostrog,Tetyiow,Piatyhory,town,138.0,1765.0,BRT,Piatyhory,Bracław,Bracław,BRC_TETYJOW,49.34397,29.93136,304.0,,49.34166,29.92985,"Пʼятигори, Тетіївська міська громада, Білоцерківський район, Київська область, 09842, Україна",337562348.0,Q4385814,,1.0,matched_nominatim,high
424.0,,Ostrog,Tetyiow,Zwiniacze,village,5.0,1765.0,BRT,Dzveniache,Bracław,Bracław,BRC_TETYJOW,49.3821,29.57408,304.0,,49.3809427,29.5743994,Дзвеняче,337561248.0,Q4160737,,1.0,matched_cluster_fix,high
425.0,,Ostrog,Tetyiow,Kaszperowka,village,10.0,1765.0,BRT,Kashperivka,Bracław,Bracław,BRC_TETYJOW,49.43232,29.68125,304.0,,49.433056,29.680408,Кашперівка,337559391.0,Q4218257,,1.0,matched_cluster_fix,high
426.0,,Ostrog,Tetyiow,Burkowce,village,2.0,1765.0,BRT,Burkivtsi,Bracław,Bracław,BRC_TETYJOW,49.42731,29.60734,304.0,,49.4296064,29.603313,Бурківці,337559526.0,Q4099655,,1.0,matched_cluster_fix,high
427.0,,Ostrog,Tetyiow,Dohalowka,village,3.0,1765.0,BRT,Dovhalivka,Bracław,Bracław,BRC_TETYJOW,49.41991553,29.51396874,304.0,,49.424061,29.52232,Довгалівка,337559622.0,Q4163970,,1.0,matched_cluster_fix,high
428.0,,Ostrog,Tetyiow,Zbarażowka,village,5.0,1765.0,BRT,Zbarzhivka,Bracław,Bracław,BRC_TETYJOW,49.46234033,29.52032012,304.0,,49.4587495,29.524555,Збаржівка,337558394.0,Q4189209,,1.0,matched_cluster_fix,high
429.0,,Ostrog,Tetyiow,Koszow,village,10.0,1765.0,BRT,Koshiv,Bracław,Bracław,BRC_TETYJOW,49.49153,29.59251,304.0,,49.492031,29.586531,Кошів,337557329.0,Q4236959,,1.0,matched_cluster_fix,high
430.0,,Ostrog,Tetyiow,Pohreby,village,6.0,1765.0,BRT,Pohreby,Bracław,Bracław,BRC_TETYJOW,49.47749402,29.65209961,304.0,,49.4769186,29.6625812,Погреби,337557685.0,Q4366901,,1.0,matched_cluster_fix,high
431.0,,Ostrog,Tetyiow,Skibince,village,6.0,1765.0,BRT,Skybyntsi,Bracław,Bracław,BRC_TETYJOW,49.43687794,29.73209381,304.0,,49.4392447,29.7350747,"Скибинці, Київська область, Україна",337558994.0,Q4421838,,0.778,matched_db_api,medium
432.0,,Ostrog,Tetyiow,Słoboda,village,6.0,1765.0,BRT,Sloboda,Bracław,Bracław,BRC_TETYJOW,49.38333,29.66667,304.0,,,,,,,,,not_found,medium
433.0,,Ostrog,Tetyiow,Rosuszki,village,8.0,1765.0,BRT,Rosishky,Bracław,Bracław,BRC_TETYJOW,49.3069936,29.66377258,304.0,,49.3111,29.674419,"Росішки, Київська область, Україна",337563305.0,Q4397771,,0.75,matched_db_api,medium
434.0,,Ostrog,Tetyiow,Szulaki,village,4.0,1765.0,BRT,Shuliaky,Bracław,Bracław,BRC_TETYJOW,49.1576103,29.89100947,304.0,,,,,,,,,not_found,medium
435.0,,Ostrog,Tetyiow,Stadnica,village,5.0,1765.0,BRT,Stadnytsia,Bracław,Bracław,BRC_TETYJOW,49.24287595,29.74059736,304.0,,49.2399614,29.7474103,"Стадниця, Тетіївська міська громада, Білоцерківський район, Київська область, 09834, Україна",337566141.0,Q4439123,,0.824,matched_nominatim,medium
436.0,,Ostrog,Tetyiow,Kluki,village,9.0,1765.0,BRT,Kliuky,Bracław,Bracław,BRC_TETYJOW,49.20202,29.80213,304.0,,49.2106155,29.7910404,"Клюки, Київська область, Україна",337567328.0,Q4224333,,0.909,matched_db_api,high
437.0,,Ostrog,Tetyiow,Wysokie,village,4.0,1765.0,BRT,Vysoke,Bracław,Bracław,BRC_TETYJOW,49.25135674,29.81363817,304.0,,49.2520516,29.8165061,"Високе, Київська область, Україна",337565588.0,Q4129411,,0.769,matched_db_api,medium
438.0,,Ostrog,Tetyiow,Żydowczyk,village,3.0,1765.0,BRT,Żydowczyk,Bracław,Bracław,BRC_TETYJOW,,,304.0,,,,,,,,,no_coords,none
439.0,,Ostrog,Tetyiow,Horoszkow,village,6.0,1765.0,BRT,Horoshkiv,Bracław,Bracław,BRC_TETYJOW,49.2464,29.90062,304.0,,49.2468551,29.9027543,"Горошків, Київська область, Україна",337566120.0,Q4145868,,0.667,matched_db_api,medium
440.0,,Ostrog,Tetyiow,Tainica,village,5.0,1765.0,BRT,Tainytsia,Bracław,Bracław,BRC_TETYJOW,49.27283489,29.92854032,304.0,,49.275205,29.9351501,"Тайниця, Київська область, Україна",337564673.0,Q4449978,,1.0,matched_db_api,high
441.0,,Ostrog,Tetyiow,Aleksandrowka,village,4.0,1765.0,BRT,Oleksandrivka,Bracław,Bracław,BRC_TETYJOW,49.2909145,29.9608746,304.0,,49.2959646,29.9745905,"Олександрівка, Жашківська міська громада, Уманський район, Черкаська область, 19212, Україна",337563829.0,Q4061230,,1.0,matched_nominatim,high
442.0,,Ostrog,Tetyiow,Lemiszczycha,village,3.0,1765.0,BRT,Lemishchykha,Bracław,Bracław,BRC_TETYJOW,49.25265,30.05349,304.0,,,,,,,,,not_found,medium
443.0,,Ostrog,Tetyiow,Litwinowka,village,4.0,1765.0,BRT,Lytvynivka,Bracław,Bracław,BRC_TETYJOW,49.22949218,30.04719556,304.0,,,,,,,,,not_found,medium
444.0,,Ostrog,Tetyiow,Maryika,village,4.0,1765.0,BRT,Mariika,Bracław,Bracław,BRC_TETYJOW,49.17553,30.10597,304.0,,,,,,,,,not_found,medium
445.0,,Ostrog,Tetyiow,Puchaczowka,village,4.0,1765.0,BRT,Puhachivka,Bracław,Bracław,BRC_TETYJOW,49.18355,29.94923,304.0,,,,,,,,,not_found,medium
446.0,,Ostrog,Tetyiow,Bozowka,village,7.0,1765.0,BRT,Buzivka,Bracław,Bracław,BRC_TETYJOW,49.11502,30.08486,304.0,,,,,,,,,not_found,medium
447.0,,Ostrog,Tetyiow,Wilszanka,village,3.0,1765.0,BRT,Vilshanka,Bracław,Bracław,BRC_TETYJOW,49.16666515,30.05619049,304.0,,,,,,,,,not_found,medium
448.0,,Ostrog,Tetyiow,Ochmatow,village,2.0,1765.0,BRT,Okhmativ,Bracław,Bracław,BRC_TETYJOW,49.16554272,30.22922516,304.0,,,,,,,,,not_found,medium
449.0,,Ostrog,Tetyiow,Poboyna,village,5.0,1765.0,BRT,Pobiina,Bracław,Bracław,BRC_TETYJOW,49.2027941,30.28896332,304.0,,,,,,,,,not_found,medium
450.0,,Ostrog,Tetyiow,Srokotia,village,7.0,1765.0,BRT,Sorokotiaha,Bracław,Bracław,BRC_TETYJOW,49.19135238,30.16124725,304.0,,,,,,,,,not_found,medium
451.0,,Ostrog,Tetyiow,Żaszkow,village,7.0,1765.0,BRT,Zhashkiv,Bracław,Bracław,BRC_TETYJOW,49.2459,30.09888,304.0,,49.2478012,30.1066179,"Жашків, Жашківська міська громада, Уманський район, Черкаська область, Україна",147478873.0,Q219770,,1.0,matched_nominatim,high
452.0,,Ostrog,Tetyiow,Krywczunka,village,2.0,1765.0,BRT,Kryvchunka,Bracław,Bracław,BRC_TETYJOW,49.23594,29.95449,304.0,,49.2345588,29.9547834,"Кривчунка, Черкаська область, Україна",337566726.0,Q4240960,,0.8,matched_db_api,medium
453.0,,Ostrog,Tetyiow,Teterowka,village,2.0,1765.0,BRT,Teterivka,Bracław,Bracław,BRC_TETYJOW,49.25167201,30.21034241,304.0,,49.25167201,30.21034241,,,,,,reverted_to_original,medium
454.0,,Ostrog,Tetyiow,Tychi Futor,village,4.0,1765.0,BRT,Tykhyi Khutir,Bracław,Bracław,BRC_TETYJOW,49.30061,30.05931,304.0,,49.297974,30.058443,"Тихий Хутір, Черкаська область, Україна",337563801.0,Q4458503,,0.667,matched_db_api,medium
455.0,,Ostrog,Tetyiow,Strzyżawka,village,5.0,1765.0,BRT,Stryzhavka,Bracław,Bracław,BRC_TETYJOW,49.38801,29.99862,304.0,,49.3846846,29.9983513,"Стрижавка, Київська область, Україна",337561016.0,Q4443964,,0.8,matched_db_api,medium
456.0,,Ostrog,Tetyiow,Plutyńce,village,5.0,1765.0,BRT,Pliutynets,Bracław,Bracław,BRC_TETYJOW,49.41926,29.99476,304.0,,,,,,,,,not_found,medium
457.0,,Ostrog,Tetyiow,Matwiicha,village,7.0,1765.0,BRT,Matviikha,Bracław,Bracław,BRC_TETYJOW,49.47593249,29.98649597,304.0,,49.482761,29.988899,Матвіїха,337557530.0,Q7226736,,1.0,matched_cluster_fix,high
458.0,,Ostrog,Tetyiow,Raczki,village,4.0,1765.0,BRT,Rachky,Bracław,Bracław,BRC_TETYJOW,49.49578258,29.90135193,304.0,,49.4988825,29.9074453,Рачки,337557205.0,Q4391291,,1.0,matched_cluster_fix,high
459.0,,Ostrog,Tetyiow,Zrayki,village,6.0,1765.0,BRT,Zraiky,Bracław,Bracław,BRC_TETYJOW,49.46366155,29.82479095,304.0,,49.466282,29.82548,"Зрайки, Київська область, Україна",337558133.0,Q4194173,,0.833,matched_db_api,medium
460.0,,Ostrog,Tetyiow,Lubaczow,village,4.0,1765.0,BRT,Lobachiv,Bracław,Bracław,BRC_TETYJOW,49.43228,29.89224,304.0,,49.4293394,29.8897417,"Лобачів, Київська область, Україна",337559686.0,Q7238008,,0.625,matched_db_api,medium
461.0,,Ostrog,Tetyiow,Czerepinka,village,4.0,1765.0,BRT,Cherepynka,Bracław,Bracław,BRC_TETYJOW,49.41141995,29.83200073,304.0,,49.4094956,29.8381488,"Черепинка, Київська область, Україна",337560121.0,Q4512903,,0.947,matched_db_api,high
462.0,,Ostrog,Tetyiow,Hałayki,village,5.0,1765.0,BRT,Halaiky,Bracław,Bracław,BRC_TETYJOW,49.38946,29.87767,304.0,,49.3865855,29.8754692,"Галайки, Київська область, Україна",337561046.0,Q4132188,,0.8,matched_db_api,medium
463.0,,Ostrog,Tetyiow,Czerepin,village,3.0,1765.0,BRT,Cherepyn,Bracław,Bracław,BRC_TETYJOW,49.40633,29.80367,304.0,,49.4039476,29.806642,"Черепин, Київська область, Україна",337560395.0,Q4512898,,0.933,matched_db_api,high
464.0,,Ostrog,Tetyiow,Nenadijcha,village,2.0,1765.0,BRT,Nenadijcha,Bracław,Bracław,BRC_TETYJOW,,,304.0,,,,,,,,,no_coords,none
465.0,,Ostrog,Tetyiow,Krasnykąt,village,3.0,1765.0,BRT,Chervonyi Kut,Bracław,Bracław,BRC_TETYJOW,49.1459,30.32347,304.0,,,,,,,,,not_found,medium
466.0,,Ostrog,Tetyiow,Dąbrowka,village,3.0,1765.0,BRT,Dibrivka,Bracław,Bracław,BRC_TETYJOW,49.3116942,29.76230621,304.0,,49.319691,29.764709,"Дібрівка, Київська область, Україна",337563144.0,Q4161176,,0.75,matched_db_api,medium
468.0,1.0,Rus,Ładyżyn,Ładyżyn,city,287.0,1765.0,BRT,Ladyzhyn,Bracław,Bracław,BRC_LADYZYN,48.68053413,29.23187256,305.0,,48.6810505,29.2567642,"Ладижин, Ладижинська міська громада, Гайсинський район, Вінницька область, 24321, Україна",291732038.0,Q1020083,,1.0,matched_nominatim,high
469.0,,Rus,Ładyżyn,Basałykowka,village,4.0,1765.0,BRT,Basalychivka,Bracław,Bracław,BRC_LADYZYN,48.72821,29.26086,305.0,,48.729172,29.26071,"Басаличівка, Вінницька область, Україна",337587696.0,Q4078957,,0.696,matched_db_api,medium
470.0,,Rus,Ładyżyn,Futor,village,8.0,1765.0,BRT,Futor,Bracław,Bracław,BRC_LADYZYN,,,305.0,,,,,,,,,no_coords,none
471.0,,Rus,Ładyżyn,Pałanka,village,4.0,1765.0,BRT,Pałanka,Bracław,Bracław,BRC_LADYZYN,,,305.0,,,,,,,,,no_coords,none
473.0,1.0,Rus,Żorniszcza,Żorniszcza,city,174.0,1765.0,BRT,Zhornyshche,Bracław,Bracław,BRC_ZORNISZCZE,49.06435,29.08903,306.0,,49.070431,29.08287,"Жорнище, Вінницька область, Україна",337573740.0,Q4181118,,0.667,matched_db_api,medium
474.0,,Rus,Żorniszcza,Jakubowka,village,5.0,1765.0,BRT,Yakubivka,Bracław,Bracław,BRC_ZORNISZCZE,49.0925,29.13456,306.0,,49.0938362,29.1320739,"Якубівка, Вінницька область, Україна",337572471.0,Q4537151,,0.778,matched_db_api,medium
475.0,,Rus,Żorniszcza,Słobodka,village,3.0,1765.0,BRT,Slobidka,Bracław,Bracław,BRC_ZORNISZCZE,49.13676,29.12249,306.0,,49.139927,29.117527,"Слобідка, Іллінецька міська громада, Вінницький район, Вінницька область, 22713, Україна",337570277.0,Q4423635,,1.0,matched_nominatim,high
476.0,,Rus,Żorniszcza,Troszcza,village,4.0,1765.0,BRT,Troshcha,Bracław,Bracław,BRC_ZORNISZCZE,49.15664,29.09202,306.0,,49.1567101,29.0915883,"Троща, Вінницька область, Україна",337569519.0,Q4179720,,0.75,matched_db_api,medium
477.0,,Rus,Żorniszcza,Ormianka,village,3.0,1765.0,BRT,Varyyanka,Bracław,Bracław,BRC_ZORNISZCZE,49.13333,29.06667,306.0,,49.1394168,29.0711355,"Вернянка, Вінницька область, Україна",337570351.0,Q4107968,,0.706,matched_db_api,medium
478.0,,Rus,Żorniszcza,Popowka,village,4.0,1765.0,BRT,Popivka,Bracław,Bracław,BRC_ZORNISZCZE,49.14909,29.04118,306.0,,49.14665,29.04373,"Попівка, Вінницька область, Україна",337570053.0,Q4179613,,0.857,matched_db_api,medium
479.0,,Rus,Żorniszcza,Hordyiowka,village,3.0,1765.0,BRT,Hordiivka,Bracław,Bracław,BRC_ZORNISZCZE,49.17486,29.07012,306.0,,49.1745512,29.0694469,"Гордіївка, Вінницька область, Україна",337568858.0,Q4143852,,0.737,matched_db_api,medium
480.0,,Rus,Żorniszcza,Łuhowa,village,4.0,1765.0,BRT,Ivanky,Bracław,Bracław,BRC_ZORNISZCZE,49.10150394,29.09506668,306.0,,49.1003275,29.0978735,"Лугова, Вінницька область, Україна",337572127.0,Q4267999,,0.833,matched_db_api,medium
481.0,,Rus,Żorniszcza,Iwanka,village,4.0,1765.0,BRT,Ivanky,Bracław,Bracław,BRC_ZORNISZCZE,49.10585,29.06141,306.0,,49.10339,29.06879,"Іваньки, Вінницька область, Україна",337571943.0,Q4178199,,0.667,matched_db_api,medium
482.0,,Rus,Żorniszcza,Piasoczyn,village,5.0,1765.0,BRT,Pesochino,Bracław,Bracław,BRC_ZORNISZCZE,49.10556,29.01645,306.0,,49.1061351,29.0162473,"Пісочин, Вінницька область, Україна",337571845.0,Q4178473,,0.824,matched_db_api,medium
483.0,,Rus,Żorniszcza,Bednarowka,village,6.0,1765.0,BRT,Bondurivka,Bracław,Bracław,BRC_ZORNISZCZE,49.03786795,29.04373169,306.0,,49.0373281,29.0488371,"Бондурівка, Вінницька область, Україна",337574977.0,Q4093302,,0.6,matched_db_api,medium
485.0,1.0,Rus,Dziunkow,Dziunkow,city,137.0,1765.0,BRT,Dziunkiv,Bracław,Bracław,BRC_DZIUNKOW,49.45958916,29.44344521,307.0,,49.458389,29.444389,"Дзюньків, Вінницька область, Україна",337558427.0,Q4160938,,0.875,matched_db_api,medium
486.0,,Rus,Dziunkow,Nakazna,village,10.0,1765.0,BRT,Nakazna,Bracław,Bracław,BRC_DZIUNKOW,,,307.0,,,,,,,,,no_coords,none
487.0,,Rus,Dziunkow,Dołoteckie,village,6.0,1765.0,BRT,Dołoteckie,Bracław,Bracław,BRC_DZIUNKOW,,,307.0,,,,,,,,,no_coords,none
488.0,,Rus,Dziunkow,Junaczki,village,4.0,1765.0,BRT,Junaczki,Bracław,Bracław,BRC_DZIUNKOW,,,307.0,,,,,,,,,no_coords,none
490.0,1.0,Rus,Janow,Janow,city,547.0,1765.0,BRT,Ivaniv,Bracław,Bracław,BRC_JANOW,49.48630461,28.34103584,308.0,,49.4852718,28.3424484,"Іванів, Іванівська сільська громада, Хмільницький район, Вінницька область, 22432, Україна",9442084.0,Q4196383,,1.0,matched_nominatim,high
491.0,,Rus,Janow,Pisarowka,village,4.0,1765.0,BRT,Pysarivka,Bracław,Bracław,BRC_JANOW,49.527214,28.47724915,308.0,,49.528248,28.475641,"Писарівка, Вінницька область, Україна",337555885.0,Q4363548,,0.778,matched_db_api,medium
492.0,,Rus,Janow,Baykow,village,5.0,1765.0,BRT,Baikivka,Bracław,Bracław,BRC_JANOW,49.49645154,28.40068817,308.0,,49.500961,28.404119,"Байківка, Іванівська сільська громада, Хмільницький район, Вінницька область, 22430, Україна",9422431.0,Q4075593,,1.0,matched_nominatim_modern,high
493.0,,Rus,Janow,Hulowce,village,17.0,1765.0,BRT,Kutiuzhyntsi,Bracław,Bracław,BRC_JANOW,49.49037478,28.59861374,308.0,,49.482079,28.62969,"Котюжинці, Вінницька область, Україна",337557545.0,Q4236368,,0.917,matched_db_api_modern,high
494.0,,Rus,Janow,Radawka,village,4.0,1765.0,BRT,Sofiivka,Bracław,Bracław,BRC_JANOW,49.59073958,28.54926109,308.0,,49.5882166,28.5472009,"Радівка, Вінницька область, Україна",337553658.0,Q4387789,,0.857,matched_db_api,medium
495.0,,Rus,Janow,Zaliwanszczyzna,village,9.0,1765.0,BRT,Zalyvanshchyna,Bracław,Bracław,BRC_JANOW,49.56753254,28.64650726,308.0,,49.5690022,28.6590382,"Заливанщина, Вінницька область, Україна",337554021.0,Q4185351,,0.69,matched_db_api,medium
496.0,,Rus,Janow,Czerepaszynce,village,14.0,1765.0,BRT,Cherepashyntsi,Bracław,Bracław,BRC_JANOW,49.53701825,28.58882904,308.0,,49.53186,28.5902,"Черепашинці, Калинівська міська громада, Хмільницький район, Вінницька область, 22443, Україна",7247822.0,Q4512881,,1.0,matched_nominatim,high
497.0,,Rus,Janow,Do Czerepaszyniec Należąca,village,5.0,1765.0,BRT,Do Czerepaszyniec Należąca,Bracław,Bracław,BRC_JANOW,,,308.0,,,,,,,,,no_coords,none
