name,type,prov,dist,pale,region,jews,total,no_jews,full_name,lat,lon,census,jewish_flag,pop_flag,comments,index_sht
Bol'shiia Chepurniki,selo,Astrakhan,Chernyi Iar,Beyond,Inner Russia,256,2219,0,Bol'shiia Chepurniki,48.41667,44.58333,1,"","",.,0205Bl1
Gancheshty,mestechko,Bessarabia,Kishinev,Pale,New Russia,2228,5044,0,Gancheshty,46.8167,28.5833,1,"","","",0301Gn1
Kishinev,Gubernskii gorod,Bessarabia,Kishinev,Pale,New Russia,50237,108483,0,Kishinev,47,28.85,1,"","","",0301Ks1
Secareni,selo,Bessarabia,Kishinev,Pale,New Russia,,,1,Secareni,47.0333,28.3333,,"","","",0301Sc1
Akkerman,Uezdnyi gorod,Bessarabia,Akkerman,Pale,New Russia,5624,28258,0,Akkerman,46.2,30.35,1,"","","",0302Ak1
Bairamcha,selo,Bessarabia,Akkerman,Pale,New Russia,980,2718,0,Bairamcha,46.1333,29.9,1,"","","",0302Br1
Staro-Artsiz,selo,Bessarabia,Akkerman,Pale,New Russia,337,1827,0,Staro-Artsiz,45.9833,29.4167,1,"","","",0302St1
Tarutino,selo,Bessarabia,Akkerman,Pale,New Russia,1873,5200,0,Tarutino (Anchikrak),46.2,29.15,1,"","","",0302Tr1
Tatarbunary,mestechko,Bessarabia,Akkerman,Pale,New Russia,999,6023,0,Tatarbunary,45.85,29.6167,1,"","","",0302Tt1
Bendery,Uezdnyi gorod,Bessarabia,Bendery,Pale,New Russia,10654,31797,0,Bendery,46.8333,29.45,1,"","","",0303Bn1
Chimishliia,mestechko,Bessarabia,Bendery,Pale,New Russia,752,4355,0,Chimishliia,46.5167,28.7833,1,"","","",0303Cm1
Manzyr',mestechko,Bessarabia,Bendery,Pale,New Russia,310,1079,0,Manzyr' (Grafinia) (after 1940 - Lesnoe),46.46667,29.35,1,"","",Possible some connection with Lambrovka not mentioned in census lists,0303Mn1
Novye Kaushany,mestechko,Bessarabia,Bendery,Pale,New Russia,1675,3729,0,Novye Kaushany,46.65,29.4167,1,"","","",0303Nv1
Petrovka,mestechko,Bessarabia,Bendery,Pale,New Russia,611,1740,0,"Petrovka (Igupets,Chaga, Vidishtei)",46.9833,29.0833,1,"","",According to Chaga (name of the river as well) I would suggest this destination to it,0303Pt1
Romanovka,derevnia,Bessarabia,Bendery,Pale,New Russia,1142,1622,0,Romanovka,46.3333,28.9667,1,"","","",0303Rm1
Aleksandreny,koloniia,Bessarabia,Bieltsy,Pale,New Russia,1190,1253,0,Aleksandreny,47.8,28.0667,1,"","","",0304Al1
Bel'tsy,Uezdnyi gorod,Bessarabia,Bieltsy,Pale,New Russia,10348,18478,0,Bel'tsy,47.7667,27.9333,1,"","","",0304Bl1
Buteshty Stavry,selo,Bessarabia,Bieltsy,Pale,New Russia,108,674,0,Buteshty Stavry (Broneshty),47.3,28.91667,1,"","",http://ru.wikisource.org/wiki/%D0%A1%D0%B1%D0%BE%D1%80%D0%BD%D0%B8%D0%BA_%D0%B1%D0%BE%D0%B5%D0%B2%D1%8B%D1%85_%D0%B4%D0%BE%D0%BA%D1%83%D0%BC%D0%B5%D0%BD%D1%82%D0%BE%D0%B2/38/062,0304Bt1
Foleshty,mestechko,Bessarabia,Bieltsy,Pale,New Russia,4518,6672,0,Foleshty,47.5667,27.7167,1,"",note_appended,"",0304Fl1
Korneshty,selo,Bessarabia,Bieltsy,Pale,New Russia,552,2689,0,Korneshty,47.35,28.0167,1,"","","",0304Kr1
Pyrlitsa,poselok,Bessarabia,Bieltsy,Pale,New Russia,494,722,0,Pyrlitsa,47.73333,27.8,1,"","","",0304Py1
Ryshkonovka,mestechko,Bessarabia,Bieltsy,Pale,New Russia,2247,3246,0,Ryshkonovka,47.95,27.55,1,"","","",0304Ry1
Skuliany,mestechko,Bessarabia,Bieltsy,Pale,New Russia,1555,3375,0,Skuliany,47.3167,27.6333,1,"","","",0304Sk1
Ungeny,poselok,Bessarabia,Bieltsy,Pale,New Russia,997,1693,0,Ungeny,47.2,27.8167,1,"","","",0304Un1
Valialui Vlad,koloniia,Bessarabia,Bieltsy,Pale,New Russia,1318,1349,0,Valialui Vlad (Valea lui Vlad),47.4833,28.1333,1,"","","",0304Vl1
Bolgrad,zashtatnyi gorod,Bessarabia,Izmail,Pale,New Russia,1196,12300,0,Bolgrad,45.6833,28.6333,1,"","",A Gorod with less than 10% Jews (number of Jews is from Guberniyas volumes),0305Bl1
Baimakliia,selo,Bessarabia,Izmail,Pale,New Russia,397,1821,0,Baimakliia,46.2,28.3833,1,"","","",0305Bm1
Izmail,Uezdnyi gorod,Bessarabia,Izmail,Pale,New Russia,2780,22295,0,Izmail,45.35,28.8333,1,"","","",0305Iz1
Kagul,zashtatnyi gorod,Bessarabia,Izmail,Pale,New Russia,801,7077,0,Kagul,45.9,28.2,1,"","","",0305Kg1
Kyliia,zashtatnyi gorod,Bessarabia,Izmail,Pale,New Russia,2153,11618,0,Kyliia,45.45,29.2667,1,"","","",0305Ky1
Leovo,mestechko,Bessarabia,Izmail,Pale,New Russia,2773,4877,0,Leovo,46.4833,28.25,1,"","","",0305Lv1
Reni,zashtatnyi gorod,Bessarabia,Izmail,Pale,New Russia,730,6941,0,Reni,45.45,28.2833,1,"","","",0305Rn1
Isakova,koloniia,Bessarabia,Orgieev,Pale,New Russia,,,1,Isakova,47.36666,28.71667,,unknown,unknown,Jewish colony since the end of XIX century,0306Is1
Kriulian,mestechko,Bessarabia,Orgieev,Pale,New Russia,338,2054,0,Kriulian,47.2167,29.15,1,"","","",0306Kr1
Olishkany,selo,Bessarabia,Orgieev,Pale,New Russia,341,2943,0,Olishkany,47.8,28.7167,1,"","","",0306Ol1
Orgieev,Uezdnyi gorod,Bessarabia,Orgieev,Pale,New Russia,7144,12336,0,Orgieev,47.3833,28.8167,1,"","","",0306Or1
Rezena,mestechko,Bessarabia,Orgieev,Pale,New Russia,3182,3652,0,Rezena,47.75,28.9667,1,"","","",0306Rz1
Teleneshty,mestechko,Bessarabia,Orgieev,Pale,New Russia,3876,4379,0,Teleneshty,47.5,28.3667,1,"","","",0306Tl1
Tuzora,mestechko,Bessarabia,Orgieev,Pale,New Russia,4593,5153,0,Tuzora,47.25,28.3,1,"","","",0306Tz1
Vysshie Samashkony,selo,Bessarabia,Orgieev,Pale,New Russia,79,678,0,Vysshie Samashkony,47.75,28.68333,1,"","","",0306Vy1
Ataki,mestechko,Bessarabia,Soroki,Pale,New Russia,4690,6976,0,Ataki,48.4333,27.8,1,"","","",0307At1
Bricheva,koloniia,Bessarabia,Soroki,Pale,New Russia,1598,1644,0,Bricheva,48.1167,27.65,1,"","","",0307Br1
Dombroveny,koloniia,Bessarabia,Soroki,Pale,New Russia,1726,1815,0,Dombroveny,48.05,28.2333,1,"","","",0307Dm1
Kapreshty,koloniia,Bessarabia,Soroki,Pale,New Russia,866,1002,0,Kapreshty (Kapremty),47.75,28.4667,1,"","",Different name in census but exactly the same population,0307Kp1
Kremenchuk,selo,Bessarabia,Soroki,Pale,New Russia,291,985,0,Kremenchuk,48.26667,28.06667,1,"","","",0307Kr1
Kot Markuleshty,koloniia,Bessarabia,Soroki,Pale,New Russia,1336,1339,0,Kot Markuleshty,47.8667,28.25,1,"","",Different name in census but exactly the same population,0307Kt1
Liublin,koloniia,Bessarabia,Soroki,Pale,New Russia,512,517,0,Liublin,48.11666,28.53333,1,"","",Coordinates added 191005,0307Lb1
Pogorno-Rezesh,derevnia,Bessarabia,Soroki,Pale,New Russia,73,540,0,Pogorno-Rezesh,47.8333,28.5,1,"","","",0307Pg1
Ruda,selo,Bessarabia,Soroki,Pale,New Russia,127,1289,0,Ruda,48.3333,27.9,1,"","","",0307Rd1
Subbotovka,derevnia,Bessarabia,Soroki,Pale,New Russia,,,1,Subbotovka,48.33333,28,,unknown,unknown,"Not mentioned in lists of census, found accidently, searching on Wikimapia",0307Sb1
Soroki,Uezdnyi gorod,Bessarabia,Soroki,Pale,New Russia,8783,15351,0,Soroki,48.15,28.3,1,"","","",0307Sr1
Vad,mestechko,Bessarabia,Soroki,Pale,New Russia,3237,4641,0,Vad (Vad-Rashkov),47.93333,28.81667,1,"","","",0307Vd1
Vertiuzhany,koloniia,Bessarabia,Soroki,Pale,New Russia,1047,1057,0,Vertiuzhany,48,28.5333,1,"","",Remains of settlement can be seen on Wikimapia,0307Vr1
Zguritse,koloniia,Bessarabia,Soroki,Pale,New Russia,1802,2107,0,Zguritse,48.1167,28.0167,1,"","","",0307Zg1
Ataki,selo,Bessarabia,Khotin,Pale,New Russia,123,831,0,Ataki,48.9,26.8,1,"","","",0308At1
Bolboka,selo,Bessarabia,Khotin,Pale,New Russia,89,829,0,Bolboka,48.36666,27.2,1,"","",http://ru.wikisource.org/wiki/%D0%A3%D0%BA%D0%B0%D0%B7_%D0%9F%D1%80%D0%B5%D0%B7%D0%B8%D0%B4%D0%B8%D1%83%D0%BC%D0%B0_%D0%92%D0%A1_%D0%A1%D0%A1%D0%A1%D0%A0_%D0%BE%D1%82_4.11.1940_%D0%BE%D0%B1_%D1%83%D1%81%D1%82%D0%B0%D0%BD%D0%BE%D0%B2%D0%BB%D0%B5,0308Bl1
Brakha,selo,Bessarabia,Khotin,Pale,New Russia,,,1,Brakha,48.5,26.5,,unknown,unknown,"Not mentioned in lists of census, found accidently, searching on Wikimapia on the opposite side of the Khotin river coast",0308Br1
Brichany,mestechko,Bessarabia,Khotin,Pale,New Russia,7184,7446,0,Brichany,48.3667,27.0833,1,"","","",0308Br2
Chepeliutsy,selo,Bessarabia,Khotin,Pale,New Russia,163,1555,0,Chepeliutsy,48.3,27.3,1,"","","",0308Cp1
Edintsy,mestechko,Bessarabia,Khotin,Pale,New Russia,7379,10211,0,Edintsy,48.1667,27.3,1,"","","",0308Ed1
Klishkovtsy,selo,Bessarabia,Khotin,Pale,New Russia,1000,7707,0,Klishkovtsy,48.4333,26.2667,1,"","","",0308Kl1
Khotin,Uezdnyi gorod,Bessarabia,Khotin,Pale,New Russia,9227,18398,0,Khotin,48.4833,26.5,1,"","","",0308Kt1
Lipkony,mestechko,Bessarabia,Khotin,Pale,New Russia,4410,6865,0,Lipkony,48.2667,26.8,1,"","",Different name in census but exactly the same population,0308Lp1
Neporotovo,selo,Bessarabia,Khotin,Pale,New Russia,268,1631,0,Neporotovo,48.6,27.28333,1,"","","",0308Np1
Novoselitsy,mestechko,Bessarabia,Khotin,Pale,New Russia,3898,5891,0,Novoselitsy,48.45,26.9833,1,"","","",0308Nv1
Rzhavintsy,selo,Bessarabia,Khotin,Pale,New Russia,369,2140,0,Rzhavintsy,48.5,26.06667,1,"","",Different name in census but close by name and by other local countries mentioned in Jewish encyclopedy of Brokhauz and Efron,0308Rz1
Sekuriany,selo,Bessarabia,Khotin,Pale,New Russia,5042,8982,0,Sekuriany,48.45,27.4167,1,"","","",0308Sk1
Voloshkovo,selo,Bessarabia,Khotin,Pale,New Russia,119,1050,0,Voloshkovo,48.46667,27.5,1,"","","",0308Vl1
Iaisa,"","","",Pale,Lithuania,,,1,Iaisa,55.4167,27.0833,0,"",unknown,Mentioned in Jewishgen but not in the census,04.Is1
Antokol',"",Vilnius,Vilnius,Pale,Lithuania,,,1,Antokol',54.7,25.3167,0,"",unknown,Mentioned in Jewishgen but not in the census,0401An1
Boguslavishki,"",Vilnius,Vilnius,Pale,Lithuania,,,1,Boguslavishki,55.0833,24.7667,0,"",unknown,Mentioned in Jewishgen but not in the census,0401Bg1
Bol'shie Solochniki,selo,Vilnius,Vilnius,Pale,Lithuania,207,586,0,Bol'shie Solochniki,54.3,25.3833,1,"","","",0401Bl1
Bystritsa,"",Vilnius,Vilnius,Pale,Lithuania,,,1,Bystritsa,54.8,25.8833,0,"",unknown,Mentioned in Jewishgen but not in the census,0401By1
Bezdany,"",Vilnius,Vilnius,Pale,Lithuania,,,1,Bezdany,54.8,25.5333,0,"",unknown,Mentioned in Jewishgen but not in the census,0401Bz1
Chabishki,"",Vilnius,Vilnius,Pale,Lithuania,,,1,Chabishki,54.9667,24.65,0,"",unknown,Mentioned in Jewishgen but not in the census,0401Cb1
Dubinki,"",Vilnius,Vilnius,Pale,Lithuania,,,1,Dubinki,55.0667,25.45,0,"",unknown,Mentioned in Jewishgen but not in the census,0401Db1
Gedroitsy,mestechko,Vilnius,Vilnius,Pale,Lithuania,357,548,0,Gedroitsy,55.0833,25.2833,1,"","","",0401Gd1
Gelvani,mestechko,Vilnius,Vilnius,Pale,Lithuania,374,523,0,Gelvani (Gel'vany),55.0667,24.7,1,"","","",0401Gl1
Inturki,"",Vilnius,Vilnius,Pale,Lithuania,,,1,Inturki,55.1667,25.55,0,"",unknown,Mentioned in Jewishgen but not in the census,0401In1
Iashuny,"",Vilnius,Vilnius,Pale,Lithuania,,,1,Iashuny,54.45,25.3333,0,"",unknown,Mentioned in Jewishgen but not in the census,0401Is1
Kalvariskie snipishki,"",Vilnius,Vilnius,Pale,Lithuania,,,1,Kalvariskie snipishki,54.6833,25.3167,0,"",unknown,Mentioned in Jewishgen but not in the census,0401Kl1
Kernovo,"",Vilnius,Vilnius,Pale,Lithuania,,,1,Kernovo,54.8833,24.85,0,"",unknown,Mentioned in Jewishgen but not in the census,0401Kr1
Laibishki,"",Vilnius,Vilnius,Pale,Lithuania,,,1,Laibishki,54.4833,25.5333,0,"",unknown,Mentioned in Jewishgen but not in the census,0401Lb1
Mikhalishki,mestechko,Vilnius,Vilnius,Pale,Lithuania,951,1224,0,Mikhalishki,54.8167,26.1667,1,"","",#NAME?,0401Mk1
Maliaty,mestechko,Vilnius,Vilnius,Pale,Lithuania,1948,2397,0,Maliaty,55.2333,25.4167,1,"","","",0401Ml1
Meishagola,mestechko,Vilnius,Vilnius,Pale,Lithuania,109,920,0,Meishagola,54.8667,25.0667,1,"","","",0401Ms1
Musniki,"",Vilnius,Vilnius,Pale,Lithuania,,,1,Musniki,54.95,24.85,0,"",unknown,Mentioned in Jewishgen but not in the census,0401Ms2
Niemenchin,mestechko,Vilnius,Vilnius,Pale,Lithuania,639,886,0,Niemenchin (Niemchiny),54.85,25.4833,1,"","","",0401Nm1
Novo-Vileisk,"",Vilnius,Vilnius,Pale,Lithuania,,,1,Novo-Vileisk,54.7,25.4167,0,"",unknown,Mentioned in Jewishgen but not in the census,0401Nv1
Ostrovets,"",Vilnius,Vilnius,Pale,Lithuania,,,1,Ostrovets,54.6167,25.9667,0,"",unknown,Mentioned in Jewishgen but not in the census,0401Os1
Podberezy,mestechko,Vilnius,Vilnius,Pale,Lithuania,556,688,0,Podberezy (Podberez'e),54.9333,25.2333,1,"","","",0401Pd1
Peski,prigorod,Vilnius,Vilnius,Pale,Lithuania,197,1740,0,Peski,54.66667,25.26667,1,"","","",0401Ps1
Rudomino,"",Vilnius,Vilnius,Pale,Lithuania,,,1,Rudomino,54.5833,25.35,0,"",unknown,Mentioned in Jewishgen but not in the census,0401Rd1
Soltanishki,prigorod,Vilnius,Vilnius,Pale,Lithuania,413,1440,0,Soltanishki,54.7,25.25,1,"","","",0401Sl1
Shirvinty,mestechko,Vilnius,Vilnius,Pale,Lithuania,1413,1864,0,Shirvinty,55.05,24.95,1,"","","",0401Sr1
Shesholi,"",Vilnius,Vilnius,Pale,Lithuania,,,1,Shesholi,55.1833,24.95,0,"",unknown,Mentioned in Jewishgen but not in the census,0401Ss1
Tsekhanovishki,"",Vilnius,Vilnius,Pale,Lithuania,,,1,Tsekhanovishki,54.7333,25.0833,0,"",unknown,Mentioned in Jewishgen but not in the census,0401Ts1
Vil'na,Gubernskii gorod,Vilnius,Vilnius,Pale,Lithuania,63996,154532,0,Vil'na,54.6833,25.3167,1,"","","",0401Vl1
Vileika,selo,Vilnius,Vilnius,Pale,Lithuania,346,3350,0,Vileika,,,1,"","","",0401Vl2
Vorniany,"",Vilnius,Vilnius,Pale,Lithuania,,,1,Vorniany,54.7333,26.0167,0,"",unknown,Mentioned in Jewishgen but not in the census,0401Vr1
Zakret,Prigorod,Vilnius,Vilnius,Pale,Lithuania,170,1594,0,Zakret,54.68333,25.23333,1,"","","",0401Zk1
Budslav,"",Vilnius,Vileika,Pale,Lithuania,,,1,Budslav,54.7833,27.45,0,"",unknown,Mentioned in Jewishgen but not in the census,0402Bd1
Dolginov,mestechko,Vilnius,Vileika,Pale,Lithuania,2559,3551,0,Dolginov (Dolginovo),54.65,27.4833,1,"","","",0402Dl1
Dunilovichi,mestechko,Vilnius,Vileika,Pale,Lithuania,1553,1810,0,Dunilovichi,55.0667,27.2333,1,"","","",0402Dn1
Gorodok,mestechko,Vilnius,Vileika,Pale,Lithuania,1230,1603,0,Gorodok,54.15,26.9167,1,"","","",0402Gr1
Iliia,mestechko,Vilnius,Vileika,Pale,Lithuania,829,1431,0,Iliia (Il'ia),54.4167,27.3,1,"","","",0402Il1
Kraisk,mestechko,Vilnius,Vileika,Pale,Lithuania,549,629,0,Kraisk,54.5167,27.5,1,"","","",0402Kr1
Krasnoe,mestechko,Vilnius,Vileika,Pale,Lithuania,573,1077,0,Krasnoe,54.2333,27.0833,1,"","","",0402Kr2
Krivichi,mestechko,Vilnius,Vileika,Pale,Lithuania,457,520,0,Krivichi,54.7167,27.2833,1,"","","",0402Kr3
Kurenets,mestechko,Vilnius,Vileika,Pale,Lithuania,1613,1774,0,Kurenets,54.55,26.95,1,"","","",0402Kr4
Lebedev,mestechko,Vilnius,Vileika,Pale,Lithuania,1232,2275,0,Lebedev (Lebedevo),54.3167,26.7,1,"","","",0402Lb1
Molodechno,mestechko,Vilnius,Vileika,Pale,Lithuania,1105,2393,0,Molodechno,54.3167,26.85,1,"","","",0402Ml1
Nivki,"",Vilnius,Vileika,Pale,Lithuania,,,1,Nivki,54.65,27.1167,0,"",unknown,Mentioned in Jewishgen but not in the census,0402Nv1
Novyi Miadziol,mestechko,Vilnius,Vileika,Pale,Lithuania,436,1164,0,Novyi Miadziol (Novyi Miadel'),54.8667,26.9333,1,"","","",0402Nv2
Parafianovo,"",Vilnius,Vileika,Pale,Lithuania,,,1,Parafianovo,54.8833,27.6,0,"",unknown,Mentioned in Jewishgen but not in the census,0402Pr1
Radoshkovichi,zashtatnyi gorod,Vilnius,Vileika,Pale,Lithuania,1519,2615,0,Radoshkovichi,54.15,27.2333,1,"","","",0402Rd1
Vileika,Uezdnyi gorod,Vilnius,Vileika,Pale,Lithuania,1328,3560,0,Vileika,54.5,26.9167,1,"","","",0402Vl1
Volkolata,selo,Vilnius,Vileika,Pale,Lithuania,69,543,0,Volkolata,54.91667,27.36667,1,"","","",0402Vl2
Viazyn',mestechko,Vilnius,Vileika,Pale,Lithuania,234,604,0,Viazyn',54.4167,27.1667,1,"","",The district is incorrect in Jewishgen,0402Vz1
Druia,Zashtatnyi gorod,Vilnius,Disna,Pale,Lithuania,3006,4742,0,Druia,55.7833,27.45,1,"","","",0403Dr1
Disna,Uezdnyi gorod,Vilnius,Disna,Pale,Lithuania,4617,6756,0,Disna,55.5667,28.2167,1,"","","",0403Ds1
Glubokoe,mestechko,Vilnius,Disna,Pale,Lithuania,3917,5564,0,Glubokoe,55.13334,27.66667,1,"","",Name of district as it mentioned in census,0403Gl1
Golubiche,"",Vilnius,Disna,Pale,Lithuania,,,1,Golubiche,55.1167,27.9667,0,"",unknown,Mentioned in Jewishgen but not in the census,0403Gl2
Germanoviche,"",Vilnius,Disna,Pale,Lithuania,,,1,Germanoviche,55.4,27.8,0,"",unknown,Mentioned in Jewishgen but not in the census,0403Gr1
Iody,"",Vilnius,Disna,Pale,Lithuania,,,1,Iody,55.45,27.2333,0,"",unknown,Mentioned in Jewishgen but not in the census,0403Id1
Ikazn',selo,Vilnius,Disna,Pale,Lithuania,78,673,0,Ikazn',55.61666,27.25,1,"","","",0403Ik1
Koziany-I,selo,Vilnius,Disna,Pale,Lithuania,139,742,0,Koziany-I,55.3,26.8667,1,"","","",0403Kz1
Kozlovshchina,"",Vilnius,Disna,Pale,Lithuania,,,1,Kozlovshchina,55.1833,27.3667,0,"",unknown,Mentioned in Jewishgen but not in the census,0403Kz2
Leonpol',"",Vilnius,Disna,Pale,Lithuania,,,1,Leonpol',55.8,27.7833,0,"",unknown,Mentioned in Jewishgen but not in the census,0403Ln1
Luzhki,mestechko,Vilnius,Disna,Pale,Lithuania,761,1672,0,Luzhki,55.35,27.8667,1,"","","",0403Lz1
Miory,"",Vilnius,Disna,Pale,Lithuania,,,1,Miory,55.6167,27.6333,0,"",unknown,Mentioned in Jewishgen but not in the census,0403Mr1
Novo-Pogost,mestechko,Vilnius,Disna,Pale,Lithuania,118,607,0,Novo-Pogost (selo Novo-Pogost),55.5,27.4833,1,"","","",0403Nv1
Plisa,mestechko,Vilnius,Disna,Pale,Lithuania,366,899,0,Plisa,55.2167,27.95,1,"","","",0403Pl1
Perebrod'e,mestechko,Vilnius,Disna,Pale,Lithuania,176,675,0,Perebrod'e,55.61666,27.38333,1,"","","",0403Pr1
Prozoroki,"",Vilnius,Disna,Pale,Lithuania,,,1,Prozoroki,55.3,28.2167,0,"",unknown,Mentioned in Jewishgen but not in the census,0403Pr2
Postavy,mestechko,Vilnius,Disna,Pale,Lithuania,1310,2397,0,Postavy,55.1167,26.8333,1,"","","",0403Ps1
Sharkovshchizna,mestechko,Vilnius,Disna,Pale,Lithuania,1007,1165,0,"Sharkovshchizna (Novo-Sharkovshchizna, Novo-Sharovshchina)",55.3667,27.4667,1,"","","No last digit in total population, need to be checked, according to http://be-x-old.wikipedia.org/wiki/%D0%A8%D0%B0%D1%80%D0%BA%D0%BE%D1%9E%D1%88%D1%87%D1%8B%D0%BD%D0%B0 - 1165",0403Sr1
Zheludok,mestechko,Vilnius,Disna,Pale,Lithuania,1372,1860,0,Zheludok (Zheludek),53.6,24.9833,1,"","","",0403Zl1
Zaskevichi,"",Vilnius,Disna,Pale,Lithuania,,,1,Zaskevichi,54.4,26.6167,0,"",unknown,Mentioned in Jewishgen but not in the census,0403Zs1
Bielitsy,mestechko,Vilnius,Lida,Pale,Lithuania,679,1686,0,Bielitsy,53.65,25.3167,1,"","","",0404Bl1
Beniakoni,"",Vilnius,Lida,Pale,Lithuania,,,1,Beniakoni,54.25,25.3667,0,"",unknown,Mentioned in Jewishgen but not in the census,0404Bn1
Dubrovo,"",Vilnius,Lida,Pale,Lithuania,,,1,Dubrovo,53.55,25.05,0,"",unknown,Mentioned in Jewishgen but not in the census,0404Db1
Dvortsovaia sloboda,derevnia,Vilnius,Lida,Pale,Lithuania,68,505,0,Dvortsovaia sloboda,53.88334,25.3,1,"","","",0404Dv1
Eishishki,mestechko,Vilnius,Lida,Pale,Lithuania,2376,3196,0,Eishishki,54.1667,25,1,"","","",0404Es1
Lida,Uezdnyi gorod,Vilnius,Lida,Pale,Lithuania,5294,9323,0,Lida,53.8833,25.3,1,"","","",0404Ld1
Novyi Dvor,mestechko,Vilnius,Lida,Pale,Lithuania,664,822,0,Novyi Dvor,53.8,24.5667,1,"","","",0404Nv1
Orlia,mestechko,Vilnius,Lida,Pale,Lithuania,354,804,0,Orlia,53.5,24.9833,1,"","","",0404Or1
Ostrino,mestechko,Vilnius,Lida,Pale,Lithuania,1440,2410,0,Ostrino,53.7333,24.5333,1,"","","",0404Os1
Radun',mestechko,Vilnius,Lida,Pale,Lithuania,896,1621,0,Radun',54.05,25,1,"","","",0404Rd1
Rozhanka,mestechko,Vilnius,Lida,Pale,Lithuania,543,777,0,Rozhanka,53.5333,24.7333,1,"","","",0404Rz1
Shchuchin,mestechko,Vilnius,Lida,Pale,Lithuania,1356,1742,0,Shchuchin,53.6167,24.7333,1,"","","",0404Sc1
Voronovo,mestechko,Vilnius,Lida,Pale,Lithuania,1432,1574,0,Voronovo,54.15,25.3333,1,"","","",0404Vr1
Vasilishki,mestechko,Vilnius,Lida,Pale,Lithuania,2081,2781,0,Vasilishki,53.7833,24.85,1,"","","",0404Vs1
Bakshty,selo,Vilnius,Oshmiany,Pale,Lithuania,172,1461,0,Bakshty,53.9333,26.1833,1,"","",Name of district as it mentioned in census,0405Bk1
Derevno,mestechko,Vilnius,Oshmiany,Pale,Lithuania,350,851,0,Derevno (Derevnaia),53.7,26.5667,1,"","","",0405Dr1
Dzevenishki,mestechko,Vilnius,Oshmiany,Pale,Lithuania,1225,1710,0,Dzevenishki,54.2,25.6167,1,"","","",0405Dz1
Gaviia,"",Vilnius,Oshmiany,Pale,Lithuania,,,1,Gaviia,53.85,25.6,0,"",unknown,Mentioned in Jewishgen but not in the census,0405Gv1
Iv'e,mestechko,Vilnius,Oshmiany,Pale,Lithuania,573,3653,0,Iv'e (Ivve) s derevnei Zakostel'tsy I predmest'e okolitsy Muravshchina,53.9333,25.7667,1,"","","",0405Iv1
Krevo,mestechko,Vilnius,Oshmiany,Pale,Lithuania,809,2201,0,Krevo,54.3167,26.2833,1,"","","",0405Kr1
Lipnishki,mestechko,Vilnius,Oshmiany,Pale,Lithuania,612,1377,0,Lipnishki,54,25.6167,1,"","","",0405Lp1
Nalibok,mestechko,Vilnius,Oshmiany,Pale,Lithuania,120,1683,1,Nalibok (s imeniem Naliboki I vyselkom Podbolot'e),53.75,26.45,1,at_most,"",Calculated by subtraction from Total value any other groups mentioned in census for this place,0405Nl1
Ol'shany,mestechko,Vilnius,Oshmiany,Pale,Lithuania,1049,2183,0,Ol'shany (Gol'shany) s vladiel'cheskoi usad'boi,54.25,26.0167,1,"","","",0405Ol1
Oshmiany,Uezdnyi gorod,Vilnius,Oshmiany,Pale,Lithuania,3803,7214,0,Oshmiany,54.4167,25.9333,1,"","","",0405Os1
Subbotniki,selo/mestechko,Vilnius,Oshmiany,Pale,Lithuania,91,602,0,Subbotniki,54.08333,25.73333,1,"","","",0405Sb1
Soly,mestechko,Vilnius,Oshmiany,Pale,Lithuania,530,981,0,Soly,54.5167,26.1833,1,"","","",0405Sl1
Smorgon',mestechko,Vilnius,Oshmiany,Pale,Lithuania,6743,8908,0,Smorgon',54.4833,26.4,1,"","","",0405Sm1
Traby,mestechko,Vilnius,Oshmiany,Pale,Lithuania,634,1183,0,Traby,54.15,25.9167,1,"","","",0405Tr1
Volozhin,mestechko,Vilnius,Oshmiany,Pale,Lithuania,2452,4534,0,"Volozhin (Volozhino) s imeniem Volozhino I derevniami Bondar', Evlashi, Poniz'e, Sidertsevichi",54.0833,26.5333,1,"","","",0405Vl1
Vishnev,mestechko,Vilnius,Oshmiany,Pale,Lithuania,1463,2650,0,"Vishnev (Vishnevo) s imeniem Vishnevo, s pivo-varennym I medovarennym zavodom I derevniami Gelenovo, Zhukovshchina, Zafinovo-Vishnevskoiu vodianoi mel'nitsei",54.1333,26.2333,1,"","","",0405Vs1
Yasevichi,"",Vilnius,Oshmiany,Pale,Lithuania,,,1,Yasevichi,55.0833,27.8667,0,"",unknown,Mentioned in Jewishgen but not in the census,0405Ys1
Zhuprany,mestechko,Vilnius,Oshmiany,Pale,Lithuania,415,824,0,Zhuprany,54.4667,26.0833,1,"","","",0405Zp1
Daugelishki,"",Vilnius,Sventsiany,Pale,Lithuania,,,1,Daugelishki,55.3667,26.3,0,"",unknown,Mentioned in Jewishgen but not in the census,0406Dg1
Godutishki s kazenoi usad'boi,mestechko,Vilnius,Sventsiany,Pale,Lithuania,1373,2247,0,Godutishki s kazenoi usad'boi Godutishki I derevnei Godutishki I zheleznodorozhnoi stantsiei Godutishki,55.15,26.6,1,"","",Name of district as it mentioned in census,0406Gd1
Ignalino,"",Vilnius,Sventsiany,Pale,Lithuania,,,1,Ignalino,55.35,26.1667,0,"",unknown,Mentioned in Jewishgen but not in the census,0406Ig1
Kobyl'nik,mestechko,Vilnius,Sventsiany,Pale,Lithuania,591,1055,0,Kobyl'nik,54.9333,26.6833,1,"","","",0406Kb1
Koltyniany,"",Vilnius,Sventsiany,Pale,Lithuania,,,1,Koltyniany,55.2667,26,0,"",unknown,Mentioned in Jewishgen but not in the census,0406Kl1
Kemelishki,mestechko,Vilnius,Sventsiany,Pale,Lithuania,101,507,0,Kemelishki (mestechko Kemelishki),54.85,25.8833,1,"","","",0406Km1
Komai,mestechko,Vilnius,Sventsiany,Pale,Lithuania,155,622,0,Komai,,,1,"","","JG only has Komai in Kovno, not Vilna (Yannay)",0406Km2
Lyngmiany s derevnei Lyngmiany,mestechko,Vilnius,Sventsiany,Pale,Lithuania,297,847,0,Lyngmiany s derevnei Lyngmiany I Novosady,55.3,25.95,1,"","","",0406Ly1
Lyntupy,selo,Vilnius,Sventsiany,Pale,Lithuania,238,685,0,Lyntupy (mestechko Lyntupy),55.05,26.3167,1,"","","",0406Ly2
Melengiany,selo,Vilnius,Sventsiany,Pale,Lithuania,118,517,0,"Melengiany (Melegiany, Megeliany)",55.25,26.4333,1,"","","",0406Ml1
Novo-Sventsiany,posad,Vilnius,Sventsiany,Pale,Lithuania,540,1340,0,"Novo-Sventsiany (solianoi Novo-Sventsiany, selo Novye Sventsiany)",55.1667,26,1,"","","",0406Nv1
Podbrodze,"",Vilnius,Sventsiany,Pale,Lithuania,,,1,Podbrodze,55,25.7833,0,"",unknown,Mentioned in Jewishgen but not in the census,0406Pd1
Stoiatsishki,"",Vilnius,Sventsiany,Pale,Lithuania,,,1,Stoiatsishki,55.1833,26.5167,0,"",unknown,Mentioned in Jewishgen but not in the census,0406St1
Sventsiany,Uezdnyi gorod,Vilnius,Sventsiany,Pale,Lithuania,3172,6025,0,Sventsiany,55.15,26.1667,1,"","","",0406Sv1
"Svir' I, II, III",mestechko,Vilnius,Sventsiany,Pale,Lithuania,1114,1686,0,"Svir' I, II, III",54.85,26.4,1,"","","",0406Sv2
Tseikiny,"",Vilnius,Sventsiany,Pale,Lithuania,,,1,Tseikiny,55.2667,26.2667,0,"",unknown,Mentioned in Jewishgen but not in the census,0406Ts1
Birshtany,"",Vilnius,Troki,Pale,Lithuania,,,1,Birshtany,54.6167,24.0333,0,"",unknown,Mentioned in Jewishgen but not in the census,0407Br1
Butrimantsy,mestechko,Vilnius,Troki,Pale,Lithuania,1919,2394,0,Butrimantsy,54.5,24.25,1,"","","",0407Bt1
Daugi,mestechko,Vilnius,Troki,Pale,Lithuania,511,1288,0,Daugi,54.3667,24.3333,1,"","","",0407Dg1
Dekshnia,"",Vilnius,Troki,Pale,Lithuania,,,1,Dekshnia,54.3667,24.8,0,"",unknown,Mentioned in Jewishgen but not in the census,0407Dk1
Dorsunishki,"",Vilnius,Troki,Pale,Lithuania,,,1,Dorsunishki,54.7333,24.1167,0,"",unknown,Mentioned in Jewishgen but not in the census,0407Dr1
Ev'e,mestechko,Vilnius,Troki,Pale,Lithuania,647,725,0,Ev'e,54.7667,24.8,1,"","","",0407Ev1
Ezno,mestechko,Vilnius,Troki,Pale,Lithuania,303,1255,0,Ezno,54.6,24.1667,1,"","","",0407Ez1
Ganishushki,mestechko,Vilnius,Troki,Pale,Lithuania,217,577,0,Ganishushki (Ganushishki),54.4833,24.6,1,"","","",0407Gn1
Kriuni,mestechko,Vilnius,Troki,Pale,Lithuania,126,549,0,"Kriuni (Novye Kroni, Kroni)",54.75,24.23333,1,"","","",0407Kr1
Koshedary,posad,Vilnius,Troki,Pale,Lithuania,317,883,0,Koshedary,54.8667,24.45,1,"","","",0407Ks1
Liandvarovo,"",Vilnius,Troki,Pale,Lithuania,,,1,Liandvarovo,54.65,25.05,0,"",unknown,Mentioned in Jewishgen but not in the census,0407Ln1
Leipuny,"",Vilnius,Troki,Pale,Lithuania,,,1,Leipuny,54.45,24.75,0,"",unknown,Mentioned in Jewishgen but not in the census,0407Lp1
Merech',mestechko,Vilnius,Troki,Pale,Lithuania,1900,2580,0,Merech',54.1667,24.1667,1,"","","",0407Mr1
Niemaniuny,"",Vilnius,Troki,Pale,Lithuania,,,1,Niemaniuny,54.5667,24.0833,0,"",unknown,Mentioned in Jewishgen but not in the census,0407Nm1
Niemonoitse,mestechko,Vilnius,Troki,Pale,Lithuania,361,742,0,Niemonoitse (Niemonaitsy),54.3,24.0333,1,"","","",0407Nm2
Ol'keniki,mestechko,Vilnius,Troki,Pale,Lithuania,1126,2619,0,Ol'keniki,54.35,24.8333,1,"","","",0407Ol1
Olava,"",Vilnius,Troki,Pale,Lithuania,,,1,Olava,54.35,24.2,0,"",unknown,Mentioned in Jewishgen but not in the census,0407Ol2
Olita,mestechko,Vilnius,Troki,Pale,Lithuania,753,2010,0,Olita,54.4,24.05,1,"","","",0407Ol3
Orany,mestechko,Vilnius,Troki,Pale,Lithuania,1473,2624,0,Orany,54.2167,24.5667,1,"","","",0407Or1
Pananishki,"",Vilnius,Troki,Pale,Lithuania,,,1,Pananishki,54.5167,24.7333,0,"",unknown,Mentioned in Jewishgen but not in the census,0407Pn1
Puni,mestechko,Vilnius,Troki,Pale,Lithuania,1045,1133,0,Puni,54.5167,24.1,1,"","","",0407Pn2
Rotnitsa,mestechko,Vilnius,Troki,Pale,Lithuania,517,539,0,"Rotnitsa (Ratnitsa, Novoselki)",54,24.01667,1,"","","",0407Rt1
Sulemishki,selo,Vilnius,Troki,Pale,Lithuania,300,968,0,Sulemishki (Sumelishki),54.65,24.65,1,"","","",0407Sl1
Stoklishki,mestechko,Vilnius,Troki,Pale,Lithuania,808,2200,0,Stoklishki,54.6,24.3167,1,"","","",0407St1
Troki,Uezdnyi gorod,Vilnius,Troki,Pale,Lithuania,1112,3240,0,Troki,54.6333,24.9333,1,"","","",0407Tr1
Vysokii dvor,mestechko,Vilnius,Troki,Pale,Lithuania,309,711,0,Vysokii dvor,54.5833,24.5333,1,"","","",0407Vy1
Zhosli,mestechko,Vilnius,Troki,Pale,Lithuania,1325,1955,0,Zhosli,54.8667,24.6,1,"","","",0407Zs1
Zhizhmor'e,mestechko,Vilnius,Troki,Pale,Lithuania,1628,2795,0,Zhizhmor'e (Zhizhmory),54.8,24.45,1,"","","",0407Zz1
Ianovichi,mestechko,Vitebsk,Vitebsk,Pale,Lithuania,1702,2359,0,Ianovichi,55.3,30.7,1,"","","",0501In1
Kolyshki,mestechko,Vitebsk,Vitebsk,Pale,Lithuania,1127,1568,0,Kolyshki,55.1667,30.9667,1,"","","",0501Kl1
Surazh,Zashtatnyi gorod,Vitebsk,Vitebsk,Pale,Lithuania,1246,2731,0,Surazh,55.4167,30.7167,1,"","","",0501Sr1
Vitebsk,Gubernskii gorod,Vitebsk,Vitebsk,Pale,Lithuania,34440,65871,0,Vitebsk,55.2,30.2,1,"","","",0501Vt1
Il'ino,mestechko,Vitebsk,Velizh,Pale,Lithuania,1105,1415,0,Il'ino,55.95,31.6667,1,"","","",0502Il1
Usviat,mestechko,Vitebsk,Velizh,Pale,Lithuania,956,2679,0,Usviat,55.75,30.75,1,"","","",0502Us1
Velizh,Uezdnyi gorod,Vitebsk,Velizh,Pale,Lithuania,5989,12193,0,Velizh,55.6,31.2,1,"","","",0502Vl1
Gorodok,Uezdnyi gorod,Vitebsk,Gorodok,Pale,Lithuania,3413,5023,0,Gorodok,55.4667,30,1,"","","",0503Gr1
Dagda,mestechko,Vitebsk,Dvinsk,Pale,Lithuania,1026,1516,0,Dagda,56.1,27.5333,1,"","","",0504Dg1
Dvinsk,Uezdnyi gorod,Vitebsk,Dvinsk,Pale,Lithuania,32400,69675,0,Dvinsk,55.8833,26.5333,1,"","","",0504Dv1
Glazmanka,mestechko,Vitebsk,Dvinsk,Pale,Lithuania,1976,2328,0,Glazmanka,56.6167,25.7833,1,"","","",0504Gl1
Kreitsburg,mestechko,Vitebsk,Dvinsk,Pale,Lithuania,3164,4150,0,Kreitsburg (s Novoi slobodoi),56.5333,25.8833,1,"","","",0504Kr1
Kreslavka,mestechko,Vitebsk,Dvinsk,Pale,Lithuania,4051,7834,0,Kreslavka (Kreslav),55.9,27.1667,1,"","","",0504Kr2
Livengof,mestechko,Vitebsk,Dvinsk,Pale,Lithuania,1406,2658,0,Livengof,56.3667,26.1833,1,"","","",0504Lv1
Preli,mestechko,Vitebsk,Dvinsk,Pale,Lithuania,1375,2104,0,Preli,56.3,26.7167,1,"","","",0504Pr1
Raipol',poselok,Vitebsk,Dvinsk,Pale,Lithuania,220,1528,0,Raipol',55.9,26.5,1,"","",Now Staryi Forshtadt,0504Rp1
Vyshki,mestechko,Vitebsk,Dvinsk,Pale,Lithuania,668,959,0,Vyshki,56.05,26.7833,1,"","",Name of district as it mentioned in census,0504Vy1
Drissa,Uezdnyi gorod,Vitebsk,Drissa,Pale,Lithuania,2856,4238,0,Drissa,55.7833,27.95,1,"","","",0505Dr1
Iukhovichi,mestechko,Vitebsk,Drissa,Pale,Lithuania,336,618,0,Iukhovichi,56.0333,28.65,1,"","","",0505Ik1
Nikolaevo,mestechko,Vitebsk,Drissa,Pale,Lithuania,551,749,0,Nikolaevo (Disno-Nikolaevskaia sloboda),55.78333,27.91667,1,"","","",0505Nk1
Osveia,mestechko,Vitebsk,Drissa,Pale,Lithuania,1660,2830,0,Osveia (Osvei),56.0167,28.1,1,"","","",0505Os1
Pridruisk,mestechko,Vitebsk,Drissa,Pale,Lithuania,561,854,0,Pridruisk,55.8,27.45,1,"","","",0505Pr1
Rositsa,mestechko,Vitebsk,Drissa,Pale,Lithuania,524,755,0,Rositsa,55.9167,27.75,1,"","","",0505Rs1
Volynets,mestechko,Vitebsk,Drissa,Pale,Lithuania,602,985,0,Volynets (Volyntsy),55.7,28.1833,1,"","","",0505Vl1
Bocheikovo,mestechko,Vitebsk,Lepel',Pale,Lithuania,323,722,0,Bocheikovo,55.0167,29.15,1,"","","",0506Bc1
Beshenkovichi,mestechko,Vitebsk,Lepel',Pale,Lithuania,3182,4423,0,Beshenkovichi (Bieshenkovichi),55.0333,29.4667,1,"","","",0506Bs1
Chashniki,mestechko,Vitebsk,Lepel',Pale,Lithuania,3480,4590,0,Chashniki,54.8667,29.15,1,"","","",0506Cs1
Kublichi,mestechko,Vitebsk,Lepel',Pale,Lithuania,935,1291,0,Kublichi,55.1667,28.3333,1,"","","",0506Kb1
Kamen',mestechko,Vitebsk,Lepel',Pale,Lithuania,826,1056,0,Kamen',55.0167,28.8833,1,"","","",0506Km1
Lepel',Uezdnyi gorod,Vitebsk,Lepel',Pale,Lithuania,3379,6284,0,Lepel',54.8833,28.7,1,"","","",0506Lp1
Ulla,mestechko,Vitebsk,Lepel',Pale,Lithuania,1539,2485,0,Ulla,55.2333,29.25,1,"","","",0506Ul1
Ushach,mestechko,Vitebsk,Lepel',Pale,Lithuania,1129,1460,0,Ushach,55.1833,28.6,1,"","","",0506Us1
Korsovka,mestechko,Vitebsk,Liutsin,Pale,Lithuania,609,1313,0,Korsovka,56.7833,27.6667,1,"","",Name of district as it mentioned in census,0507Kr1
Liutsin,Uezdnyi gorod,Vitebsk,Liutsin,Pale,Lithuania,2803,5140,0,Liutsin,56.55,27.7167,1,"","","",0507Lt1
Polishcheno,selo,Vitebsk,Liutsin,Pale,Lithuania,144,599,0,Polishcheno,56.1333,28,1,"","","",0507Pl1
Nevel',Uezdnyi gorod,Vitebsk,Nevel',Pale,Lithuania,5836,9349,0,Nevel',56.0333,29.9167,1,"","","",0508Nv1
Polotsk,Uezdnyi gorod,Vitebsk,Polotsk,Pale,Lithuania,12481,20294,0,Polotsk,55.4833,28.8,1,"","","",0509Pl1
Sirotino,mestechko,Vitebsk,Polotsk,Pale,Lithuania,1766,1998,0,Sirotino,55.3833,29.6167,1,"","","",0509Sr1
Rybinishki,mestechko,Vitebsk,Riezhitsa,Pale,Lithuania,533,584,0,Rybinishki,56.3333,26.8,1,"","","",0510Ry1
Riezhitsa,Uezdnyi gorod,Vitebsk,Riezhitsa,Pale,Lithuania,6478,10795,0,Riezhitsa,56.5,27.3167,1,"","","",0510Rz1
Veleny,mestechko,Vitebsk,Riezhitsa,Pale,Lithuania,321,774,0,Veleny (Veliony),56.55,26.95,1,"","","",0510Vl1
Varkliany,mestechko,Vitebsk,Riezhitsa,Pale,Lithuania,1365,1810,0,Varkliany,56.6167,26.7333,1,"","",Name of district as it mentioned in census,0510Vr1
Sebezh,Uezdnyi gorod,Vitebsk,Sebezh,Pale,Lithuania,2561,4326,0,Sebezh,56.2833,28.4833,1,"","","",0511Sb1
Andrushovka,mestechko,Volhinia,Zhitomir,Pale,South-West,430,2682,0,Andrushovka,50.0167,29.0167,1,"","","",0801An1
Barashi,selo,Volhinia,Zhitomir,Pale,South-West,338,2170,0,Barashi,50.7167,28.0167,1,"","","",0801Br1
Berezovka,derevnia,Volhinia,Zhitomir,Pale,South-West,60,550,0,Berezovka,50.31667,28.43333,1,"","","",0801Br2
Bykovka,derevnia,Volhinia,Zhitomir,Pale,South-West,92,618,0,Bykovka,50.2833,27.9833,1,"","","",0801By1
Chudnov,mestechko,Volhinia,Zhitomir,Pale,South-West,4491,5580,0,Chudnov,50.05,28.1167,1,"","","",0801Cd1
Cherniakhov,mestechko,Volhinia,Zhitomir,Pale,South-West,1774,3878,0,Cherniakhov,50.45,28.6667,1,"","","",0801Cr1
Chervonnoe,mestechko,Volhinia,Zhitomir,Pale,South-West,711,2638,0,Chervonnoe,49.9667,28.8667,1,"","","",0801Cr2
Goroshki,mestechko,Volhinia,Zhitomir,Pale,South-West,2018,3228,0,Goroshki,50.6,28.45,1,"","","",0801Gr1
Ianushpol',mestechko,Volhinia,Zhitomir,Pale,South-West,1251,5085,0,Ianushpol',49.85,28.2167,1,"","","",0801In1
Ivnitsa,mestechko,Volhinia,Zhitomir,Pale,South-West,607,3095,0,Ivnitsa,50.15,29.05,1,"","","",0801Iv1
Kodnia,mestechko,Volhinia,Zhitomir,Pale,South-West,688,2564,0,Kodnia,50.0833,28.7167,1,"","","",0801Kd1
Krasnopol',selo,Volhinia,Zhitomir,Pale,South-West,374,3344,0,Krasnopol',50.91667,28.48333,1,"","","",0801Kr1
Leshchin,mestechko,Volhinia,Zhitomir,Pale,South-West,337,1666,0,Leshchin,50.15,28.83333,1,"","","",0801Ls1
Levkov,mestechko,Volhinia,Zhitomir,Pale,South-West,541,3685,1,Levkov,50.25,28.8333,1,at_most,"",No Jews mentioned at census year; calculated by subtraction from Total value any other groups mentioned in census for this place,0801Lv1
Ol'shanka,derevnia,Volhinia,Zhitomir,Pale,South-West,136,761,0,Ol'shanka,50.01667,28.13333,1,"","","",0801Ol1
Puliny,mestechko,Volhinia,Zhitomir,Pale,South-West,1168,2736,0,Puliny,50.4667,28.2667,1,"","","",0801Pl1
Piatka,mestechko,Volhinia,Zhitomir,Pale,South-West,836,2703,0,Piatka,50.0167,28.3667,1,"","","",0801Pt1
Raigorodok,mestechko,Volhinia,Zhitomir,Pale,South-West,946,2058,0,Raigorodok,49.8333,28.3833,1,"","","",0801Rg1
Sosnovaia-Baliarka,derevnia,Volhinia,Zhitomir,Pale,South-West,96,712,0,Sosnovaia-Baliarka,50.58333,28.23333,1,"","",Now Radetskaia Boliarka : http://forum.vgd.ru/?o=1&t=3316&st=0&p=,0801Ss1
Staraia Kotel'nia,mestechko,Volhinia,Zhitomir,Pale,South-West,1345,3183,0,Staraia Kotel'nia,50.08333,28.95,1,"","","",0801St1
Troianov,mestechko,Volhinia,Zhitomir,Pale,South-West,1469,7224,0,Troianov,50.1167,28.55,1,"","","",0801Tr1
Utomir,mestechko,Volhinia,Zhitomir,Pale,South-West,1754,2381,0,Utomir,50.85,28.4667,1,"","","",0801Ut1
Zhitomir,Gubernskii gorod,Volhinia,Zhitomir,Pale,South-West,30748,65895,0,Zhitomir,50.25,28.6667,1,"","","",0801Zt1
Dubechno,selo,Volhinia,Vladimir-Volynskii,Pale,South-West,50,1364,1,Dubechno,51.55,24.3667,1,at_most,"",Calculated by subtraction from Total value any other groups mentioned in census for this place,0802Db1
Druzhkopol',mestechko,Volhinia,Vladimir-Volynskii,Pale,South-West,870,1340,0,Druzhkopol',50.4333,24.6833,1,"","","",0802Dr1
Gorokhov,mestechko,Volhinia,Vladimir-Volynskii,Pale,South-West,2571,4699,0,Gorokhov,50.5,24.7667,1,"","","",0802Gr1
Kupichev,selo,Volhinia,Vladimir-Volynskii,Pale,South-West,124,1698,1,Kupichev,51,24.7167,1,at_most,"",Calculated by subtraction from Total value any other groups mentioned in census for this place,0802Kp1
Kiselik,mestechko,Volhinia,Vladimir-Volynskii,Pale,South-West,873,889,0,Kiselik,50.8667,24.8167,1,"","",Different city is mentioned on site and link (same population),0802Ks1
Liuboml',mestechko,Volhinia,Vladimir-Volynskii,Pale,South-West,3297,4470,0,Liuboml',51.2333,24.0333,1,"","","",0802Lb1
Lokachi,mestechko,Volhinia,Vladimir-Volynskii,Pale,South-West,1730,2309,0,Lokachi,50.7333,24.65,1,"","","",0802Lk1
Opalin,mestechko,Volhinia,Vladimir-Volynskii,Pale,South-West,769,1612,0,Opalin,51.2833,23.7,1,"","","",0802Op1
Ozdiutichi,mestechko,Volhinia,Vladimir-Volynskii,Pale,South-West,701,701,0,Ozdiutichi,50.85,24.7167,1,"","","",0802Oz1
Ozeriany,selo,Volhinia,Vladimir-Volynskii,Pale,South-West,40,759,1,Ozeriany,51.0167,24.8,1,at_most,"",No Jews mentioned at census year; calculated by subtraction from Total value any other groups mentioned in census for this place,0802Oz2
Poritsk,mestechko,Volhinia,Vladimir-Volynskii,Pale,South-West,1316,2264,0,Poritsk,50.6167,24.4667,1,"","","",0802Pr1
Shatsk,selo,Volhinia,Vladimir-Volynskii,Pale,South-West,122,2410,1,Shatsk,51.5,23.95,1,at_most,"",No Jews mentioned at census year; calculated by subtraction from Total value any other groups mentioned in census for this place,0802St1
Sviniukhi,mestechko,Volhinia,Vladimir-Volynskii,Pale,South-West,629,1780,0,Sviniukhi,50.6333,24.75,1,"","","",0802Sv1
Ustilug,mestechko,Volhinia,Vladimir-Volynskii,Pale,South-West,3212,3590,0,Ustilug,50.8667,24.15,1,"","","",0802Us1
Vladimir-Volynskii,Uezdnyi gorod,Volhinia,Vladimir-Volynskii,Pale,South-West,5869,9883,0,Vladimir-Volynskii,50.85,24.3333,1,"","","",0802Vl1
Berestechko,mestechko,Volhinia,Dubno,Pale,South-West,2251,4953,0,Berestechko,50.35,25.1167,1,"","","",0803Br1
Dubno,Uezdnyi gorod,Volhinia,Dubno,Pale,South-West,7108,14257,0,Dubno,50.4167,25.75,1,"","","",0803Db1
Demidovka,mestechko,Volhinia,Dubno,Pale,South-West,679,679,0,Demidovka,50.4167,25.3333,1,"","","",0803Dm1
Kozin,mestechko,Volhinia,Dubno,Pale,South-West,972,1820,0,Kozin,50.2667,25.4667,1,"","","",0803Kz1
Lobachevka,mestechko,Volhinia,Dubno,Pale,South-West,193,981,0,Lobachevka,50.41667,24.96667,1,"","","",0803Lb1
Mikhailovka,mestechko,Volhinia,Dubno,Pale,South-West,1047,1197,0,Mikhailovka (Boremlia),50.4667,25.2,1,"","","",0803Mk1
Mlynov,mestechko,Volhinia,Dubno,Pale,South-West,672,1105,0,Mlynov,50.5,25.6,1,"","","",0803Ml1
Muravitsa,mestechko,Volhinia,Dubno,Pale,South-West,757,958,0,Muravitsa,50.5167,25.5833,1,"","","",0803Mr1
Mizoch',mestechko,Volhinia,Dubno,Pale,South-West,1175,2667,0,Mizoch',50.4,26.15,1,"","","",0803Mz1
Olyka,mestechko,Volhinia,Dubno,Pale,South-West,2606,4210,0,Olyka,50.7167,25.8167,1,"","","",0803Ol1
Ostrozhets,mestechko,Volhinia,Dubno,Pale,South-West,636,1464,0,Ostrozhets,50.6667,25.55,1,"","","",0803Os1
Ozerany,derevnia,Volhinia,Dubno,Pale,South-West,1013,1111,0,Ozerany,50.4667,26.0333,1,"","","",0803Oz1
Torgovitsa,mestechko,Volhinia,Dubno,Pale,South-West,891,907,0,Torgovitsa,50.55,25.4,1,"","","",0803Tr1
Varkovichi,mestechko,Volhinia,Dubno,Pale,South-West,1109,1925,0,Varkovichi,50.4667,25.9667,1,"","","",0803Vr1
Verba,mestechko,Volhinia,Dubno,Pale,South-West,452,1530,0,Verba,50.2833,25.6167,1,"","","",0803Vr2
Antoniny,selo,Volhinia,Zaslavl',Pale,South-West,25,1803,1,Antoniny,49.8,26.8667,1,at_most,"",No Jews mentioned at census year; calculated by subtraction from Total value any other groups mentioned in census for this place,0804An1
Bielogorodka,mestechko,Volhinia,Zaslavl',Pale,South-West,1846,5438,0,Bielogorodka,50,26.6333,1,"","",Name of district as it mentioned in census,0804Bl1
Gritsev,mestechko,Volhinia,Zaslavl',Pale,South-West,979,1011,0,Gritsev,49.9667,27.2167,1,"","","",0804Gr1
Kornitsa,mestechko,Volhinia,Zaslavl',Pale,South-West,517,1251,0,Kornitsa,50.05,26.5333,1,"","","",0804Kr1
Labun',mestechko,Volhinia,Zaslavl',Pale,South-West,10,2317,1,Labun' (Iuroshchina),50,27.35,1,at_most,"",No Jews mentioned at census year; calculated by subtraction from Total value any other groups mentioned in census for this place; strange difference in populations-coordinates in the middle between 2 countries,0804Lb1
Mikhlia,selo,Volhinia,Zaslavl',Pale,South-West,311,1438,0,Mikhlia,50.15,26.8,1,"","","",0804Mk1
Shchepetovka,mestechko,Volhinia,Zaslavl',Pale,South-West,3880,8033,0,Shchepetovka,50.1833,27.0667,1,"","","",0804Sc1
Sudilkov,mestechko,Volhinia,Zaslavl',Pale,South-West,2712,5551,0,Sudilkov,50.1667,27.1333,1,"","","",0804Sd1
Sluvuta,mestechko,Volhinia,Zaslavl',Pale,South-West,4891,8454,0,Sluvuta,50.3,26.8667,1,"","","",0804Sl1
Velikii Cherniatin,selo,Volhinia,Zaslavl',Pale,South-West,254,1555,0,Velikii Cherniatin,49.78333,27.06667,1,"","","",0804Vl1
Zaslavl',Uezdnyi gorod,Volhinia,Zaslavl',Pale,South-West,5998,12611,0,Zaslavl',50.1167,26.8,1,"","","",0804Zs1
Cheremoshno,selo,Volhinia,Kovel',Pale,South-West,113,1144,1,Cheremoshno,51.3167,25.0167,1,at_most,"",No Jews mentioned at census year; calculated by subtraction from Total value any other groups mentioned in census for this place,0805Cr1
Dol'sk,selo,Volhinia,Kovel',Pale,South-West,17,637,1,Dol'sk,51.1167,24.3833,1,at_most,"",No Jews mentioned at census year; calculated by subtraction from Total value any other groups mentioned in census for this place,0805Dl1
Datyn',selo,Volhinia,Kovel',Pale,South-West,40,1520,1,Datyn',51.5167,24.7667,1,at_most,"",No Jews mentioned at census year; calculated by subtraction from Total value any other groups mentioned in census for this place,0805Dt1
Goloby,selo,Volhinia,Kovel',Pale,South-West,108,1416,1,Goloby,51.0833,25.0167,1,at_most,"",No Jews mentioned at census year; calculated by subtraction from Total value any other groups mentioned in census for this place,0805Gl1
Kamen'-Kashirsk,mestechko,Volhinia,Kovel',Pale,South-West,1189,1220,0,Kamen'-Kashirsk,51.6333,24.9667,1,"","","",0805Km1
Kortelisy,selo,Volhinia,Kovel',Pale,South-West,141,1110,0,Kortelisy,51.8667,24.4333,1,"","","",0805Kr1
Kashovka,mestechko,Volhinia,Kovel',Pale,South-West,445,1059,0,Kashovka,51.1667,25.35,1,"","","",0805Ks1
Kovel',Uezdnyi gorod,Volhinia,Kovel',Pale,South-West,8521,17697,0,Kovel',51.2167,24.7167,1,"","","",0805Kv1
Malaia Glusha,selo,Volhinia,Kovel',Pale,South-West,55,1046,1,Malaia Glusha,51.8,24.9833,1,at_most,"",No Jews mentioned at census year; calculated by subtraction from Total value any other groups mentioned in census for this place,0805Ml1
Mel'nitsa,mestechko,Volhinia,Kovel',Pale,South-West,1599,2588,0,Mel'nitsa,51.15,25.1,1,"","","",0805Ml2
Milianovichi,mestechko,Volhinia,Kovel',Pale,South-West,100,755,0,Milianovichi,51.1833,24.45,1,"","","",0805Ml3
Matsiov,mestechko,Volhinia,Kovel',Pale,South-West,2337,3897,0,Matsiov,51.2167,24.3333,1,"","","",0805Mt1
Nesukhoizhi,mestechko,Volhinia,Kovel',Pale,South-West,814,1862,0,Nesukhoizhi,51.3833,24.8167,1,"","","",0805Ns1
Povursk,selo,Volhinia,Kovel',Pale,South-West,35,1328,1,Povursk,51.2667,25.1333,1,at_most,"",Calculated by subtraction from Total value any other groups mentioned in census for this place,0805Pv1
Ratno,mestechko,Volhinia,Kovel',Pale,South-West,2219,3089,0,Ratno,51.6667,24.5167,1,"","","",0805Rt1
Stobykova,mestechko,Volhinia,Kovel',Pale,South-West,492,1214,0,Stobykova,51.4,25.1833,1,"","","",0805St1
Turiisk,Zashtatnyi gorod,Volhinia,Kovel',Pale,South-West,1713,2938,0,Turiisk,51.1,24.5333,1,"","","",0805Tr1
Velikaia Glusha,selo,Volhinia,Kovel',Pale,South-West,182,1734,0,Velikaia Glusha,51.8167,25.05,1,"","","",0805Vl1
Bielozorki,mestechko,Volhinia,Kremenets,Pale,South-West,1070,2905,0,Bielozorki,49.7667,26.1833,1,"","","",0806Bl1
Bol'shie Fol'varki,selo,Volhinia,Kremenets,Pale,South-West,,,1,Bol'shie Fol'varki,50.36666,28.13333,0,"","",It's not mentioned in census; http://fgurgia.ru/showObject.do?object=27413913,0806Bl2
Berezhetsy,mestechko,Volhinia,Kremenets,Pale,South-West,428,1252,0,Berezhetsy,50.1,25.6167,1,"","","",0806Br1
Iampol',mestechko,Volhinia,Kremenets,Pale,South-West,1482,2564,0,Iampol',49.9667,26.25,1,"","","",0806Im1
Kremenets,Uezdnyi gorod,Volhinia,Kremenets,Pale,South-West,6539,17704,0,Kremenets,50.1,25.7167,1,"","","",0806Kr1
Katerburg,mestechko,Volhinia,Kremenets,Pale,South-West,693,1035,0,Katerburg,50,25.8833,1,"","","",0806Kt1
Lapovtsy,mestechko,Volhinia,Kremenets,Pale,South-West,1174,2525,0,Lapovtsy,49.8667,26.0833,1,"","",Different city is mentioned on site and link (same population),0806Lp1
Novyi Aleksinets,mestechko,Volhinia,Kremenets,Pale,South-West,342,1206,0,Novyi Aleksinets,49.8333,25.5,1,"","","",0806Nv1
Novyi Pochaev,mestechko,Volhinia,Kremenets,Pale,South-West,1377,1921,0,Novyi Pochaev,50.0167,25.4833,1,"","",Different city is mentioned on site and link (same population),0806Nv2
Novyi Vishnevets,mestechko,Volhinia,Kremenets,Pale,South-West,2980,4196,0,Novyi Vishnevets,49.9,25.75,1,"","","",0806Nv3
Radzivilov,mestechko,Volhinia,Kremenets,Pale,South-West,4322,7313,0,Radzivilov,50.1333,25.25,1,"","","",0806Rd1
Rokhmanovo,selo,Volhinia,Kremenets,Pale,South-West,93,576,0,Rokhmanovo,50.1333,26.1,1,"","","",0806Rk1
Shumsk,mestechko,Volhinia,Kremenets,Pale,South-West,1962,2258,0,Shumsk,50.1167,26.1167,1,"","","",0806Sm1
Staryi Vishnevets,mestechko,Volhinia,Kremenets,Pale,South-West,314,1651,0,Staryi Vishnevets,49.86666,25.75,1,"","","",0806St1
Vyshgorodok,mestechko,Volhinia,Kremenets,Pale,South-West,1078,2169,0,Vyshgorodok,49.7667,25.9667,1,"","","",0806Vy1
Bol'shaia Volnianka,koloniia,Volhinia,Lutsk,Pale,South-West,286,1305,0,"Bol'shaia Volnianka (Rozhishche-Vel'nianka, Vel'nianka, Vul'nianka, Vovnianka)",50.9167,25.2667,1,"","",Now part of Rozhishche: http://www.rujen.ru/index.php/%D0%92%D0%BE%D0%B2%D0%BD%D1%8F%D0%BD%D0%BA%D0%B0,0807Bl1
Bol'shoi Zheludsk,selo,Volhinia,Lutsk,Pale,South-West,51,595,1,Bol'shoi Zheludsk,51.3167,26.1167,1,at_most,"",Calculated by subtraction from Total value any other groups mentioned in census for this place,0807Bl2
Berezhnitsa,mestechko,Volhinia,Lutsk,Pale,South-West,2160,2964,0,Berezhnitsa,51.4333,26.4667,1,"","","",0807Br1
Chartoriisk,mestechko,Volhinia,Lutsk,Pale,South-West,822,2776,0,Chartoriisk,51.2167,25.8833,1,"","","",0807Cr1
Dradysk,selo,Volhinia,Lutsk,Pale,South-West,18,579,1,Dradysk,51.3833,25.3333,1,at_most,"",No Jews mentioned; calculated by subtraction from Total value any other groups mentioned in census for this place,0807Dr1
Gulevichev,mestechko,Volhinia,Lutsk,Pale,South-West,245,673,0,Gulevichev,51.25,25.2167,1,"","","",0807Gl1
Gorodets,selo,Volhinia,Lutsk,Pale,South-West,113,1876,1,Gorodets,51.2833,26.3167,1,at_most,"",Calculated by subtraction from Total value any other groups mentioned in census for this place,0807Gr1
Gorodok,mestechko,Volhinia,Lutsk,Pale,South-West,188,1118,0,Gorodok,50.68333,25.11667,1,"","","",0807Gr2
Ignatovka,koloniia,Volhinia,Lutsk,Pale,South-West,567,567,0,Ignatovka,50.9,25.8,1,"","","",0807Ig1
Kolki,mestechko,Volhinia,Lutsk,Pale,South-West,2537,4394,0,Kolki,51.1,25.6667,1,"","","",0807Kl1
Kopachevka,poselok,Volhinia,Lutsk,Pale,South-West,226,648,0,Kopachevka,50.8833,25.2167,1,"","","",0807Kp1
Kivertsy,selo,Volhinia,Lutsk,Pale,South-West,59,564,1,Kivertsy,50.8333,25.4667,1,at_most,"",No Jews mentioned at census year; calculated by subtraction from Total value any other groups mentioned in census for this place,0807Kv1
Lishnevka,mestechko,Volhinia,Lutsk,Pale,South-West,292,1354,0,Lishnevka,51.4833,25.4,1,"","","",0807Ls1
Lutsk,Uezdnyi gorod,Volhinia,Lutsk,Pale,South-West,9468,15804,0,Lutsk,50.75,25.3333,1,"","","",0807Lt1
Manevichi,selo,Volhinia,Lutsk,Pale,South-West,5,990,1,Manevichi,51.3667,25.5333,1,at_most,"",No Jews mentioned at census year; calculated by subtraction from Total value any other groups mentioned in census for this place,0807Mn1
Olizarka,koloniia,Volhinia,Lutsk,Pale,South-West,254,,0,Olizarka,51.35,25.9833,0,"",unknown,It's not mentioned in census but mentioned in Jewish Encyclopedy of Brokhaus&Efron,0807Ol1
Rafalovka,mestechko,Volhinia,Lutsk,Pale,South-West,1054,2038,0,Rafalovka,51.3167,25.9833,1,"","","",0807Rf1
Rozhishche,mestechko,Volhinia,Lutsk,Pale,South-West,3169,3830,0,Rozhishche,50.9167,25.2667,1,"","","",0807Rz1
Sofievka,koloniia,Volhinia,Lutsk,Pale,South-West,1580,1591,0,Sofievka,50.9167,25.7,1,"","","",0807Sf1
Sokul',mestechko,Volhinia,Lutsk,Pale,South-West,490,1333,0,Sokul',51.05,25.3333,1,"","","",0807Sk1
Torchin,mestechko,Volhinia,Lutsk,Pale,South-West,2629,4507,0,Torchin,50.7667,25,1,"","","",0807Tr1
Troianovka,mestechko,Volhinia,Lutsk,Pale,South-West,314,1676,0,Troianovka,51.3333,25.2833,1,"","","",0807Tr2
Vladimirets,mestechko,Volhinia,Lutsk,Pale,South-West,1024,2074,0,Vladimirets,51.4167,26.1333,1,"","","",0807Vl1
Zhalobov,derevnia,Volhinia,Lutsk,Pale,South-West,261,1063,0,Zhalobov,50.9167,25.2667,1,"","",Now part of Rozhishche:http://www.rujen.ru/index.php/%D0%96%D0%90%D0%9B%D0%9E%D0%91%D0%9E%D0%92,0807Zl1
Baranovka,mestechko,Volhinia,Novograd-Volynskii,Pale,South-West,1990,2095,0,Baranovka,50.3,27.6667,1,"","","",0808Br1
Berezdov,mestechko,Volhinia,Novograd-Volynskii,Pale,South-West,1319,2687,0,Berezdov,50.4667,27.1167,1,"","","",0808Br2
Chizhovka,derevnia,Volhinia,Novograd-Volynskii,Pale,South-West,91,635,0,Chizhovka,50.65,27.61667,1,"","","",0808Cz1
Dolgosel'e,derevnia,Volhinia,Novograd-Volynskii,Pale,South-West,120,820,0,Dolgosel'e (Kamenka),51.15,27.5,1,"","","",0808Dl1
Dovbysh,derevnia,Volhinia,Novograd-Volynskii,Pale,South-West,92,872,0,Dovbysh,50.3667,27.9833,1,"","","",0808Dv1
Emil'chik,selo,Volhinia,Novograd-Volynskii,Pale,South-West,1049,2477,0,Emil'chik,50.8667,27.8,1,"","","",0808Em1
Gorodnitsa,mestechko,Volhinia,Novograd-Volynskii,Pale,South-West,1310,2314,0,Gorodnitsa,50.8,27.3167,1,"","","",0808Gr1
Kamennyi Brod,derevnia,Volhinia,Novograd-Volynskii,Pale,South-West,1147,1773,0,Kamennyi Brod,50.4167,27.8333,1,"","","",0808Km1
Korets,mestechko,Volhinia,Novograd-Volynskii,Pale,South-West,4608,6060,0,Korets,50.6167,27.1667,1,"","","",0808Kr1
Krasnostav,mestechko,Volhinia,Novograd-Volynskii,Pale,South-West,1222,2194,0,Krasnostav,50.4,27.1833,1,"","","",0808Kr2
Liubar,mestechko,Volhinia,Novograd-Volynskii,Pale,South-West,5435,12507,0,Liubar,49.9167,27.75,1,"","","",0808Lb1
Mar'ianovka Guta,derevnia,Volhinia,Novograd-Volynskii,Pale,South-West,106,710,0,Mar'ianovka Guta (Guta Mar'ianovka),50.68333,27.83333,1,"","",http://rujen.ru/index.php/%D0%93%D0%A3%D0%A2%D0%90_%D0%9C%D0%90%D0%A0%D0%AC%D0%AF%D0%9D%D0%9E%D0%92%D0%9A%D0%90,0808Mr1
Miropol',mestechko,Volhinia,Novograd-Volynskii,Pale,South-West,1912,4914,0,Miropol',50.1167,27.7,1,"","","",0808Mr2
Novaia Chartoriia,mestechko,Volhinia,Novograd-Volynskii,Pale,South-West,502,1872,0,Novaia Chartoriia,50.0333,27.7,1,"","","",0808Nv1
Novograd-Volynsk,Uezdnyi gorod,Volhinia,Novograd-Volynskii,Pale,South-West,9378,16904,0,Novograd-Volynsk,50.6,27.6167,1,"","","",0808Nv2
Novyi Korets,mestechko,Volhinia,Novograd-Volynskii,Pale,South-West,951,2502,0,Novyi Korets,50.61666,27.15,1,"","","",0808Nv3
Ostropol',mestechko,Volhinia,Novograd-Volynskii,Pale,South-West,2714,7505,0,Ostropol',49.8,27.5667,1,"","","",0808Os1
Pogorieloe,derevnia,Volhinia,Novograd-Volynskii,Pale,South-West,67,578,0,Pogorieloe,51.6,28.88333,1,"","","",0808Pg1
Polonnoe,mestechko,Volhinia,Novograd-Volynskii,Pale,South-West,7910,16288,0,Polonnoe,50.1167,27.5167,1,"","","",0808Pl1
Paninka,derevnia,Volhinia,Novograd-Volynskii,Pale,South-West,206,1025,0,Paninka,50.1833,27.5333,1,"","","",0808Pn1
Rogachev,mestechko,Volhinia,Novograd-Volynskii,Pale,South-West,1303,1381,0,Rogachev,50.4167,27.7167,1,"","","",0808Rg1
Romanov,mestechko,Volhinia,Novograd-Volynskii,Pale,South-West,2599,5645,0,Romanov,50.15,27.9333,1,"","","",0808Rm1
Sokolov,selo,Volhinia,Novograd-Volynskii,Pale,South-West,239,770,0,Sokolov,50.5,28.1,1,"","","",0808Sk1
Seredniaia,derevnia,Volhinia,Novograd-Volynskii,Pale,South-West,104,674,0,Seredniaia,50.33333,27.55,1,"","","",0808Sr1
Varvarovka,derevnia,Volhinia,Novograd-Volynskii,Pale,South-West,62,621,0,Varvarovka,50.71667,27.75,1,"","","There are 2 countries with this name, was chosen by population and Emilchin history: http://www.jewishperson.org/emilchino/emilchino/",0808Vr1
Bogdanovka,derevnia,Volhinia,Ovruch,Pale,South-West,59,583,0,Bogdanovka,51.28333,28.96667,1,"","","",0809Bg1
Bol'shie Kleshchi,selo,Volhinia,Ovruch,Pale,South-West,103,959,0,Bol'shie Kleshchi,51.06667,29.16667,1,"","","",0809Bl1
Bazar,mestechko,Volhinia,Ovruch,Pale,South-West,833,1976,0,Bazar,51.05,29.3,1,"","","",0809Bz1
Didkovichi,selo,Volhinia,Ovruch,Pale,South-West,276,2511,0,Didkovichi,51.1,28.8333,1,"","","",0809Dd1
Ignatpol',selo,Volhinia,Ovruch,Pale,South-West,51,504,0,Ignatpol',51.13334,28.71667,1,"","","",0809Ig1
Iurovo,selo,Volhinia,Ovruch,Pale,South-West,104,912,0,Iurovo,51.35,27.81667,1,"","","",0809Ir1
Iskorost',mestechko,Volhinia,Ovruch,Pale,South-West,1266,2626,0,Iskorost',50.95,28.65,1,"","","",0809Is1
Khochin,selo,Volhinia,Ovruch,Pale,South-West,730,745,0,Khochin,51.45,27.86667,1,"","","",0809Kc1
Khodaki,selo,Volhinia,Ovruch,Pale,South-West,270,1280,0,Khodaki,50.9833,28.8,1,"","","",0809Kd1
Ksaverov,mestechko,Volhinia,Ovruch,Pale,South-West,455,1241,0,Ksaverov,50.9667,29.15,1,"","","",0809Ks1
Luchiny,mestechko,Volhinia,Ovruch,Pale,South-West,1599,2535,0,Luchiny,51.0833,28.4,1,"","",Different city is mentioned on site and link (same population),0809Lc1
Moshki,selo,Volhinia,Ovruch,Pale,South-West,132,1116,0,Moshki,51.25,28.85,1,"","","",0809Ms1
Narodichi,mestechko,Volhinia,Ovruch,Pale,South-West,2054,4576,0,Narodichi,51.2,29.0833,1,"","","",0809Nr1
Norinsk,mestechko,Volhinia,Ovruch,Pale,South-West,584,1683,0,Norinsk,51.2667,28.6,1,"","","",0809Nr2
Olevsk,mestechko,Volhinia,Ovruch,Pale,South-West,1187,2070,0,Olevsk,51.2167,27.65,1,"","","",0809Ol1
Ovruch,Uezdnyi gorod,Volhinia,Ovruch,Pale,South-West,3445,7393,0,Ovruch,51.3167,28.8,1,"","","",0809Ov1
Perga,derevnia,Volhinia,Ovruch,Pale,South-West,65,485,0,Perga,51.38334,27.88333,1,"","","",0809Pr1
Pashiny,selo,Volhinia,Ovruch,Pale,South-West,143,990,0,Pashiny,50.96667,28.66667,1,"","",Now part of Korosten',0809Ps1
Rokitno,selo,Volhinia,Ovruch,Pale,South-West,163,1453,0,Rokitno,51.2833,27.2167,1,"","","",0809Rk1
Sobichin,selo,Volhinia,Ovruch,Pale,South-West,83,703,0,Sobichin,51.33333,27.56667,1,"","",Now Komsomol'skoe : http://rujen.ru/index.php/%D0%A0%D0%A3%D0%94%D0%9D%D0%AF_%D0%A1%D0%9E%D0%91%D0%98%D0%A7%D0%98%D0%9D%D0%A1%D0%9A%D0%90%D0%AF,0809Sb1
Slovechno,mestechko,Volhinia,Ovruch,Pale,South-West,885,1570,0,Slovechno,51.3833,28.35,1,"","","",0809Sl1
Tatarnovichi,selo,Volhinia,Ovruch,Pale,South-West,42,1126,1,Tatarnovichi (Berestovets from 1946),50.8667,26.3,1,at_most,"",No Jews mentioned; calculated by subtraction from Total value any other groups mentioned in census for this place; for original name: http://ru.wikipedia.org/wiki/%D0%91%D0%B5%D1%80%D0%B5%D1%81%D1%82%D0%BE%D0%B2%D0%B5%D1%86_(%D0%96%D0%B8%D1%82%,0809Tt1
Veledniki,mestechko,Volhinia,Ovruch,Pale,South-West,569,1143,0,Veledniki,51.3167,28.4667,1,"","","",0809Vl1
Vas'kovichi,selo,Volhinia,Ovruch,Pale,South-West,198,1877,0,Vas'kovichi,51.08333,28.7,1,"","","",0809Vs1
Vystupovichi,selo,Volhinia,Ovruch,Pale,South-West,109,1032,0,Vystupovichi,51.5667,29.0833,1,"","","",0809Vy1
Viazovka,mestechko,Volhinia,Ovruch,Pale,South-West,239,1178,0,Viazovka,51.15,28.8667,1,"","","",0809Vz1
Zamyslovichi,selo,Volhinia,Ovruch,Pale,South-West,59,598,0,Zamyslovichi,51.25,27.93333,1,"","","",0809Zm1
Annopol',mestechko,Volhinia,Ostrog,Pale,South-West,1812,2197,0,Annopol',50.45,26.9,1,"","","",0810An1
Bielotin,derevnia,Volhinia,Ostrog,Pale,South-West,56,527,0,Bielotin,50.23333,26.65,1,"","","",0810Bl1
Goshcha,mestechko,Volhinia,Ostrog,Pale,South-West,884,2091,0,Goshcha,50.6,26.6667,1,"","","",0810Gs1
Kilikiev,mestechko,Volhinia,Ostrog,Pale,South-West,576,1928,0,Kilikiev,50.5333,27.05,1,"","","",0810Kl1
Kunev,mestechko,Volhinia,Ostrog,Pale,South-West,1661,2935,0,Kunev,50.25,26.3667,1,"","","",0810Kn1
Kisorichi,selo,Volhinia,Ostrog,Pale,South-West,70,684,0,Kisorichi,51.18333,27.25,1,"","","",0810Ks1
Liakhovtsy,mestechko,Volhinia,Ostrog,Pale,South-West,1384,5401,0,Liakhovtsy,50,26.4167,1,"","","",0810Lk1
Ostrog,Uezdnyi gorod,Volhinia,Ostrog,Pale,South-West,9208,14749,0,Ostrog,50.3333,26.5167,1,"","","",0810Os1
Zdolbunovo,derevnia,Volhinia,Ostrog,Pale,South-West,518,4692,1,Zdolbunovo,50.5167,26.25,1,at_most,"",No Jews mentioned at census year; calculated by subtraction from Total value any other groups mentioned in census for this place,0810Zd1
Aleksandriia,mestechko,Volhinia,Rovno,Pale,South-West,2154,3189,0,Aleksandriia,50.7333,26.35,1,"","",Name of district as it mentioned in census,0811Al1
Antonovka,sloboda,Volhinia,Rovno,Pale,South-West,620,647,0,Antonovka,50.8,26.5,1,"","","",0811An1
Berezno,mestechko,Volhinia,Rovno,Pale,South-West,2765,4059,0,Berezno,51,26.75,1,"","","",0811Br1
Dombrovitsy,mestechko,Volhinia,Rovno,Pale,South-West,2868,6007,0,Dombrovitsy,51.5667,26.5667,1,"","",Different Uezd of that mentioned on site,0811Dm1
Derazhno,mestechko,Volhinia,Rovno,Pale,South-West,770,1497,0,Derazhno,50.8667,26.05,1,"","","",0811Dr1
Glinki,selo,Volhinia,Rovno,Pale,South-West,346,912,0,Glinki,50.5833,26.4167,1,"","","",0811Gl1
Goringrod,mestechko,Volhinia,Rovno,Pale,South-West,540,1936,0,Goringrod,50.65,26.5167,1,"","","",0811Gr1
Klesov,selo,Volhinia,Rovno,Pale,South-West,59,760,1,Klesov,51.3333,26.9333,1,at_most,"",No Jews mentioned at census year; calculated by subtraction from Total value any other groups mentioned in census for this place,0811Kl1
Klevan',mestechko,Volhinia,Rovno,Pale,South-West,2432,3739,0,Klevan',50.75,25.9833,1,"","","",0811Kl2
Krichil'sk,selo,Volhinia,Rovno,Pale,South-West,120,1486,1,Krichil'sk,51.2333,26.3667,1,at_most,"",No Jews mentioned at census year; calculated by subtraction from Total value any other groups mentioned in census for this place,0811Kr1
Kostopol',mestechko,Volhinia,Rovno,Pale,South-West,1101,1706,0,Kostopol',50.8833,26.45,1,"","","",0811Ks1
Liudvipol',mestechko,Volhinia,Rovno,Pale,South-West,1210,1428,0,Liudvipol',50.8333,27,1,"","","",0811Ld1
Machulki,koloniia,Volhinia,Rovno,Pale,South-West,433,708,0,Machulki,50.8167,25.95,1,"","","",0811Mc1
Malyia Selishchi,sloboda,Volhinia,Rovno,Pale,South-West,598,628,0,Malyia Selishchi,51.18333,26.9,1,"","","",0811Ml1
Mezherich,mestechko,Volhinia,Rovno,Pale,South-West,456,1518,0,Mezherich,50.3,26.4833,1,"","","",0811Mz1
Mezhirich,mestechko,Volhinia,Rovno,Pale,South-West,2107,3131,0,Mezhirich,50.65,26.8667,1,"","","",0811Mz2
Osova,sloboda,Volhinia,Rovno,Pale,South-West,107,724,0,Osova,51.0833,25.9667,1,"","","",0811Os1
Rovno,Uezdnyi gorod,Volhinia,Rovno,Pale,South-West,13780,24573,0,Rovno,50.6167,26.25,1,"","","",0811Rv1
Sarny,selo,Volhinia,Rovno,Pale,South-West,172,2146,1,Sarny,51.3333,26.6,1,at_most,"",Calculated by subtraction from Total value any other groups mentioned in census for this place,0811Sr1
Stepan',mestechko,Volhinia,Rovno,Pale,South-West,1854,5137,0,Stepan',51.1333,26.3,1,"","","",0811St1
Tuchin,mestechko,Volhinia,Rovno,Pale,South-West,2535,3753,0,Tuchin,50.7,26.5667,1,"","","",0811Tc1
Tomashgrod,mestechko,Volhinia,Rovno,Pale,South-West,150,727,0,Tomashgrod,51.3667,27.0833,1,"","","",0811Tm1
V'iunki,derevnia,Volhinia,Rovno,Pale,South-West,151,1084,0,V'iunki,48.26667,31.85,1,"","","",0811Vn1
Vysotsk,mestechko,Volhinia,Rovno,Pale,South-West,880,912,0,Vysotsk,51.7333,26.65,1,"","","",0811Vy1
Bazaliia,mestechko,Volhinia,Starokonstantinov,Pale,South-West,820,3362,0,Bazaliia,49.7167,26.4667,1,"","","",0812Bz1
Kul'chiny,mestechko,Volhinia,Starokonstantinov,Pale,South-West,2031,4335,0,Kul'chiny,49.75,26.9,1,"","","",0812Kl1
Kupel',mestechko,Volhinia,Starokonstantinov,Pale,South-West,2727,4333,0,Kupel',49.6,26.5167,1,"","","",0812Kp1
Krasilov,mestechko,Volhinia,Starokonstantinov,Pale,South-West,2563,6994,0,Krasilov,49.65,26.9667,1,"","","",0812Kr1
Kuz'min,mestechko,Volhinia,Starokonstantinov,Pale,South-West,830,3368,0,Kuz'min,49.7,27.0833,1,"","","",0812Kz1
Ozhigovtsy,mestechko,Volhinia,Starokonstantinov,Pale,South-West,154,1406,0,Ozhigovtsy,49.6333,26.2333,1,"","","",0812Oz1
Starokonstantinov,Uezdnyi gorod,Volhinia,Starokonstantinov,Pale,South-West,9212,16377,0,Starokonstantinov,49.75,27.2167,1,"","","",0812St1
Teofipol',mestechko,Volhinia,Starokonstantinov,Pale,South-West,2914,4484,0,Teofipol',49.8333,26.4167,1,"","","",0812Tf1
Volochisk,mestechko,Volhinia,Starokonstantinov,Pale,South-West,3295,6716,0,Volochisk,49.5333,26.1667,1,"","","",0812Vl1
Voronezh,Gubernskii gorod,Voronezh,Voronezh,Beyond,Inner Russia,1708,80599,0,Voronezh,51.6667,39.1667,1,"","",.,0901Vr1
Porech'e,"","","",Pale,Lithuania,,,1,Porech'e,53.8833,24.1333,0,"","",Not mentioned in census,11.Pr1
Druskeniki,mestechko,Grodno,Grodna,Pale,Lithuania,636,1280,0,Druskeniki,54.0167,23.9667,1,"","","",1101Dr1
Golynka,selo,Grodno,Grodna,Pale,Lithuania,59,521,0,Golynka,53.76667,23.56667,1,"","","",1101Gl1
Grandichi,derevnia,Grodno,Grodna,Pale,Lithuania,56,516,0,Grandichi,53.71667,23.81667,1,"","","",1101Gr1
Grodna,Uezdnyi gorod,Grodno,Grodna,Pale,Lithuania,22684,46919,0,Grodna,53.6833,23.8333,1,"","","",1101Gr2
Indura,mestechko,Grodno,Grodna,Pale,Lithuania,2194,2674,0,Indura,53.45,23.8833,1,"","","",1101In1
Kamenka,mestechko,Grodno,Grodna,Pale,Lithuania,347,581,0,Kamenka,53.55,24.5167,1,"","","",1101Km1
Krinki,mestechko,Grodno,Grodna,Pale,Lithuania,3542,4957,0,Krinki,53.2667,23.7833,1,"","","",1101Kr1
Lunka,mestechko,Grodno,Grodna,Pale,Lithuania,1364,1835,0,Lunka (Lunna)?,53.45,24.2667,1,"","","",1101Ln1
Mosty,mestechko,Grodno,Grodna,Pale,Lithuania,868,2633,0,Mosty,53.4,24.5333,1,"","","",1101Ms1
Ozery,mestechko,Grodno,Grodna,Pale,Lithuania,1392,3283,0,Ozery,53.7167,24.1833,1,"","","",1101Oz1
Skidel',mestechko,Grodno,Grodna,Pale,Lithuania,2222,2790,0,Skidel',53.5833,24.25,1,"","","",1101Sk1
Velikaia Berestovitsa,mestechko,Grodno,Grodna,Pale,Lithuania,963,1579,0,Velikaia Berestovitsa,53.2,24.0167,1,"","","",1101Vl1
Volia,mestechko,Grodno,Grodna,Pale,Lithuania,467,540,0,Volia,52.85,24.85,1,"","",47 versts to south-east of Grodna near Neman river http://dic.academic.ru/dic.nsf/brokgauz_efron/125512/%D0%92%D0%BE%D0%BB%D1%8F,1101Vl2
Volpa,mestechko,Grodno,Grodna,Pale,Lithuania,1151,1976,0,Volpa,53.3667,24.3667,1,"","","",1101Vl3
Brest-Kuiavsk,Bezuezdnyi gorod,Warsaw,Vlotslavsk,Pale,Poland,678,2744,0,Brest-Kuiavsk,52.6,18.9,1,"","","",5103Br1
Chernavchitsy,mestechko,Grodno,Brest-Litovsk,Pale,Lithuania,481,1209,0,Chernavchitsy,52.2167,23.7333,1,"","","",1102Cr1
Cherniany,selo,Grodno,Brest-Litovsk,Pale,Lithuania,85,678,0,Cherniany,51.9833,24.2,1,"","","",1102Cr2
Domachev,mestechko,Grodno,Brest-Litovsk,Pale,Lithuania,1057,1180,0,Domachev,51.75,23.6,1,"","","",1102Dm1
Kamenets-Litovsk,mestechko,Grodno,Brest-Litovsk,Pale,Lithuania,2722,3569,0,Kamenets-Litovsk,52.4,23.8167,1,"","","",1102Km1
Maloryto,mestechko,Grodno,Brest-Litovsk,Pale,Lithuania,227,1480,0,Maloryto,51.7833,24.0833,1,"","","",1102Ml1
Mileichitsy,mestechko,Grodno,Brest-Litovsk,Pale,Lithuania,814,1685,0,Mileichitsy,52.5167,23.1333,1,"","","",1102Ml2
Vlodavka,mestechko,Grodno,Brest-Litovsk,Pale,Lithuania,51,1436,1,Vlodavka,51.5333,23.5667,1,at_most,"","Calculated by subtraction from Total value any other groups mentioned in census for this place, points to city in neighbour guberniia",1102Vl1
Volchin,mestechko,Grodno,Brest-Litovsk,Pale,Lithuania,588,617,0,Volchin,52.2833,23.3167,1,"","","",1102Vl2
Vysoko-Litovsk,mestechko,Grodno,Brest-Litovsk,Pale,Lithuania,2876,3434,0,Vysoko-Litovsk,52.3667,23.3667,1,"","","",1102Vy1
Zamost'e predmest'e Kamenets-L,mestechko,Grodno,Brest-Litovsk,Pale,Lithuania,796,1288,0,Zamost'e predmest'e Kamenets-Litovska,52.4,23.8,1,"","","",1102Zm1
Bielostok,Uezdnyi gorod,Grodno,Bielostok,Pale,Lithuania,41905,66032,0,Bielostok,53.1333,23.15,1,"","","",1103Bl1
Goniondz,Zashtatnyi gorod,Grodno,Bielostok,Pale,Lithuania,2056,3436,0,Goniondz,53.4833,22.75,1,"","","",1103Gn1
Gorodok,mestechko,Grodno,Bielostok,Pale,Lithuania,2513,3209,0,Gorodok,53.1,23.6667,1,"","","",1103Gr1
Iasenovka,mestechko,Grodno,Bielostok,Pale,Lithuania,1154,1565,0,Iasenovka,53.3833,23.0333,1,"","","",1103Is1
Knyshin,Zashtatnyi gorod,Grodno,Bielostok,Pale,Lithuania,1878,3864,0,Knyshin,53.3167,22.9167,1,"","","",1103Kn1
Khorosh,mestechko,Grodno,Bielostok,Pale,Lithuania,827,2464,0,Khorosh,53.15,22.9833,1,"","","",1103Kr1
Nezbudka,koloniia,Grodno,Bielostok,Pale,Lithuania,1033,3147,0,Nezbudka (Mikhailovo),53.0333,23.6,1,"","","",1103Nz1
Suprasl',mestechko I koloniia,Grodno,Bielostok,Pale,Lithuania,466,2459,0,Suprasl',53.2167,23.35,1,"","","",1103Sp1
Surazh,Zashtatnyi gorod,Grodno,Bielostok,Pale,Lithuania,368,1599,0,Surazh,52.95,22.95,1,"","","",1103Sr1
Trostiany,mestechko,Grodno,Bielostok,Pale,Lithuania,2276,2313,0,Trostiany,53.3333,22.6833,1,"","","",1103Tr1
Zabludovo,mestechko,Grodno,Bielostok,Pale,Lithuania,2621,3772,0,Zabludovo,53.0167,23.35,1,"","","",1103Zb1
Biel'sk,Uezdnyi gorod,Grodno,Bielsk,Pale,Lithuania,4079,7464,0,Biel'sk,52.7667,23.2,1,"","","",1104Bl1
Briansk,Zashtatnyi gorod,Grodno,Bielsk,Pale,Lithuania,2374,4087,0,Briansk,52.7333,22.85,1,"","",Correct name of district as it mentioned in census,1104Br1
Bots'ki,mestechko,Grodno,Bielsk,Pale,Lithuania,1409,2636,0,Bots'ki,52.65,23.05,1,"","","",1104Bt1
Drogichin,Zashtatnyi gorod,Grodno,Bielsk,Pale,Lithuania,784,1707,0,Drogichin,52.4,22.65,1,"","","",1104Dr1
Kleshcheli,Zashtatnyi gorod,Grodno,Bielsk,Pale,Lithuania,710,2013,0,Kleshcheli,52.5833,23.3167,1,"","","",1104Kl1
Loiki predmest'e mestechka Sem,derevnia,Grodno,Bielsk,Pale,Lithuania,175,519,0,Loiki predmest'e mestechka Semiatich,52.45,22.8833,1,"","",Now part of Semiatichi : http://www.rujen.ru/index.php/%D0%9B%D0%9E%D0%99%D0%9A%D0%98,1104Lk1
Mel'nik,Zashtatnyi gorod,Grodno,Bielsk,Pale,Lithuania,442,1485,0,Mel'nik,52.3333,23.05,1,"","","",1104Ml1
Nemirovo,mestechko,Grodno,Bielsk,Pale,Lithuania,157,765,0,Nemirovo,52.3,23.15,1,"","","",1104Nm1
Narev,Zashtatnyi gorod,Grodno,Bielsk,Pale,Lithuania,601,1434,0,Narev,52.9167,23.5167,1,"","","",1104Nr1
Orlia,mestechko,Grodno,Bielsk,Pale,Lithuania,2310,3003,0,Orlia,52.7,23.3333,1,"","",Town name not mentioned on site,1104Or1
Semiatichi,mestechko,Grodno,Bielsk,Pale,Lithuania,4638,6151,0,Semiatichi,52.45,22.8833,1,"","","",1104Sm1
Tsiekhanovets,mestechko,Grodno,Bielsk,Pale,Lithuania,3743,5569,0,Tsiekhanovets,52.6667,22.5167,1,"","","",1104Ts1
Golobudy,koloniia,Grodno,Volkovysk,Pale,Lithuania,214,214,0,Golobudy (Gallileiskaia),53,24.2167,1,uncertain,"","Not mentioned in census, mentioned in Russian Jewish Encyclopedy as based in 1849 : http://www.rujen.ru/index.php/%D0%93%D0%9E%D0%9B%D0%9E%D0%91%D0%A3%D0%94%D0%AB",1105Gl1
Ialovka,mestechko,Grodno,Volkovysk,Pale,Lithuania,743,1311,0,Ialovka,53.0167,23.9,1,"","","",1105Il1
Izabelin,mestechko,Grodno,Volkovysk,Pale,Lithuania,454,963,0,Izabelin,53.1,24.55,1,"","","",1105Iz1
Lyskovo,mestechko,Grodno,Volkovysk,Pale,Lithuania,658,876,0,Lyskovo,52.85,24.6167,1,"","","",1105Ly1
Mstibovo,mestechko,Grodno,Volkovysk,Pale,Lithuania,389,1228,0,Mstibovo,53.1167,24.25,1,"","","",1105Ms1
Novyi Dvor,mestechko,Grodno,Volkovysk,Pale,Lithuania,183,1481,0,Novyi Dvor,52.8333,24.35,1,"","","",1105Nv1
Porozovo,mestechko,Grodno,Volkovysk,Pale,Lithuania,931,2028,0,Porozovo,52.9333,24.3667,1,"","","",1105Pr1
Peski,mestechko,Grodno,Volkovysk,Pale,Lithuania,1615,2396,0,Peski,53.35,24.6333,1,"","","",1105Ps1
Ross',mestechko,Grodno,Volkovysk,Pale,Lithuania,4,983,1,Ross',53.2833,24.4,1,at_most,"",Calculated by subtraction from Total value any other groups mentioned in census for this place,1105Rs1
Svisloch',mestechko,Grodno,Volkovysk,Pale,Lithuania,2086,3099,0,Svisloch',53.0333,24.1,1,"","","",1105Sv1
Volkovysk,Uezdnyi gorod,Grodno,Volkovysk,Pale,Lithuania,5528,10323,0,Volkovysk,53.15,24.45,1,"","","",1105Vl1
Zel'va,mestechko,Grodno,Volkovysk,Pale,Lithuania,1844,2803,0,Zel'va,53.15,24.8167,1,"","","",1105Zl1
Zel'viany,derevnia,Grodno,Volkovysk,Pale,Lithuania,81,600,0,"Zel'viany (Zelwiany, Zelviany,Zblyany) ",53.11666,24.86667,1,"","",http://www.radzima.org/ru/object/6513.html,1105Zl2
Antopol',mestechko,Grodno,Kobrin,Pale,Lithuania,3137,3867,0,Antopol',52.2,24.7833,1,"","","",1106An1
Drogichin,mestechko,Grodno,Kobrin,Pale,Lithuania,115,2258,1,Drogichin,52.1833,25.15,1,at_most,"",Calculated by subtraction from Total value any other groups mentioned in census for this place,1106Dr1
Dyvin,mestechko,Grodno,Kobrin,Pale,Lithuania,1094,3737,0,Dyvin,51.9667,24.5833,1,"","","",1106Dy1
Gorodets,mestechko,Grodno,Kobrin,Pale,Lithuania,648,1761,0,Gorodets,52.2,24.6667,1,"","","",1106Gr1
Iakovlevo,koloniia,Grodno,Kobrin,Pale,Lithuania,31,202,0,Iakovlevo,52.1833,25.3333,1,"","","Not mentioned in census, http://ru.wikisource.org/wiki/%D0%95%D0%AD%D0%91%D0%95/%D0%AF%D0%BA%D0%BE%D0%B2%D0%BB%D0%B5%D0%B2%D0%BE",1106Ik1
Ivanovo,mestechko,Grodno,Kobrin,Pale,Lithuania,1875,3041,0,Ivanovo,52.1333,25.55,1,"","","",1106Iv1
Kobrin,Uezdnyi gorod,Grodno,Kobrin,Pale,Lithuania,6738,10408,0,Kobrin,52.2167,24.3667,1,"","","",1106Kb1
Khomsk,mestechko,Grodno,Kobrin,Pale,Lithuania,1273,2243,0,Khomsk,52.3333,25.2333,1,"","","",1106Km1
Motol',mestechko,Grodno,Kobrin,Pale,Lithuania,1354,4297,0,Motol',52.3167,25.6,1,"","","",1106Mt1
Odrizhin,selo,Grodno,Kobrin,Pale,Lithuania,83,449,0,Odrizhin,51.96667,25.45,1,"","","",1106Od1
Zhabinka,"",Grodno,Kobrin,Pale,Lithuania,40,332,0,Zhabinka,52.2,24.0167,1,approx_percent,"","Not mentioned in census, started as train station in 1871, http://be.wikipedia.org/wiki/%D0%93%D0%BE%D1%80%D0%B0%D0%B4_%D0%96%D0%B0%D0%B1%D1%96%D0%BD%D0%BA%D0%B0",1106Zb1
Bluden',selo,Grodno,Pruzhany,Pale,Lithuania,210,780,0,Bluden' (Bereza),52.5333,24.9,1,"","","",1107Bl1
Bereza,mestechko,Grodno,Pruzhany,Pale,Lithuania,2623,6226,0,Bereza (Kartuz-Bereza),52.5333,24.9833,1,"","","",1107Br1
Gainovka,"",Grodno,Pruzhany,Pale,Lithuania,,,1,Gainovka (Khainuvka),52.7333,23.5833,0,"","","Not mentioned in census, place exist",1107Gn1
Linovo,derevnia,Grodno,Pruzhany,Pale,Lithuania,18,950,1,Linovo,52.4833,24.5,1,at_most,"",Calculated by subtraction from Total value any other groups mentioned in census for this place,1107Ln1
Malech,mestechko,Grodno,Pruzhany,Pale,Lithuania,1201,2159,0,Malech,52.4833,24.7,1,"","","",1107Ml1
Narevka,mestechko,Grodno,Pruzhany,Pale,Lithuania,1004,1268,0,Narevka,52.8333,23.75,1,"","",Different Uezd of that mentioned on site,1107Nr1
Pruzhany,Uezdnyi gorod,Grodno,Pruzhany,Pale,Lithuania,5080,7633,0,Pruzhany,52.55,24.4667,1,"","","",1107Pr1
Selets,mestechko,Grodno,Pruzhany,Pale,Lithuania,866,2642,0,Selets,52.5833,24.8833,1,"","","",1107Sl1
Shereshevo,mestechko,Grodno,Pruzhany,Pale,Lithuania,2553,5079,0,Shereshevo,52.55,24.2167,1,"","","",1107Sr1
Sosnovka,derevnia,Grodno,Pruzhany,Pale,Lithuania,99,627,0,Sosnovka,52.41667,24.33333,1,"","","",1107Ss1
Byten',mestechko,Grodno,Slonim,Pale,Lithuania,1614,2682,0,Byten',52.8833,25.5,1,"","","",1108By1
Derechin,mestechko,Grodno,Slonim,Pale,Lithuania,1887,2663,0,Derechin,53.25,24.9167,1,"","","",1108Dr1
Diatlovo,mestechko,Grodno,Slonim,Pale,Lithuania,3033,3979,0,Diatlovo,53.4667,25.4,1,"","","",1108Dt1
Dvorets,mestechko,Grodno,Slonim,Pale,Lithuania,868,1366,0,Dvorets,53.4,25.5667,1,"","","",1108Dv1
Golynka,mestechko,Grodno,Slonim,Pale,Lithuania,339,719,0,Golynka,53.2167,25.0333,1,"","","",1108Gl1
Ivatsevichi,"",Grodno,Slonim,Pale,Lithuania,,,1,Ivatsevichi,52.7167,25.3333,0,"","","Not mentioned in census, Stated at 1871 after train station creation: http://be.wikipedia.org/wiki/%D0%93%D0%BE%D1%80%D0%B0%D0%B4_%D0%86%D0%B2%D0%B0%D1%86%D1%8D%D0%B2%D1%96%D1%87%D1%8B",1108Iv1
Koloniia Sinaiskaia,koloniia,Grodno,Slonim,Pale,Lithuania,,,1,Koloniia Sinaiskaia,53.21667,24.81667,0,unknown,unknown,Not mentioned in census; no linked page,1108Kl1
Kossovo,mestechko,Grodno,Slonim,Pale,Lithuania,2028,3092,0,Kossovo,52.75,25.15,1,"","","",1108Ks1
Kozlovshchina,mestechko,Grodno,Slonim,Pale,Lithuania,325,,0,Kozlovshchina,53.3167,25.3,0,uncertain,"","Not mentioned in census, http://www.rujen.ru/index.php/%D0%9A%D0%BE%D0%B7%D0%BB%D0%BE%D0%B2%D1%89%D0%B8%D0%BD%D0%B0",1108Kz1
Mikhalin,steklianyi zavod,Grodno,Slonim,Pale,Lithuania,59,549,0,Mikhalin,,,1,"","",May be inside Slonim but no approve found,1108Mk1
Milovidy,selo,Grodno,Slonim,Pale,Lithuania,95,543,0,Milovidy,52.88334,25.85,1,"","",http://globus.tut.by/milovidy/index.htm,1108Ml1
Molchad',mestechko,Grodno,Slonim,Pale,Lithuania,1188,1733,0,Molchad',53.3167,25.7,1,"","","",1108Ml2
Novoel'nia,selo,Grodno,Slonim,Pale,Lithuania,135,,0,Novoel'nia,53.4667,25.5833,0,"",unknown,"Not mentioned in census, http://rujen.ru/index.php?title=%D0%9D%D0%9E%D0%92%D0%9E%D0%95%D0%9B%D0%AC%D0%9D%D0%AF&redirect=no",1108Nv1
Ozernitsa,mestechko,Grodno,Slonim,Pale,Lithuania,183,759,0,Ozernitsa,53.0667,25,1,"","","",1108Oz1
Pavlovo,derevnia,Grodno,Slonim,Pale,Lithuania,332,,0,"Pavlovo (Puzovichi, Odynowszczyzna)",52.8333,24.9167,0,"",unknown,"Not mentioned in census, http://be-x-old.wikipedia.org/wiki/%D0%9F%D1%83%D0%B7%D0%B0%D0%B2%D1%96%D1%87%D1%8B_(%D0%A1%D0%BB%D0%BE%D0%BD%D1%96%D0%BC%D1%81%D0%BA%D1%96_%D1%80%D0%B0%D1%91%D0%BD) , number of jews mentioned on Polish site: http://www",1108Pv1
Ruda,derevnia,Grodno,Slonim,Pale,Lithuania,86,657,0,Ruda,52.73333,25.28333,1,"","","",1108Rd1
Rozhany,mestechko,Grodno,Slonim,Pale,Lithuania,3599,5016,0,Rozhany,52.8667,24.8833,1,"","","",1108Rz1
Slonim,Uezdnyi gorod,Grodno,Slonim,Pale,Lithuania,11515,15863,0,Slonim,53.0833,25.3167,1,"","","",1108Sl1
Zhirovitsy,selo,Grodno,Slonim,Pale,Lithuania,76,608,0,Zhirovitsy,53,25.33333,1,"","","",1108Zr1
Dombrovo,Zashtatnyi gorod,Grodno,Sokolki,Pale,Lithuania,1499,1988,0,Dombrovo,53.6667,23.35,1,"","","",1109Dm1
Ianov,Zashtatnyi gorod,Grodno,Sokolki,Pale,Lithuania,1797,2296,0,Ianov,53.4667,23.2333,1,"","","",1109In1
Koloniia Isaaka,koloniia,Grodno,Sokolki,Pale,Lithuania,26,26,0,Koloniia Isaaka,53.4,23.75,0,families,families,"Not mentioned in census; points to Odel'sk : -1947210 26 families are mentioned as living 1,5 km near this town: http://berkovich-zametki.com/2010/Zametki/Nomer8/Duhin1.php",1109Kl1
Koritsyn,Zashtatnyi gorod,Grodno,Sokolki,Pale,Lithuania,411,683,0,Koritsyn,53.45,23.1,1,"","","",1109Kr1
Kuznitsa,Zashtatnyi gorod,Grodno,Sokolki,Pale,Lithuania,780,1346,0,Kuznitsa,53.5167,23.65,1,"","","",1109Kz1
Novyi Dvor,Zashtatnyi gorod,Grodno,Sokolki,Pale,Lithuania,490,1300,0,Novyi Dvor,53.6333,23.55,1,"","","",1109Nv1
Odel'sk,Zashtatnyi gorod,Grodno,Sokolki,Pale,Lithuania,234,1462,0,Odel'sk,53.4,23.7667,1,"","","",1109Od1
Sidra,mestechko,Grodno,Sokolki,Pale,Lithuania,742,1165,0,Sidra,53.5667,23.45,1,"","","",1109Sd1
Sokolka,Uezdnyi gorod,Grodno,Sokolki,Pale,Lithuania,2848,7598,0,Sokolka,53.4167,23.5,1,"","","",1109Sk1
Sukhovolia,Zashtatnyi gorod,Grodno,Sokolki,Pale,Lithuania,1944,3203,0,Sukhovolia,53.5833,23.1,1,"","","",1109Sk2
Vasil'kov,Zashtatnyi gorod,Grodno,Sokolki,Pale,Lithuania,1470,3880,0,Vasil'kov,53.2,23.2167,1,"","","",1109Vs1
Rostov-na-Donu,Okruzhnoi gorod,Don,Rostov-on-Don,Beyond,Inner Russia,11838,119476,0,Rostov-na-Donu,47.2333,39.7167,1,"","",Different Uezd of that mentioned on cite,1205Rs1
Amvrosievka,sloboda,Don,Taganrog,Beyond,Inner Russia,0,5365,0,Amvrosievka,47.8,38.4833,1,"","",Different Uezd of that mentioned on cite; Calculated by subtraction from Total value any other groups mentioned in census for this place,1207Am1
Taganrog,Okruzhnoi gorod,Don,Taganrog,Beyond,Inner Russia,4843,51437,1,Taganrog,47.2167,38.9167,1,at_most,"",Different Uezd of that mentioned on cite; Calculated by subtraction from Total value any other groups mentioned in census for this place,1207Tg1
Chistiakova,sloboda,Don,Ust'-Medveditskaia,Beyond,Inner Russia,1,1394,1,Chistiakova,48.0333,38.5833,1,at_most,"",Different Uezd of that mentioned on cite; Calculated by subtraction from Total value any other groups mentioned in census for this place,1208Cs1
Ekaterinoslav,Gubernskii gorod,Yekaterinoslav,Ekaterinoslav,Pale,New Russia,41240,112839,0,Ekaterinoslav,48.45,34.9833,1,"","","",1301Ek1
Kamenskoe,selo,Yekaterinoslav,Ekaterinoslav,Pale,New Russia,852,16878,1,Kamenskoe,48.5,34.6167,1,at_most,"",Calculated by subtraction from Total value any other groups mentioned in census for this place,1301Km1
Nikopol',mestechko,Yekaterinoslav,Ekaterinoslav,Pale,New Russia,3284,17097,0,Nikopol',47.5667,34.4,1,"","","",1301Nk1
Aleksandrovsk,Uezdnyi gorod,Yekaterinoslav,Aleksandrovsk,Pale,New Russia,5290,18849,0,Aleksandrovsk,47.8167,35.1833,1,"","",Name of district as it mentioned in census,1302Al1
Bogodarovka,koloniia,Yekaterinoslav,Aleksandrovsk,Pale,New Russia,605,679,0,Bogodarovka (Kovalevskaia),47.7833,36.6333,1,"","","",1302Bg1
Guliai-Pole,selo,Yekaterinoslav,Aleksandrovsk,Pale,New Russia,1173,9497,0,Guliai-Pole,47.6667,36.25,1,"","","",1302Gl1
Gor'kaia,"",Yekaterinoslav,Aleksandrovsk,Pale,New Russia,,,1,Gor'kaia (Nazarovicheva)?,47.7333,36.5667,0,"","",Not mentioned in census; assigned to the district according to the coordinates (Yannay),1302Gr1
Krasnoselka,koloniia,Yekaterinoslav,Aleksandrovsk,Pale,New Russia,515,594,0,Krasnoselka,47.6167,36.5667,1,"","","",1302Kr1
Mezhiriech No. 4,koloniia,Yekaterinoslav,Aleksandrovsk,Pale,New Russia,448,549,0,Mezhiriech No. 4,47.6,36.4167,1,"","","",1302Mz1
Novo-Zlatopol',koloniia,Yekaterinoslav,Aleksandrovsk,Pale,New Russia,669,817,0,Novo-Zlatopol',47.6667,36.5667,1,"","","",1302Nv1
Pologi,selo,Yekaterinoslav,Aleksandrovsk,Pale,New Russia,84,4365,1,Pologi,47.4833,36.25,1,at_most,"",Calculated by subtraction from Total value any other groups mentioned in census for this place,1302Pl1
Trudoliubovka V,koloniia,Yekaterinoslav,Aleksandrovsk,Pale,New Russia,496,564,0,Trudoliubovka V,47.4667,36.7333,1,"","",Assigned to district based on coordinates and JG assignment (Yannay),1302Tr1
Veselaia,selo,Yekaterinoslav,Aleksandrovsk,Pale,New Russia,,,1,"Veselaia (Gupalovka, Veselaia Evreika)",47.6833,36.6167,0,"","",Not mentioned in census,1302Vs1
Bakhmut,Uezdnyi gorod,Yekaterinoslav,Bakhmut,Pale,New Russia,3259,19316,0,Bakhmut,48.5833,38,1,"","","",1303Bk1
Druzhkovka,zavodskoi poselok,Yekaterinoslav,Bakhmut,Pale,New Russia,20,1892,1,Druzhkovka,48.6167,37.55,1,at_most,"",May be no Jews,1303Dr1
Gorlovka,Kamenno-ugol'nyi rudnik,Yekaterinoslav,Bakhmut,Pale,New Russia,260,7024,1,Gorlovka,48.3,38.05,1,at_most,"",Calculated by subtraction from Total value any other groups mentioned in census for this place,1303Gr1
Grishino,Zheleznodorozhnaia stantsiia s poselkom,Yekaterinoslav,Bakhmut,Pale,New Russia,227,2597,0,Grishino,48.2833,37.1833,1,"","","",1303Gr2
Iuzovka,zavod s poselkom,Yekaterinoslav,Bakhmut,Pale,New Russia,3168,28076,0,Iuzovka,48,37.8,1,"","","",1303Iz1
Shcherbinovka,khutor,Yekaterinoslav,Bakhmut,Pale,New Russia,195,2597,1,Shcherbinovka,48.4,37.8333,1,at_most,"",Calculated by subtraction from Total value any other groups mentioned in census for this place,1303Sc1
Sofievka,selo,Yekaterinoslav,Verkhnednieprovsk,Pale,New Russia,390,9327,0,Sofievka,48.05,33.8667,1,"","","",1304Sf1
Saksagan',selo,Yekaterinoslav,Verkhnednieprovsk,Pale,New Russia,355,9380,0,Saksagan' (Paiurovka),48.35,33.85,1,"","","",1304Sk1
Verkhnednieprovsk,Uezdnyi gorod,Yekaterinoslav,Verkhnednieprovsk,Pale,New Russia,2058,6701,0,Verkhnednieprovsk,48.65,34.3333,1,"","",Name of district as it mentioned in census,1304Vr1
Aleksandronevsk,selo,Yekaterinoslav,Mariupol',Pale,New Russia,90,690,0,"Aleksandronevsk (Brunau, koloniia Grunau)",47.41667,,1,"",""," as in census, now in selo Vishnevatoe : http://www.rujen.ru/index.php/%D0%90%D0%9B%D0%95%D0%9A%D0%A1%D0%90%D0%9D%D0%94%D0%A0%D0%9E%D0%9D%D0%95%D0%92%D0%A1%D0%9A",1305Al1
Grafskaia,koloniia,Yekaterinoslav,Mariupol',Pale,New Russia,,,1,"Grafskaia (Proletarskoe, Proletars'ke)",47.5167,36.8333,0,"","",Not mentioned in census,1305Gr1
Mariupol',Uezdnyi gorod,Yekaterinoslav,Mariupol',Pale,New Russia,5013,31116,0,Mariupol',47.1,37.55,1,"","","",1305Mr1
Nadezhnaia,koloniia,Yekaterinoslav,Mariupol',Pale,New Russia,634,719,0,Nadezhnaia (Vil'ner),47.5833,36.8333,1,"","","",1305Nd1
Rovnopol',koloniia,Yekaterinoslav,Mariupol',Pale,New Russia,447,544,0,Rovnopol' (Latyshnaia),47.55,37.2333,1,"","","",1305Rv1
Sladkovodnaia,koloniia,Yekaterinoslav,Mariupol',Pale,New Russia,430,512,0,Sladkovodnaia (Kobyl'naia),47.56667,36.76667,1,"","","",1305Sl1
Zelenoe-Pole,koloniia,Yekaterinoslav,Mariupol',Pale,New Russia,658,729,0,Zelenoe-Pole,47.55,36.85,1,"","","",1305Zl1
Zatish'e,Koloniia,Yekaterinoslav,Mariupol',Pale,New Russia,527,708,0,Zatish'e (Bakharova),47.5167,37.3333,1,"","","",1305Zt1
Aleksandriia,posad,Yekaterinoslav,Novomoskovsk,Pale,New Russia,306,1119,0,Aleksandriia,48.98333,35.28333,1,"","","",1306Al1
Amur,poselok,Yekaterinoslav,Novomoskovsk,Pale,New Russia,1235,6060,0,Amur,48.5,35.0667,1,"","","",1306Am1
Igren,mestechko,Yekaterinoslav,Novomoskovsk,Pale,New Russia,301,1915,0,Igren,48.4667,35.2,1,"","","",1306Ig1
Novomoskovsk,Uezdnyi gorod,Yekaterinoslav,Novomoskovsk,Pale,New Russia,1436,12883,0,Novomoskovsk,48.6167,35.2,1,"","","",1306Nv1
Nizhnednieprovsk zheleznodoroz,poselok,Yekaterinoslav,Novomoskovsk,Pale,New Russia,186,1363,0,Nizhnednieprovsk zheleznodorozhnaia stantsiia na zemlie A.M. Rubets,48.48333,35.1,1,"","",United with Amur into Dnipropetrovsk,1306Nz1
Lozovaia na zemle V. N. Zarudn,poselok,Yekaterinoslav,Pavlograd,Pale,New Russia,813,3717,0,Lozovaia na zemle V. N. Zarudnoi,48.8833,36.3833,1,"","","",1307Lz1
Pavlograd,Uezdnyi gorod,Yekaterinoslav,Pavlograd,Pale,New Russia,4382,15775,0,Pavlograd,48.5167,35.8667,1,"","","",1307Pv1
Slavgorod na zemle Ts. S. Mirg,poselok,Yekaterinoslav,Pavlograd,Pale,New Russia,189,532,0,Slavgorod na zemle Ts. S. Mirgorodskago,48.1,35.5167,1,"","","",1307Sl1
Sinel'nikov,poselok,Yekaterinoslav,Pavlograd,Pale,New Russia,259,2236,0,Sinel'nikov,48.3333,35.5167,1,"","",Different city name of that mentioned on site,1307Sn1
Brianka,"",Yekaterinoslav,Slavianoserbsk,Pale,New Russia,,,1,Brianka,48.5,38.6667,0,"","",Not mentioned in census. Assigned to district based on JG and coordinates,1308Br1
Lugansk,Bezuezdnyi gorod,Yekaterinoslav,Slavianoserbsk,Pale,New Russia,1502,20404,0,Lugansk,48.5667,39.3333,1,"","",Jewish pop according to JG (Yannay),1308Lg1
Slavianoserbsk,Uezdnyi gorod,Yekaterinoslav,Slavianoserbsk,Pale,New Russia,170,3122,1,Slavianoserbsk,48.7,38.9833,1,at_most,"",Name of district as it mentioned in census,1308Sl1
Kazan',Gubernskii gorod,Kazan,Kazan',Beyond,Inner Russia,1467,129900,0,Kazan',55.75,49.1333,1,"","",http://ru.wikipedia.org/wiki/%D0%9D%D0%B0%D1%81%D0%B5%D0%BB%D0%B5%D0%BD%D0%B8%D0%B5_%D0%9A%D0%B0%D0%B7%D0%B0%D0%BD%D0%B8#.D0.98.D1.81.D1.82.D0.BE.D1.80.D0.B8.D1.87.D0.B5.D1.81.D0.BA.D0.B8.D0.B5_.D0.B4.D0.B0.D0.BD.D0.BD.D1.8B.D0.B5,1401Kz1
Nizhnie Burtasy,derevnia,Kazan,Sviiazhsk,Beyond,Inner Russia,58,494,0,Nizhnie Burtasy,55.48333,46.85,1,"","","",1405Nz1
Sviiazhsk,Uezdnyi gorod,Kazan,Sviiazhsk,Beyond,Inner Russia,92,2365,1,Sviiazhsk,55.76667,48.65,1,at_most,"",May be no Jews there,1405Sv1
Ten'ki,selo,Kazan,Sviiazhsk,Beyond,Inner Russia,360,2728,0,Ten'ki,55.43333,48.98333,1,"","","",1405Tn1
Budaevka,selo,Kiev,Kiev,Pale,South-West,239,1720,0,Budaevka,50.31667,30.3,1,"","",Now in Boiarka,1601Bd1
Borodianka,mestechko,Kiev,Kiev,Pale,South-West,621,2705,0,Borodianka,50.65,29.9833,1,"","","",1601Br1
Byshev,mestechko,Kiev,Kiev,Pale,South-West,597,3532,0,Byshev,50.2667,29.8833,1,"","","",1601By1
Demievka,selo,Kiev,Kiev,Pale,South-West,4919,10551,0,Demievka,50.4,30.51667,1,"","",Now Holosiivs'kyi district of Kyiv,1601Dm1
Dymer,mestechko,Kiev,Kiev,Pale,South-West,984,3201,0,Dymer,50.7833,30.3,1,"","","",1601Dy1
Germanovka,mestechko,Kiev,Kiev,Pale,South-West,1049,3628,0,Germanovka,49.9833,30.5667,1,"","","",1601Gr1
Gostomel',mestechko,Kiev,Kiev,Pale,South-West,916,2001,0,Gostomel',50.5833,30.2667,1,"","","",1601Gs1
Ignatovka,mestechko,Kiev,Kiev,Pale,South-West,926,1093,0,Ignatovka,50.4,30.2167,1,"","","",1601Ig1
Iasnogorodka,mestechko,Kiev,Kiev,Pale,South-West,624,1614,0,Iasnogorodka,50.35,30.0167,1,"","","",1601Is1
Kodra,derevnia,Kiev,Kiev,Pale,South-West,88,879,0,Kodra,50.56667,29.6,1,"","","",1601Kd1
Kagarlyk,mestechko,Kiev,Kiev,Pale,South-West,1414,6705,0,Kagarlyk,49.85,30.8333,1,"","","",1601Kg1
Kiev,Gubernskii gorod,Kiev,Kiev,Pale,South-West,32093,247723,0,Kiev,50.4333,30.5167,1,"","","",1601Kv1
Makarov,mestechko,Kiev,Kiev,Pale,South-West,3953,5330,0,Makarov,50.4667,29.8167,1,"","","",1601Mk1
Obukhov,mestechko,Kiev,Kiev,Pale,South-West,1140,8596,0,Obukhov,50.1,30.6333,1,"","","",1601Ob1
Rzhishchev,mestechko,Kiev,Kiev,Pale,South-West,6008,11629,0,Rzhishchev,49.9667,31.05,1,"","","",1601Rz1
Tripol'e,mestechko,Kiev,Kiev,Pale,South-West,1238,5637,0,Tripol'e,50.11666,30.76667,1,"","","",1601Tr1
Zhidovskie Stavy,selo,Kiev,Kiev,Pale,South-West,48,1760,1,Zhidovskie Stavy (Zhidostavy),,,1,at_most,"",According to the name mentioning Jews,1601Zd1
Bielilovka,mestechko,Kiev,Berdichev,Pale,South-West,2223,4851,0,Bielilovka,49.6833,29.0333,1,"","","",1602Bl1
Bielopol'e,mestechko,Kiev,Berdichev,Pale,South-West,1141,2619,0,Bielopol'e,49.85,28.8667,1,"","","",1602Bl2
Bol'shie Nizgurtsy,selo,Kiev,Berdichev,Pale,South-West,339,1801,0,Bol'shie Nizgurtsy,49.8833,28.7,1,"","","",1602Bl3
Berdichev,Uezdnyi gorod,Kiev,Berdichev,Pale,South-West,41617,53351,0,Berdichev,49.9,28.5833,1,"","",Name of district as it mentioned in census,1602Br1
Dziun'kov,mestechko,Kiev,Berdichev,Pale,South-West,1137,4314,0,Dziun'kov,49.45,29.45,1,"","","",1602Dz1
Kumanovka,selo,Kiev,Berdichev,Pale,South-West,369,1089,0,Kumanovka,49.65,28.7,1,"","","",1602Km1
Karolevka,sloboda,Kiev,Berdichev,Pale,South-West,402,589,0,Karolevka,,,1,"","","Not found on map, may be united with Berdichev",1602Kr1
Kazatin,mestechko,Kiev,Berdichev,Pale,South-West,1731,8614,0,Kazatin,49.7167,28.8333,1,"","","",1602Kz1
Makhnovka,mestechko,Kiev,Berdichev,Pale,South-West,2435,5343,0,Makhnovka,49.7167,28.6667,1,"","","",1602Mk1
Novaia Priluka,mestechko,Kiev,Berdichev,Pale,South-West,2011,3579,0,Novaia Priluka,49.3833,28.7167,1,"","","",1602Nv1
Pogrebishche,mestechko,Kiev,Berdichev,Pale,South-West,2494,6284,0,Pogrebishche,49.4833,29.2667,1,"","","",1602Pg1
Samgorodok,mestechko,Kiev,Berdichev,Pale,South-West,1234,3606,0,Samgorodok,49.5333,28.85,1,"","","",1602Sm1
Spichintsy,mestechko,Kiev,Berdichev,Pale,South-West,937,2607,0,Spichintsy,,,1,"","","",1602Sp1
Vakhnovka,mestechko,Kiev,Berdichev,Pale,South-West,2404,5371,0,Vakhnovka,49.3167,28.85,1,"","","",1602Vk1
Bielaia Tserkov',mestechko,Kiev,Vasil'kov,Pale,South-West,18720,35378,0,Bielaia Tserkov',49.7833,30.1167,1,"","",Name of district as it mentioned in census,1603Bl1
Fastov,mestechko,Kiev,Vasil'kov,Pale,South-West,5595,10728,0,Fastov (Khvastov),50.0833,29.9167,1,"","","",1603Fs1
Grebenki,selo,Kiev,Vasil'kov,Pale,South-West,551,4009,0,Grebenki,49.95,30.2,1,"","","",1603Gr1
Nastashka,selo,Kiev,Vasil'kov,Pale,South-West,535,4917,0,Nastashka,49.63334,30.3,1,"","","",1603Ns1
Rokitne,mestechko,Kiev,Vasil'kov,Pale,South-West,2037,5818,0,Rokitne,49.7,30.46667,1,"","",".  But almost surely a typo, as there is no evidence of a town of that size, and Rokitne is not listed in the census.",1603Rk1
Trilies'e,selo,Kiev,Vasil'kov,Pale,South-West,740,4612,0,Trilies'e,49.98333,29.83333,1,"","","Now Trylesy, Trylisy",1603Tr1
Vasil'kov,Uezdnyi gorod,Kiev,Vasil'kov,Pale,South-West,5156,13132,0,Vasil'kov,50.1833,30.3167,1,"","","",1603Vs1
Boiarka,mestechko,Kiev,Zvenigorodka,Pale,South-West,720,1793,0,Boiarka,49.3333,30.6667,1,"","","",1604Br1
Ekaterinopol',mestechko,Kiev,Zvenigorodka,Pale,South-West,1980,7194,0,Ekaterinopol' (Kalkiboloty),48.9333,30.9833,1,"","","",1604Ek1
Lysianka,mestechko,Kiev,Zvenigorodka,Pale,South-West,2845,7207,0,Lysianka,49.25,30.8333,1,"","","",1604Ly1
Mokraia Kaligorka,mestechko,Kiev,Zvenigorodka,Pale,South-West,1677,3199,0,Mokraia Kaligorka (Velikaia Kaligorka),48.85,31.2167,1,"","","",1604Mk1
Ol'shana,mestechko,Kiev,Zvenigorodka,Pale,South-West,1233,6164,0,Ol'shana,49.2167,31.2167,1,"","","",1604Ol1
Ryzhanovka,mestechko,Kiev,Zvenigorodka,Pale,South-West,1374,4132,0,Ryzhanovka,49.1,30.7167,1,"","","",1604Ry1
Shpola,mestechko,Kiev,Zvenigorodka,Pale,South-West,5388,11933,0,Shpola,49,31.3833,1,"","","",1604Sp1
Shpola,vladiel'cheskaia usad'ba na zemlie kniagini Urusovoi,Kiev,Zvenigorodka,Pale,South-West,495,1005,0,Shpola,,,1,"","",Now in Shpola,1604Sp2
Vinograd,selo,Kiev,Zvenigorodka,Pale,South-West,1523,4064,0,Vinograd,49.25,30.5667,1,"","","",1604Vn1
Zvenigorodka,Uezdnyi gorod,Kiev,Zvenigorodka,Pale,South-West,6389,16923,0,Zvenigorodka,49.0833,30.9667,1,"","","",1604Zv1
Boguslav,mestechko,Kiev,Kanev,Pale,South-West,7445,11372,0,Boguslav,49.55,30.8833,1,"","",Name of district as it mentioned in census,1605Bg1
Kanev,Uezdnyi gorod,Kiev,Kanev,Pale,South-West,2682,8855,0,Kanev,49.75,31.4667,1,"","","",1605Kn1
Korsun',mestechko,Kiev,Kanev,Pale,South-West,3799,8262,0,Korsun',49.4333,31.25,1,"","","",1605Kr1
Medvin,selo,Kiev,Kanev,Pale,South-West,1082,9766,0,Medvin,49.3833,30.7833,1,"","","",1605Md1
Rassava,selo,Kiev,Kanev,Pale,South-West,146,3691,1,Rassava,49.7,30.95,1,at_most,"",Calculated by subtraction from Total value any other groups mentioned in census for this place,1605Rs1
Shenderovka,mestechko,Kiev,Kanev,Pale,South-West,761,3966,0,Shenderovka,49.35,31.0333,1,"","","",1605Sn1
Steblev,mestechko,Kiev,Kanev,Pale,South-West,1472,5746,0,Steblev,49.4,31.1,1,"","","",1605St1
Stepantsy,selo,Kiev,Kanev,Pale,South-West,3389,7436,0,Stepantsy,49.7,31.3,1,"","","",1605St2
Tagancho,mestechko,Kiev,Kanev,Pale,South-West,953,4507,0,Tagancho,49.5833,31.2833,1,"","","",1605Tg1
Balabanovka,mestechko,Kiev,Lipovets,Pale,South-West,493,3089,0,Balabanovka,49.1167,29.6167,1,"","",Name of district as it mentioned in census,1606Bl1
Il'intsy,mestechko,Kiev,Lipovets,Pale,South-West,4993,10039,0,Il'intsy (Lintsy),49.1167,29.2,1,"","","",1606Il1
Iustingrad,mestechko,Kiev,Lipovets,Pale,South-West,2521,3194,0,"Iustingrad (Zagaipol', Sokolovka)",49.0167,30.1333,1,"","","",1606Is1
Konela,mestechko,Kiev,Lipovets,Pale,South-West,744,2053,0,Konela,49.0667,30.1,1,"","","",1606Kn1
Kitaigorod,mestechko,Kiev,Lipovets,Pale,South-West,735,2794,0,Kitaigorod,48.9667,29.5,1,"","","",1606Kt1
Lukashevka,mestechko,Kiev,Lipovets,Pale,South-West,1724,4326,0,Lukashevka,49.1667,29.75,1,"","","",1606Lk1
Lipovets,Uezdnyi gorod,Kiev,Lipovets,Pale,South-West,4135,8658,0,Lipovets,49.2333,29.05,1,"","","",1606Lp1
Monastyrishche,mestechko,Kiev,Lipovets,Pale,South-West,2620,9404,0,Monastyrishche,48.9833,29.8167,1,"","","",1606Mn1
Novyi I Staryi Dashev,mestechko,Kiev,Lipovets,Pale,South-West,159,6729,1,Novyi I Staryi Dashev,49,29.45,1,at_most,"",Calculated by subtraction from Total value any other groups mentioned in census for this place,1606Nv1
Oratov,mestechko,Kiev,Lipovets,Pale,South-West,529,2439,0,Oratov,49.2,29.5333,1,"","","",1606Or1
Pliskov,mestechko,Kiev,Lipovets,Pale,South-West,1828,3890,0,Pliskov,49.3667,29.2833,1,"","","",1606Pl1
Sarny,mestechko,Kiev,Lipovets,Pale,South-West,1555,3220,0,Sarny (Okhrimovo & Sarna),48.93333,29.91667,1,"","","",1606Sr1
Terlitsa,mestechko,Kiev,Lipovets,Pale,South-West,1191,2304,0,Terlitsa,48.9333,29.7,1,"","","",1606Tr1
Tsybulev,mestechko,Kiev,Lipovets,Pale,South-West,463,3827,0,Tsybulev,49.0667,29.85,1,"","","",1606Ts1
Zhornishche,mestechko,Kiev,Lipovets,Pale,South-West,1040,3518,0,Zhornishche,49.06667,29.08333,1,"","","",1606Zr1
Zozov,mestechko,Kiev,Lipovets,Pale,South-West,414,3732,0,Zozov,49.31667,29.01667,1,"","","",1606Zz1
Bober,derevnia,Kiev,Radomysl',Pale,South-West,208,633,0,Bober,51.15,29.55,1,"","",Name of district as it mentioned in census,1607Bb1
Brusilov,mestechko,Kiev,Radomysl',Pale,South-West,3575,6703,0,Brusilov,50.2833,29.5333,1,"","","",1607Br1
Chopovichi,selo,Kiev,Radomysl',Pale,South-West,919,6654,0,Chopovichi,50.8333,28.95,1,"","","",1607Cp1
Chernobyl',mestechko,Kiev,Radomysl',Pale,South-West,5526,9351,0,Chernobyl',51.2667,30.2333,1,"","","",1607Cr1
Ditiatkovskaia,Pischebumazhnaia fabrika,Kiev,Radomysl',Pale,South-West,227,1326,0,Ditiatkovskaia,50.48333,29.21667,1,"","",E,1607Dt1
Gornostaipol',mestechko,Kiev,Radomysl',Pale,South-West,1888,3286,0,Gornostaipol',51.0667,30.25,1,"","","",1607Gr1
Ivan'kov,mestechko,Kiev,Radomysl',Pale,South-West,1577,3037,0,Ivan'kov,50.9333,29.9,1,"","","",1607Iv1
Kabany,derevnia,Kiev,Radomysl',Pale,South-West,135,986,0,Kabany,50.9,29.21667,1,"","","Now called Dibrova, http://en.wikipedia.org/wiki/Lazar_Kaganovich",1607Kb1
Khabno,mestechko,Kiev,Radomysl',Pale,South-West,1721,2719,0,Khabno,51.2333,29.3833,1,"","","",1607Kb2
Korostyshev,mestechko,Kiev,Radomysl',Pale,South-West,4160,7863,0,Korostyshev,50.3167,29.0667,1,"","","",1607Kr1
Malin,mestechko,Kiev,Radomysl',Pale,South-West,2547,4256,0,Malin,50.7667,29.2333,1,"","","",1607Ml1
Radomysl',Uezdnyi gorod,Kiev,Radomysl',Pale,South-West,7502,10906,0,Radomysl',50.5,29.2333,1,"","","",1607Rd1
Rozhev,mestechko,Kiev,Radomysl',Pale,South-West,610,2065,0,Rozhev,50.38334,29.65,1,"","","",1607Rz1
Sidorovichi,selo,Kiev,Radomysl',Pale,South-West,137,758,0,Sidorovichi,50.98333,29.58333,1,"","","",1607Sd1
Skuraty,selo,Kiev,Radomysl',Pale,South-West,189,1690,0,Skuraty,50.93333,29.1,1,"","","",1607Sk1
Terekhi,derevnia,Kiev,Radomysl',Pale,South-West,72,682,0,Terekhi,,,1,"","","",1607Tr1
Varovichi,selo,Kiev,Radomysl',Pale,South-West,134,1158,0,Varovichi,50.26667,30.2,1,"","","",1607Vr1
Zalieshane,derevnia,Kiev,Radomysl',Pale,South-West,102,855,0,Zalieshane,51.03333,29.58333,1,"","","",1607Zl1
Borshchagovka,mestechko,Kiev,Skvira,Pale,South-West,1853,3196,0,Borshchagovka,49.4833,29.5333,1,"","",Name of district as it mentioned in census,1608Br1
Khodorkov,mestechko,Kiev,Skvira,Pale,South-West,3672,6910,0,Khodorkov,50.1,29.3,1,"","","",1608Kd1
Kornin,mestechko,Kiev,Skvira,Pale,South-West,807,3103,0,Kornin,50.0833,29.3667,1,"","","",1608Kr1
Novofastov,mestechko,Kiev,Skvira,Pale,South-West,451,2355,0,Novofastov,49.5833,29.45,1,"","","",1608Nv1
Popel'nia,selo,Kiev,Skvira,Pale,South-West,131,1699,1,Popel'nia,49.9667,29.45,1,at_most,"",Calculated by subtraction from Total value any other groups mentioned in census for this place,1608Pp1
Pavoloch',mestechko,Kiev,Skvira,Pale,South-West,3391,8053,0,Pavoloch',49.8667,29.45,1,"","","",1608Pv1
Romanovka,mestechko,Kiev,Skvira,Pale,South-West,312,1896,0,Romanovka,49.98333,29.63333,1,"","","",1608Rm1
Ruzhin,mestechko,Kiev,Skvira,Pale,South-West,2917,4329,0,Ruzhin,49.7167,29.2333,1,"","","",1608Rz1
Skvira,Uezdnyi gorod,Kiev,Skvira,Pale,South-West,8910,17958,0,Skvira,49.7333,29.6667,1,"","","",1608Sk1
Sokol'che,mestechko,Kiev,Skvira,Pale,South-West,180,1451,0,Sokol'che (Sokol'cha),49.98333,29.31667,1,"","","",1608Sk2
Vcheraishe,mestechko,Kiev,Skvira,Pale,South-West,1108,3324,0,Vcheraishe,49.86666,29.13333,1,"","","",1608Vc1
Volodarka,mestechko,Kiev,Skvira,Pale,South-West,2079,4590,0,Volodarka,49.5167,29.9167,1,"","","",1608Vl1
Verkhovnia,selo,Kiev,Skvira,Pale,South-West,316,2440,0,Verkhovnia,49.8,29.3167,1,"","","",1608Vr1
Koshevata,mestechko,Kiev,Tarashcha,Pale,South-West,1265,5653,0,Koshevata,49.4833,30.6167,1,"","","",1609Ks1
Piatigory,mestechko,Kiev,Tarashcha,Pale,South-West,1385,4383,0,Piatigory,49.35,29.9333,1,"","","",1609Pt1
Staryi Zhivotov,mestechko,Kiev,Tarashcha,Pale,South-West,1935,3733,0,Staryi Zhivotov,49.2667,29.5333,1,"","","",1609St1
Stavishche,mestechko,Kiev,Tarashcha,Pale,South-West,3917,8186,0,Stavishche,49.3833,30.2,1,"","","",1609St2
Tarashcha,Uezdnyi gorod,Kiev,Tarashcha,Pale,South-West,4905,11259,0,Tarashcha,49.5667,30.5,1,"","","",1609Tr1
Tetiev,mestechko,Kiev,Tarashcha,Pale,South-West,3323,3493,0,Tetiev,49.3833,29.6667,1,"","","",1609Tt1
Zhashkov,mestechko,Kiev,Tarashcha,Pale,South-West,2445,5181,0,Zhashkov,49.25,30.1,1,"","","",1609Zs1
Antonovka,mestechko,Kiev,Uman',Pale,South-West,263,1837,0,Antonovka (Bukskaia),48.96667,30.7,1,"","",Probably this one as most close to Buki but there are at least one more country with the same name in the area,1610An1
Babanka,selo,Kiev,Uman',Pale,South-West,103,3220,1,Babanka,48.7,30.45,1,at_most,"",Calculated by subtraction from Total value any other groups mentioned in census for this place,1610Bb1
Buki,mestechko,Kiev,Uman',Pale,South-West,2298,3923,0,Buki (Antonovka),49.0833,30.4167,1,"","","",1610Bk1
Dubovo,mestechko,Kiev,Uman',Pale,South-West,1104,2783,0,Dubovo,48.6333,30.45,1,"","","",1610Db1
Ivan'ka,mestechko,Kiev,Uman',Pale,South-West,704,2589,0,Ivan'ka,48.9833,30.45,1,"","","",1610Iv1
Khristinovka,selo,Kiev,Uman',Pale,South-West,128,2677,1,Khristinovka,48.8333,29.9667,1,at_most,"",Calculated by subtraction from Total value any other groups mentioned in census for this place,1610Kr1
Ladyzhinka,selo,Kiev,Uman',Pale,South-West,1173,3722,0,Ladyzhinka,48.55,30.25,1,"","","",1610Ld1
Pogoriela,selo,Kiev,Uman',Pale,South-West,186,1510,0,Pogoriela,48.6333,29.9667,1,"","","",1610Pg1
Pokotilova,mestechko,Kiev,Uman',Pale,South-West,1670,3030,0,Pokotilova,48.4667,30.7,1,"","","",1610Pk1
Tal'noe,mestechko,Kiev,Uman',Pale,South-West,5452,9610,0,Tal'noe,48.8833,30.7,1,"","","",1610Tl1
Torgovitsa,mestechko,Kiev,Uman',Pale,South-West,1299,3677,0,Torgovitsa,48.65,30.7833,1,"","","",1610Tr1
Uman',Uezdnyi gorod,Kiev,Uman',Pale,South-West,17945,31016,0,Uman',48.75,30.2167,1,"","","",1610Um1
Voronoe,selo,Kiev,Uman',Pale,South-West,350,2544,0,Voronoe,49.13334,30.21667,1,"","","",1610Vr1
Cherkasy,Uezdnyi gorod,Kiev,Cherkasy,Pale,South-West,10950,29600,0,Cherkasy,49.4333,32.0667,1,"","","",1611Cr1
Gorodishche,mestechko,Kiev,Cherkasy,Pale,South-West,3124,14641,0,Gorodishche,49.2833,31.45,1,"","","",1611Gr1
Kamenka,mestechko,Kiev,Cherkasy,Pale,South-West,2193,6267,0,Kamenka,49.0333,32.1,1,"","","",1611Km1
Moshny,mestechko,Kiev,Cherkasy,Pale,South-West,1022,8049,0,Moshny,49.5333,31.75,1,"","","",1611Ms1
Rotmistrova,mestechko,Kiev,Cherkasy,Pale,South-West,1785,4823,0,Rotmistrova,49.1333,31.7,1,"","","",1611Rt1
Smiela,mestechko,Kiev,Cherkasy,Pale,South-West,7475,15187,0,Smiela,49.2333,31.8833,1,"","","",1611Sm1
Valiava,selo,Kiev,Cherkasy,Pale,South-West,111,4957,0,Valiava,49.3,31.31667,1,"","","",1611Vl1
Zhabotin,mestechko,Kiev,Cherkasy,Pale,South-West,272,1950,0,Zhabotin,49.15,32.15,1,"","","",1611Zb1
Aleksandrovka,mestechko,Kiev,Chigirin,Pale,South-West,3213,4366,0,Aleksandrovka,48.9667,32.2333,1,"","",Name of district as it mentioned in census,1612Al1
Chigirin,Uezdnyi gorod,Kiev,Chigirin,Pale,South-West,2922,9872,0,Chigirin,49.0667,32.6667,1,"","","",1612Cg1
Krylov,mestechko,Kiev,Chigirin,Pale,South-West,240,1943,0,Krylov,49.08333,33.25,1,"","",Now under water in Dnepr; http://ru.wikipedia.org/wiki/%D0%9D%D0%BE%D0%B2%D0%BE%D0%B3%D0%B5%D0%BE%D1%80%D0%B3%D0%B8%D0%B5%D0%B2%D1%81%D0%BA,1612Kr1
Medviedovka,mestechko,Kiev,Chigirin,Pale,South-West,1453,3683,0,Medviedovka (Medvodovka),49.1667,32.3833,1,"","","",1612Md1
Stavidly,mestechko,Kiev,Chigirin,Pale,South-West,156,1410,0,Stavidly,48.83333,31.98333,1,"","","",1612St1
Telepino,mestechko,Kiev,Chigirin,Pale,South-West,632,3199,0,Telepino,49,31.8833,1,"","","",1612Tl1
Zlatopol',mestechko,Kiev,Chigirin,Pale,South-West,6373,8122,0,"Zlatopol' (Zlotopol', Guliai-Pole)",48.8167,31.6667,1,"","","",1612Zl1
Bobty,mestechko,Kovno,Kovna,Pale,Lithuania,125,654,0,Bobty,55.1,23.8,1,"","","",1701Bb1
Betygola,"",Kovno,Kovna,Pale,Lithuania,,,1,Betygola,55.3667,23.3667,0,"","",Not mentioned in census; May be no Jews or less than 500 people,1701Bt1
Chekishki,mestechko,Kovno,Kovna,Pale,Lithuania,432,668,0,Chekishki,55.1667,23.5167,1,"","","",1701Ck1
Dal'nie Petrashune,derevnia,Kovno,Kovna,Pale,Lithuania,265,543,0,Dal'nie Petrashune,54.86666,24,1,"","","",1701Dl1
Datnovo,mestechko,Kovno,Kovna,Pale,Lithuania,233,616,0,Datnovo,55.35,23.9,1,"","","",1701Dt1
Eirogola,mestechko,Kovno,Kovna,Pale,Lithuania,1541,2376,0,Eirogola,55.2667,23.4667,1,"","","",1701Er1
Grinkishki,mestechko,Kovno,Kovna,Pale,Lithuania,431,924,0,Grinkishki,55.5667,23.6333,1,"","","",1701Gr1
Ianovo,mestechko,Kovno,Kovna,Pale,Lithuania,3975,4993,0,Ianovo,55.0833,24.2833,1,"","","",1701In1
Iasvoini,mestechko,Kovno,Kovna,Pale,Lithuania,534,1329,0,Iasvoini,55.25,23.8333,1,"","","",1701Is1
Keidany,mestechko,Kovno,Kovna,Pale,Lithuania,3733,6113,0,Keidany,55.2833,23.9667,1,"","","",1701Kd1
Kroki,mestechko,Kovno,Kovna,Pale,Lithuania,1090,1846,0,Kroki,55.4,23.7333,1,"","","",1701Kr1
Kovna,Gubernskii gorod,Kovno,Kovna,Pale,Lithuania,25448,70920,0,Kovna,54.9,23.9,1,"","","",1701Kv1
Rumshishki,mestechko,Kovno,Kovna,Pale,Lithuania,411,1180,0,Rumshishki,54.85,24.2,1,"","","",1701Rm1
Sredniki,mestechko,Kovno,Kovna,Pale,Lithuania,1174,1648,0,Sredniki,55.0833,23.4167,1,"","","",1701Sr1
Veliony,mestechko,Kovno,Kovna,Pale,Lithuania,573,820,0,Veliony,55.0833,23.2833,1,"","","",1701Vl1
Vil'iampol'skoe,"",Kovno,Kovna,Pale,Lithuania,,,1,Vil'iampol'skoe (Slobodka),54.9167,23.8833,0,"","",Not mentioned in census; May be no Jews or less than 500 people,1701Vl2
Vil'ki,mestechko,Kovno,Kovna,Pale,Lithuania,1431,2012,0,Vil'ki,55.05,23.5833,1,"","","",1701Vl3
Vendziagoly,mestechko,Kovno,Kovna,Pale,Lithuania,374,655,0,Vendziagoly,55.1167,23.9667,1,"","","",1701Vn1
Zheimy,"",Kovno,Kovna,Pale,Lithuania,,,1,Zheimy,55.1833,24.2167,0,"","",Not mentioned in census; May be no Jews or less than 500 people,1701Zm1
Bol'niki,mestechko,Kovno,Vil'komir,Pale,Lithuania,255,576,0,Bol'niki,55.3,25.1333,1,"","",Name of district as it mentioned in census,1702Bl1
