name,index_sht,prov,prov_no,dist_no,pale,region,no_jew_count,jew_pop,tot_pop,census,type,jewpop_flag,comments,total,total_flag,prov_name,dist_name,lat,lon,display_name,osm_id,wikidata_id,name_he,name_sim,match_status
Bol'shiia Chepurniki,0205Bl1,Astrakhan,2.0,5.0,Beyond,Inner Russia,0,256.0,2219.0,1.0,selo,,.,2219.0,,Astrakhan,Chernyi Iar,48.421906,44.584492,"Большие Чапурники, Светлоярский район, Волгоградская область, Россия",1186585399.0,Q3641689,,0.865,matched_reverse
Gancheshty,0301Gn1,Bessarabia,3.0,1.0,Pale,New Russia,0,2228.0,5044.0,1.0,mestechko,,,5044.0,,Bessarabia,Kishinev,46.8463666,28.5427304,"Hîncești, Raionul Hîncești, Moldova",12326787558.0,,,1.0,matched_refined
Kishinev,0301Ks1,Bessarabia,3.0,1.0,Pale,New Russia,0,50237.0,108483.0,1.0,Gubernskii gorod,,,108483.0,,Bessarabia,Kishinev,47.0245117,28.8322923,"Chișinău, Moldova",129991407.0,Q21197,קישינב,1.0,matched_db_api
Secareni,0301Sc1,Bessarabia,3.0,1.0,Pale,New Russia,1,,,,selo,,,,,Bessarabia,Kishinev,47.0254321,28.3309879,"Secăreni, Moldova",277635130.0,Q1987061,,1.0,matched_db_api
Akkerman,0302Ak1,Bessarabia,3.0,2.0,Pale,New Russia,0,5624.0,28258.0,1.0,Uezdnyi gorod,,,28258.0,,Bessarabia,Akkerman,46.1909823,30.345784,"Білгород-Дністровський, Білгород-Дністровська міська громада, Білгород-Дністровський район, Одеська область, 67700-67719, Україна",738536340.0,Q672990,בילהורוד-דניסטרובסקי,1.0,matched_nominatim
Bairamcha,0302Br1,Bessarabia,3.0,2.0,Pale,New Russia,0,980.0,2718.0,1.0,selo,,,2718.0,,Bessarabia,Akkerman,46.1350455,29.903189,"Байрамча, Одеська область, Україна",337691949.0,Q4320223,,1.0,matched_db_api
Staro-Artsiz,0302St1,Bessarabia,3.0,2.0,Pale,New Russia,0,337.0,1827.0,1.0,selo,,,1827.0,,Bessarabia,Akkerman,45.9962017,29.431517,"Арциз, Арцизька міська громада, Болградський район, Одеська область, Україна",191255341.0,Q719051,,1.0,matched_refined
Tarutino,0302Tr1,Bessarabia,3.0,2.0,Pale,New Russia,0,1873.0,5200.0,1.0,selo,,,5200.0,,Bessarabia,Akkerman,46.1821786,29.151948,"Бессарабське, Одеська область, Україна",337691696.0,Q2037768,,1.0,matched_db_api
Tatarbunary,0302Tt1,Bessarabia,3.0,2.0,Pale,New Russia,0,999.0,6023.0,1.0,mestechko,,,6023.0,,Bessarabia,Akkerman,45.8398696,29.6166537,"Татарбунари, Татарбунарська міська громада, Білгород-Дністровський район, Одеська область, 68100-68104, Україна",176806726.0,Q545923,,1.0,matched_nominatim
Bendery,0303Bn1,Bessarabia,3.0,3.0,Pale,New Russia,0,10654.0,31797.0,1.0,Uezdnyi gorod,,,31797.0,,Bessarabia,Bendery,46.8218177,29.4819196,"Бендеры, Нистрения / Приднестровье / Придністров'я, Moldova",265099165.0,Q192176,טיגינה,1.0,matched_db_api
Chimishliia,0303Cm1,Bessarabia,3.0,3.0,Pale,New Russia,0,752.0,4355.0,1.0,mestechko,,,4355.0,,Bessarabia,Bendery,46.5214777,28.7832993,"Cimișlia, Moldova",265099170.0,Q2019719,,1.0,matched_db_api
Manzyr',0303Mn1,Bessarabia,3.0,3.0,Pale,New Russia,0,310.0,1079.0,1.0,mestechko,,Possible some connection with Lambrovka not mentioned in census lists,1079.0,,Bessarabia,Bendery,46.467018,29.350321,"Лісне, Одеська область, Україна",1105027826.0,Q387287,,1.0,matched_reverse
Novye Kaushany,0303Nv1,Bessarabia,3.0,3.0,Pale,New Russia,0,1675.0,3729.0,1.0,mestechko,,,3729.0,,Bessarabia,Bendery,46.6495405,29.4067719,"Căușeni, Moldova",265099168.0,Q657744,,1.0,matched_refined
Petrovka,0303Pt1,Bessarabia,3.0,3.0,Pale,New Russia,0,611.0,1740.0,1.0,mestechko,,According to Chaga (name of the river as well) I would suggest this destination to it,1740.0,,Bessarabia,Bendery,46.974685,29.0876527,"Mereni, Moldova",12500498226.0,,,0.875,matched_db_api
Romanovka,0303Rm1,Bessarabia,3.0,3.0,Pale,New Russia,0,1142.0,1622.0,1.0,derevnia,,,1622.0,,Bessarabia,Bendery,46.3344133,28.9612962,"Романовка, Basarabeasca, Raionul Basarabeasca, Moldova",13051971319.0,,,1.0,matched_nominatim
Aleksandreny,0304Al1,Bessarabia,3.0,4.0,Pale,New Russia,0,1190.0,1253.0,1.0,koloniia,,,1253.0,,Bessarabia,Bieltsy,47.8103129,28.0837775,"Alexăndreni, Moldova",281161097.0,Q2448236,,1.0,matched_db_api
Bel'tsy,0304Bl1,Bessarabia,3.0,4.0,Pale,New Russia,0,10348.0,18478.0,1.0,Uezdnyi gorod,,,18478.0,,Bessarabia,Bieltsy,47.7623952,27.9286022,"Bălți, Moldova",266185307.0,Q37801,בלץ,1.0,matched_db_api
Buteshty Stavry,0304Bt1,Bessarabia,3.0,4.0,Pale,New Russia,0,108.0,674.0,1.0,selo,,http://ru.wikisource.org/wiki/%D0%A1%D0%B1%D0%BE%D1%80%D0%BD%D0%B8%D0%BA_%D0%B1%D0%BE%D0%B5%D0%B2%D1%8B%D1%85_%D0%B4%D0%BE%D0%BA%D1%83%D0%BC%D0%B5%D0%BD%D1%82%D0%BE%D0%B2/38/062,674.0,,Bessarabia,Bieltsy,47.3,28.91667,Buteshty Stavry (Broneshty),,,,,legacy_coords
Foleshty,0304Fl1,Bessarabia,3.0,4.0,Pale,New Russia,0,4518.0,6672.0,1.0,mestechko,,,6672.0,note_appended,Bessarabia,Bieltsy,47.5735141,27.7068016,"Fălești, Moldova",265099157.0,Q2078085,,0.875,matched_db_api
Korneshty,0304Kr1,Bessarabia,3.0,4.0,Pale,New Russia,0,552.0,2689.0,1.0,selo,,,2689.0,,Bessarabia,Bieltsy,47.3564908,28.0091608,"Cornești, Moldova",262634522.0,Q2452920,,1.0,matched_db_api
Pyrlitsa,0304Py1,Bessarabia,3.0,4.0,Pale,New Russia,0,494.0,722.0,1.0,poselok,,,722.0,,Bessarabia,Bieltsy,47.7395891,27.8023661,"Pîrlița, Moldova",18967765.0,,,0.8,matched_reverse
Ryshkonovka,0304Ry1,Bessarabia,3.0,4.0,Pale,New Russia,0,2247.0,3246.0,1.0,mestechko,,,3246.0,,Bessarabia,Bieltsy,47.9535987,27.5514453,"Rîșcani, Moldova",265099150.0,Q1022131,,1.0,matched_refined
Skuliany,0304Sk1,Bessarabia,3.0,4.0,Pale,New Russia,0,1555.0,3375.0,1.0,mestechko,,,3375.0,,Bessarabia,Bieltsy,47.3140503,27.605704,"Sculeni, Victoria, Zona Metropolitană Iași, Iași, 707584, România",2028965166.0,Q12153433,,0.8,matched_nominatim
Ungeny,0304Un1,Bessarabia,3.0,4.0,Pale,New Russia,0,997.0,1693.0,1.0,poselok,,,1693.0,,Bessarabia,Bieltsy,47.2059965,27.798917,"Ungheni, Moldova",261076253.0,Q858713,אונגני,1.0,matched_refined
Valialui Vlad,0304Vl1,Bessarabia,3.0,4.0,Pale,New Russia,0,1318.0,1349.0,1.0,koloniia,,,1349.0,,Bessarabia,Bieltsy,47.4822493,28.1268665,"Valea lui Vlad, Dumbrăvița, Raionul Sîngerei, Moldova",281159656.0,Q4103165,,0.963,matched_nominatim
Bolgrad,0305Bl1,Bessarabia,3.0,5.0,Pale,New Russia,0,1196.0,12300.0,1.0,zashtatnyi gorod,,A Gorod with less than 10% Jews (number of Jews is from Guberniyas volumes),12300.0,,Bessarabia,Izmail,45.6779137,28.6132404,"Болград, Болградська міська громада, Болградський район, Одеська область, 68733, Україна",337693965.0,Q890122,,1.0,matched_nominatim
Baimakliia,0305Bm1,Bessarabia,3.0,5.0,Pale,New Russia,0,397.0,1821.0,1.0,selo,,,1821.0,,Bessarabia,Izmail,46.1871843,28.3774494,"Baimaclia, Moldova",274074856.0,Q1776387,,1.0,matched_db_api
Izmail,0305Iz1,Bessarabia,3.0,5.0,Pale,New Russia,0,2780.0,22295.0,1.0,Uezdnyi gorod,,,22295.0,,Bessarabia,Izmail,45.3511307,28.8361514,"Ізмаїл, Ізмаїльська міська громада, Ізмаїльський район, Одеська область, 68600-68633, Україна",337696139.0,Q147739,איזמאיל,1.0,matched_nominatim
Kagul,0305Kg1,Bessarabia,3.0,5.0,Pale,New Russia,0,801.0,7077.0,1.0,zashtatnyi gorod,,,7077.0,,Bessarabia,Izmail,45.9044087,28.1946583,"Cahul, Moldova",265099177.0,Q503469,קאחול,1.0,matched_db_api
Kyliia,0305Ky1,Bessarabia,3.0,5.0,Pale,New Russia,0,2153.0,11618.0,1.0,zashtatnyi gorod,,,11618.0,,Bessarabia,Izmail,45.4409767,29.2652788,"Кілія, Кілійська міська громада, Ізмаїльський район, Одеська область, 68300-68303, Україна",337695449.0,Q889966,קיליה,0.833,matched_nominatim
Leovo,0305Lv1,Bessarabia,3.0,5.0,Pale,New Russia,0,2773.0,4877.0,1.0,mestechko,,,4877.0,,Bessarabia,Izmail,46.4831855,28.265199,"Leova, Moldova",19113653.0,,,0.8,matched_nominatim
Reni,0305Rn1,Bessarabia,3.0,5.0,Pale,New Russia,0,730.0,6941.0,1.0,zashtatnyi gorod,,,6941.0,,Bessarabia,Izmail,45.455413,28.2790948,"Рені, Ренійська міська громада, Ізмаїльський район, Одеська область, 68800-68809, Україна",337695416.0,Q890311,,1.0,matched_nominatim
Isakova,0306Is1,Bessarabia,3.0,6.0,Pale,New Russia,1,,,,koloniia,unknown,Jewish colony since the end of XIX century,,unknown,Bessarabia,Orgieev,47.3708104,28.7176372,"Isacova, Moldova",18966839.0,,,0.857,matched_reverse
Kriulian,0306Kr1,Bessarabia,3.0,6.0,Pale,New Russia,0,338.0,2054.0,1.0,mestechko,,,2054.0,,Bessarabia,Orgieev,47.2132673,29.1599485,"Criuleni, Moldova",273129425.0,Q997029,,0.941,matched_db_api
Olishkany,0306Ol1,Bessarabia,3.0,6.0,Pale,New Russia,0,341.0,2943.0,1.0,selo,,,2943.0,,Bessarabia,Orgieev,47.7990172,28.7144975,"Olișcani, Moldova",281155443.0,Q2447223,,1.0,matched_db_api
Orgieev,0306Or1,Bessarabia,3.0,6.0,Pale,New Russia,0,7144.0,12336.0,1.0,Uezdnyi gorod,,,12336.0,,Bessarabia,Orgieev,47.3681328,28.8271393,"Orhei, Moldova",1333215830.0,Q423258,,0.923,matched_nominatim
Rezena,0306Rz1,Bessarabia,3.0,6.0,Pale,New Russia,0,3182.0,3652.0,1.0,mestechko,,,3652.0,,Bessarabia,Orgieev,47.7489209,28.9565739,"Rezina, Moldova",4674764082.0,Q2281181,,0.833,matched_db_api
Teleneshty,0306Tl1,Bessarabia,3.0,6.0,Pale,New Russia,0,3876.0,4379.0,1.0,mestechko,,,4379.0,,Bessarabia,Orgieev,47.5030998,28.3638314,"Telenești, Moldova",265099158.0,Q647051,,1.0,matched_db_api
Tuzora,0306Tz1,Bessarabia,3.0,6.0,Pale,New Russia,0,4593.0,5153.0,1.0,mestechko,,,5153.0,,Bessarabia,Orgieev,47.2418847,28.3041866,"Tuzara, Moldova",278468973.0,Q2454354,,0.833,matched_db_api
Vysshie Samashkony,0306Vy1,Bessarabia,3.0,6.0,Pale,New Russia,0,79.0,678.0,1.0,selo,,,678.0,,Bessarabia,Orgieev,47.7547863,28.6924283,"Sămășcani, Moldova",19080665.0,Q1991127,,0.643,matched_reverse
Ataki,0307At1,Bessarabia,3.0,7.0,Pale,New Russia,0,4690.0,6976.0,1.0,mestechko,,,6976.0,,Bessarabia,Soroki,48.437605,27.7916711,"Otaci, Moldova",283853454.0,Q2608576,,1.0,matched_db_api
Bricheva,0307Br1,Bessarabia,3.0,7.0,Pale,New Russia,0,1598.0,1644.0,1.0,koloniia,,,1644.0,,Bessarabia,Soroki,48.11138,27.6493716,"Briceva, Moldova",283559474.0,Q4096633,,1.0,matched_db_api
Dombroveny,0307Dm1,Bessarabia,3.0,7.0,Pale,New Russia,0,1726.0,1815.0,1.0,koloniia,,,1815.0,,Bessarabia,Soroki,48.0518203,28.2259698,"Dumbrăveni, Moldova",281905624.0,,,0.8,matched_db_api
Kapreshty,0307Kp1,Bessarabia,3.0,7.0,Pale,New Russia,0,866.0,1002.0,1.0,koloniia,,Different name in census but exactly the same population,1002.0,,Bessarabia,Soroki,47.7533722,28.4649435,"Căprești, Moldova",281158638.0,Q4213203,,0.824,matched_db_api
Kremenchuk,0307Kr1,Bessarabia,3.0,7.0,Pale,New Russia,0,291.0,985.0,1.0,selo,,,985.0,,Bessarabia,Soroki,48.2740004,28.0834272,Cremenciug,282047160.0,Q1990607,,0.9,matched_db_api
Kot Markuleshty,0307Kt1,Bessarabia,3.0,7.0,Pale,New Russia,0,1336.0,1339.0,1.0,koloniia,,Different name in census but exactly the same population,1339.0,,Bessarabia,Soroki,47.8693441,28.2415422,"Mărculești, Moldova",281158770.0,Q2608314,,0.846,matched_db_api
Liublin,0307Lb1,Bessarabia,3.0,7.0,Pale,New Russia,0,512.0,517.0,1.0,koloniia,,Coordinates added 191005,517.0,,Bessarabia,Soroki,48.1126793,28.5375654,"Nimereuca, Moldova",281908369.0,Q2446124,,1.0,matched_refined
Pogorno-Rezesh,0307Pg1,Bessarabia,3.0,7.0,Pale,New Russia,0,73.0,540.0,1.0,derevnia,,,540.0,,Bessarabia,Soroki,47.8327305,28.4994684,"Pohoarna, Moldova",281155452.0,Q1990771,,1.0,matched_refined
Ruda,0307Rd1,Bessarabia,3.0,7.0,Pale,New Russia,0,127.0,1289.0,1.0,selo,,,1289.0,,Bessarabia,Soroki,48.3265845,27.9008939,"Rudi, Moldova",282047386.0,Q1962859,,0.857,matched_db_api
Subbotovka,0307Sb1,Bessarabia,3.0,7.0,Pale,New Russia,1,,,,derevnia,unknown,"Not mentioned in lists of census, found accidently, searching on Wikimapia",,unknown,Bessarabia,Soroki,48.3302176,28.0031797,"Суботівка, Вінницька область, Україна",337602312.0,Q4445003,,1.0,matched_reverse
Soroki,0307Sr1,Bessarabia,3.0,7.0,Pale,New Russia,0,8783.0,15351.0,1.0,Uezdnyi gorod,,,15351.0,,Bessarabia,Soroki,48.1542664,28.2883476,"Soroca, Raionul Soroca, Moldova",243320566.0,Q853785,,1.0,matched_nominatim
Vad,0307Vd1,Bessarabia,3.0,7.0,Pale,New Russia,0,3237.0,4641.0,1.0,mestechko,,,4641.0,,Bessarabia,Soroki,47.93333,28.81667,Vad (Vad-Rashkov),,,,,legacy_coords
Vertiuzhany,0307Vr1,Bessarabia,3.0,7.0,Pale,New Russia,0,1047.0,1057.0,1.0,koloniia,,Remains of settlement can be seen on Wikimapia,1057.0,,Bessarabia,Soroki,47.9927181,28.539332,"Vertiujeni, Moldova",281158737.0,Q2440660,,1.0,matched_db_api
Zguritse,0307Zg1,Bessarabia,3.0,7.0,Pale,New Russia,0,1802.0,2107.0,1.0,koloniia,,,2107.0,,Bessarabia,Soroki,48.1269757,28.0099677,"Zgurița, Moldova",283556371.0,Q2439578,,0.875,matched_db_api
Ataki,0308At1,Bessarabia,3.0,8.0,Pale,New Russia,0,123.0,831.0,1.0,selo,,,831.0,,Bessarabia,Khotin,48.437605,27.7916711,"Otaci, Moldova",283853454.0,Q2608576,,1.0,matched_db_api
Bolboka,0308Bl1,Bessarabia,3.0,8.0,Pale,New Russia,0,89.0,829.0,1.0,selo,,http://ru.wikisource.org/wiki/%D0%A3%D0%BA%D0%B0%D0%B7_%D0%9F%D1%80%D0%B5%D0%B7%D0%B8%D0%B4%D0%B8%D1%83%D0%BC%D0%B0_%D0%92%D0%A1_%D0%A1%D0%A1%D0%A1%D0%A0_%D0%BE%D1%82_4.11.1940_%D0%BE%D0%B1_%D1%83%D1%81%D1%82%D0%B0%D0%BD%D0%BE%D0%B2%D0%BB%D0%B5,829.0,,Bessarabia,Khotin,48.3691361,27.2060605,"Bulboaca, Moldova",19034082.0,Q2436781,,0.8,matched_reverse
Brakha,0308Br1,Bessarabia,3.0,8.0,Pale,New Russia,1,,,,selo,unknown,"Not mentioned in lists of census, found accidently, searching on Wikimapia on the opposite side of the Khotin river coast",,unknown,Bessarabia,Khotin,48.518711,26.512409,Брага,337595773.0,Q4095620,,0.909,matched_db_api
Brichany,0308Br2,Bessarabia,3.0,8.0,Pale,New Russia,0,7184.0,7446.0,1.0,mestechko,,,7446.0,,Bessarabia,Khotin,48.3613276,27.0849008,"Briceni, Moldova",265099144.0,Q2019727,,1.0,matched_db_api
Chepeliutsy,0308Cp1,Bessarabia,3.0,8.0,Pale,New Russia,0,163.0,1555.0,1.0,selo,,,1555.0,,Bessarabia,Khotin,48.3026571,27.3070451,"Cepeleuți, Moldova",283816061.0,,,0.909,matched_db_api
Edintsy,0308Ed1,Bessarabia,3.0,8.0,Pale,New Russia,0,7379.0,10211.0,1.0,mestechko,,,10211.0,,Bessarabia,Khotin,48.1684275,27.2984813,"Edineț, Moldova",265099147.0,Q1150271,,1.0,matched_db_api
Klishkovtsy,0308Kl1,Bessarabia,3.0,8.0,Pale,New Russia,0,1000.0,7707.0,1.0,selo,,,7707.0,,Bessarabia,Khotin,48.430443,26.259632,"Клішківці, Клішковецька сільська громада, Дністровський район, Чернівецька область, 60014, Україна",288288083.0,Q2090239,,1.0,matched_nominatim
Khotin,0308Kt1,Bessarabia,3.0,8.0,Pale,New Russia,0,9227.0,18398.0,1.0,Uezdnyi gorod,,,18398.0,,Bessarabia,Khotin,48.5068418,26.4859086,"Хотин, Чернівецька область, Україна",268080348.0,Q45883,חוטין,1.0,matched_db_api
Lipkony,0308Lp1,Bessarabia,3.0,8.0,Pale,New Russia,0,4410.0,6865.0,1.0,mestechko,,Different name in census but exactly the same population,6865.0,,Bessarabia,Khotin,48.2649946,26.8077363,"Lipcani, Moldova",283838177.0,Q1827367,,0.857,matched_db_api
Neporotovo,0308Np1,Bessarabia,3.0,8.0,Pale,New Russia,0,268.0,1631.0,1.0,selo,,,1631.0,,Bessarabia,Khotin,48.605522,27.2829873,"Непоротове, Чернівецька область, Україна",337592268.0,Q2090020,,1.0,matched_reverse
Novoselitsy,0308Nv1,Bessarabia,3.0,8.0,Pale,New Russia,0,3898.0,5891.0,1.0,mestechko,,,5891.0,,Bessarabia,Khotin,48.2179594,26.2664831,"Новоселиця, Новоселицька міська громада, Чернівецький район, Чернівецька область, 60300, Україна",217289029.0,Q149030,נובוסליצה,0.909,matched_nominatim
Rzhavintsy,0308Rz1,Bessarabia,3.0,8.0,Pale,New Russia,0,369.0,2140.0,1.0,selo,,Different name in census but close by name and by other local countries mentioned in Jewish encyclopedy of Brokhauz and Efron,2140.0,,Bessarabia,Khotin,48.507038,26.06712,Ржавинці,337596131.0,Q4394173,,1.0,matched_db_api
Sekuriany,0308Sk1,Bessarabia,3.0,8.0,Pale,New Russia,0,5042.0,8982.0,1.0,selo,,,8982.0,,Bessarabia,Khotin,48.4460307,27.411193,"Сокиряни, Сокирянська міська громада, Дністровський район, Чернівецька область, 60200-60207, Україна",217289242.0,Q149173,,1.0,matched_refined
Voloshkovo,0308Vl1,Bessarabia,3.0,8.0,Pale,New Russia,0,119.0,1050.0,1.0,selo,,,1050.0,,Bessarabia,Khotin,48.470989,27.499121,"Волошкове, Чернівецька область, Україна",337597346.0,Q4124126,,1.0,matched_reverse
Iaisa,04.Is1,Vilnius,,,Pale,Lithuania,1,,,0.0,,,Mentioned in Jewishgen but not in the census,,unknown,,,55.4167,27.0833,Iaisa,,,,,legacy_coords
Antokol',0401An1,Vilnius,4.0,1.0,Pale,Lithuania,1,,,0.0,,,Mentioned in Jewishgen but not in the census,,unknown,Vilnius,Vilnius,54.7056388,25.3145377,"Antakalnis, Antakalnio seniūnija, Vilnius, Vilniaus miesto savivaldybė, Vilniaus apskritis, Lietuva",32332874.0,Q570649,,1.0,matched_nominatim
Boguslavishki,0401Bg1,Vilnius,4.0,1.0,Pale,Lithuania,1,,,0.0,,,Mentioned in Jewishgen but not in the census,,unknown,Vilnius,Vilnius,55.0769881,24.7774088,"Bagaslaviškis, Gelvonų seniūnija, Vilniaus apskritis, Lietuva",1271387157.0,Q12649954,,0.846,matched_db_api
Bol'shie Solochniki,0401Bl1,Vilnius,4.0,1.0,Pale,Lithuania,0,207.0,586.0,1.0,selo,,,586.0,,Vilnius,Vilnius,54.3089991,25.3821472,"Šalčininkai, Šalčininkų seniūnija, Vilniaus apskritis, Lietuva",289972744.0,Q391011,שלצ'ינינקאי,1.0,matched_refined
Bystritsa,0401By1,Vilnius,4.0,1.0,Pale,Lithuania,1,,,0.0,,,Mentioned in Jewishgen but not in the census,,unknown,Vilnius,Vilnius,54.7990701,25.875701,"Варнянскі сельскі Савет, Астравецкі раён, Гродзенская вобласць, Беларусь",242995642.0,Q3920685,,1.0,matched_db_api
Bezdany,0401Bz1,Vilnius,4.0,1.0,Pale,Lithuania,1,,,0.0,,,Mentioned in Jewishgen but not in the census,,unknown,Vilnius,Vilnius,54.8031795,25.5187481,"Bezdonių seniūnija, Vilniaus rajono savivaldybė, Vilniaus apskritis, Lietuva",356751586.0,Q853452,,1.0,matched_db_api
Chabishki,0401Cb1,Vilnius,4.0,1.0,Pale,Lithuania,1,,,0.0,,,Mentioned in Jewishgen but not in the census,,unknown,Vilnius,Vilnius,54.9540963,24.6598973,"Čiobiškis, Čiobiškio seniūnija, Širvintų rajono savivaldybė, Vilniaus apskritis, Lietuva",1751386830.0,Q12679242,,1.0,matched_refined
Dubinki,0401Db1,Vilnius,4.0,1.0,Pale,Lithuania,1,,,0.0,,,Mentioned in Jewishgen but not in the census,,unknown,Vilnius,Vilnius,55.0585136,25.4498643,"Dubingiai, Dubingių seniūnija, Molėtų rajono savivaldybė, Utenos apskritis, Lietuva",290359383.0,Q1883864,,1.0,matched_nominatim
Gedroitsy,0401Gd1,Vilnius,4.0,1.0,Pale,Lithuania,0,357.0,548.0,1.0,mestechko,,,548.0,,Vilnius,Vilnius,55.0734157,25.2612495,"Giedraičiai, Giedraičių seniūnija, Molėtų rajono savivaldybė, Utenos apskritis, Lietuva",307745519.0,Q3068575,,1.0,matched_refined
Gelvani,0401Gl1,Vilnius,4.0,1.0,Pale,Lithuania,0,374.0,523.0,1.0,mestechko,,,523.0,,Vilnius,Vilnius,55.0666904,24.6922301,"Gelvonai, Gelvonų seniūnija, Širvintų rajono savivaldybė, Vilniaus apskritis, Lietuva",1271387198.0,Q2046850,,0.8,matched_nominatim
Inturki,0401In1,Vilnius,4.0,1.0,Pale,Lithuania,1,,,0.0,,,Mentioned in Jewishgen but not in the census,,unknown,Vilnius,Vilnius,55.15964,25.561491,"Inturkė, Inturkės seniūnija, Molėtų rajono savivaldybė, Utenos apskritis, Lietuva",307740231.0,Q12656820,אינטורקה,1.0,matched_nominatim
Iashuny,0401Is1,Vilnius,4.0,1.0,Pale,Lithuania,1,,,0.0,,,Mentioned in Jewishgen but not in the census,,unknown,Vilnius,Vilnius,54.4395719,25.3300192,"Keturiai, Jašiūnų seniūnija, Vilniaus apskritis, Lietuva",2158761438.0,Q12657406,,1.0,matched_db_api
Kalvariskie snipishki,0401Kl1,Vilnius,4.0,1.0,Pale,Lithuania,1,,,0.0,,,Mentioned in Jewishgen but not in the census,,unknown,Vilnius,Vilnius,54.7020544,25.2752872,"Šnipiškių seniūnija, Vilnius, Vilniaus miesto savivaldybė, Vilniaus apskritis, Lietuva",1252013.0,Q12680105,,manual,matched_manual
Kernovo,0401Kr1,Vilnius,4.0,1.0,Pale,Lithuania,1,,,0.0,,,Mentioned in Jewishgen but not in the census,,unknown,Vilnius,Vilnius,54.8863237,24.8539683,"Kernavė, Kernavės seniūnija, Vilniaus apskritis, Lietuva",60460997.0,Q215315,קרנאווה,1.0,matched_refined
Laibishki,0401Lb1,Vilnius,4.0,1.0,Pale,Lithuania,1,,,0.0,,,Mentioned in Jewishgen but not in the census,,unknown,Vilnius,Vilnius,54.4784612,25.5391764,"Laibiškės, Medininkų seniūnija, Vilniaus rajono savivaldybė, Vilniaus apskritis, Lietuva",1406048423.0,Q16457927,,1.0,matched_refined
Mikhalishki,0401Mk1,Vilnius,4.0,1.0,Pale,Lithuania,0,951.0,1224.0,1.0,mestechko,,#NAME?,1224.0,,Vilnius,Vilnius,54.8128921,26.1600209,"Міхалішкі, Астравецкі раён, Гродзенская вобласць, Беларусь",242997278.0,Q3917249,,1.0,matched_db_api
Maliaty,0401Ml1,Vilnius,4.0,1.0,Pale,Lithuania,0,1948.0,2397.0,1.0,mestechko,,,2397.0,,Vilnius,Vilnius,55.2319273,25.419316,"Molėtai, Molėtų rajono savivaldybė, Utenos apskritis, Lietuva",32592592.0,Q957530,,0.923,matched_db_api
Meishagola,0401Ms1,Vilnius,4.0,1.0,Pale,Lithuania,0,109.0,920.0,1.0,mestechko,,,920.0,,Vilnius,Vilnius,54.871362,25.0643171,"Maišiagala, Maišiagalos seniūnija, Vilniaus apskritis, Lietuva",33692800.0,Q3494848,מיישגולה,0.8,matched_db_api
Musniki,0401Ms2,Vilnius,4.0,1.0,Pale,Lithuania,1,,,0.0,,,Mentioned in Jewishgen but not in the census,,unknown,Vilnius,Vilnius,54.9480474,24.8421207,"Musninkai, Musninkų seniūnija, Vilniaus apskritis, Lietuva",287439810.0,Q2486211,,1.0,matched_db_api
Niemenchin,0401Nm1,Vilnius,4.0,1.0,Pale,Lithuania,0,639.0,886.0,1.0,mestechko,,,886.0,,Vilnius,Vilnius,54.8476292,25.4689647,"Nemenčinė, Nemenčinės miesto seniūnija, Vilniaus apskritis, Lietuva",60023133.0,Q118910,,0.9,matched_db_api
Novo-Vileisk,0401Nv1,Vilnius,4.0,1.0,Pale,Lithuania,1,,,0.0,,,Mentioned in Jewishgen but not in the census,,unknown,Vilnius,Vilnius,54.6908669,25.421441,"Naujoji Vilnia, Naujosios Vilnios seniūnija, Vilnius, Vilniaus miesto savivaldybė, Vilniaus apskritis, Lietuva",50125156.0,Q937667,,1.0,matched_refined
Ostrovets,0401Os1,Vilnius,4.0,1.0,Pale,Lithuania,1,,,0.0,,,Mentioned in Jewishgen but not in the census,,unknown,Vilnius,Vilnius,54.6149379,25.9565998,"Астравец, Астравецкі раён, Гродзенская вобласць, Беларусь",242978913.0,Q261024,אסטרבייץ,1.0,matched_db_api
Podberezy,0401Pd1,Vilnius,4.0,1.0,Pale,Lithuania,0,556.0,688.0,1.0,mestechko,,,688.0,,Vilnius,Vilnius,54.9426403,25.235597,Paberžė,307747170.0,Q5620453,,0.737,matched_db_api
Peski,0401Ps1,Vilnius,4.0,1.0,Pale,Lithuania,0,197.0,1740.0,1.0,prigorod,,,1740.0,,Vilnius,Vilnius,53.3504065,24.623711,"Пескі, Мастоўскі раён, Гродзенская вобласць, Беларусь",242985766.0,Q140224,,1.0,matched_db_api
Rudomino,0401Rd1,Vilnius,4.0,1.0,Pale,Lithuania,1,,,0.0,,,Mentioned in Jewishgen but not in the census,,unknown,Vilnius,Vilnius,54.5816635,25.3902838,"Rudamina, Antupiai, Rudaminos seniūnija, Vilniaus rajono savivaldybė, Vilniaus apskritis, Lietuva",337991791.0,,,0.824,matched_nominatim
Soltanishki,0401Sl1,Vilnius,4.0,1.0,Pale,Lithuania,0,413.0,1440.0,1.0,prigorod,,,1440.0,,Vilnius,Vilnius,54.7013476,25.256753,Saltoniškės,5663341891.0,Q12672261,,0.909,matched_db_api
Shirvinty,0401Sr1,Vilnius,4.0,1.0,Pale,Lithuania,0,1413.0,1864.0,1.0,mestechko,,,1864.0,,Vilnius,Vilnius,55.0514295,24.9516122,"Širvintos, Širvintų miesto seniūnija, Vilniaus apskritis, Lietuva",60461226.0,Q391764,,0.842,matched_db_api
Shesholi,0401Ss1,Vilnius,4.0,1.0,Pale,Lithuania,1,,,0.0,,,Mentioned in Jewishgen but not in the census,,unknown,Vilnius,Vilnius,55.1792707,24.9699569,"Šešuoliai, Šešuolių seniūnija, Ukmergės rajono savivaldybė, Vilniaus apskritis, Lietuva",421338869.0,Q8082771,,1.0,matched_refined
Tsekhanovishki,0401Ts1,Vilnius,4.0,1.0,Pale,Lithuania,1,,,0.0,,,Mentioned in Jewishgen but not in the census,,unknown,Vilnius,Vilnius,54.7361475,25.0808516,"Čekoniškės, Zujūnų seniūnija, Vilniaus apskritis, Lietuva",316032610.0,Q338321,,1.0,matched_refined
Vil'na,0401Vl1,Vilnius,4.0,1.0,Pale,Lithuania,0,63996.0,154532.0,1.0,Gubernskii gorod,,,154532.0,,Vilnius,Vilnius,54.6870458,25.2829111,"Vilnius, Vilniaus miesto savivaldybė, Vilniaus apskritis, Lietuva",27193093.0,Q216,וילנה,1.0,matched_db_api
Vileika,0401Vl2,Vilnius,4.0,1.0,Pale,Lithuania,0,346.0,3350.0,1.0,selo,,,3350.0,,Vilnius,Vilnius,54.4880686,26.9145229,"Вілейка, Вілейскі раён, Мінская вобласць, Беларусь",242978923.0,Q181632,וילייקה,1.0,matched_db_api
Vorniany,0401Vr1,Vilnius,4.0,1.0,Pale,Lithuania,1,,,0.0,,,Mentioned in Jewishgen but not in the census,,unknown,Vilnius,Vilnius,54.7263876,26.0054119,"Варняны, Астравецкі раён, Гродзенская вобласць, Беларусь",242995611.0,Q82271,,1.0,matched_db_api
Zakret,0401Zk1,Vilnius,4.0,1.0,Pale,Lithuania,0,170.0,1594.0,1.0,Prigorod,,,1594.0,,Vilnius,Vilnius,54.68333,25.23333,Zakret,,,,,legacy_coords
Budslav,0402Bd1,Vilnius,4.0,2.0,Pale,Lithuania,1,,,0.0,,,Mentioned in Jewishgen but not in the census,,unknown,Vilnius,Vileika,54.786885,27.4536992,"Будслаў, Мядзельскі раён, Мінская вобласць, Беларусь",243010530.0,Q2993992,,1.0,matched_db_api
Dolginov,0402Dl1,Vilnius,4.0,2.0,Pale,Lithuania,0,2559.0,3551.0,1.0,mestechko,,,3551.0,,Vilnius,Vileika,54.6456778,27.4762063,"Даўгінава, Вілейскі раён, Мінская вобласць, Беларусь",243012885.0,Q2029657,,0.941,matched_db_api
Dunilovichi,0402Dn1,Vilnius,4.0,2.0,Pale,Lithuania,0,1553.0,1810.0,1.0,mestechko,,,1810.0,,Vilnius,Vileika,55.0754285,27.2344135,"Дунілавічы, Пастаўскі раён, Віцебская вобласць, Беларусь",243011661.0,Q3917466,,1.0,matched_db_api
Gorodok,0402Gr1,Vilnius,4.0,2.0,Pale,Lithuania,0,1230.0,1603.0,1.0,mestechko,,,1603.0,,Vilnius,Vileika,54.1570388,26.9192441,"Гарадок, Маладзечанскі раён, Мінская вобласць, Беларусь",243003397.0,Q36820,,1.0,matched_db_api
Iliia,0402Il1,Vilnius,4.0,2.0,Pale,Lithuania,0,829.0,1431.0,1.0,mestechko,,,1431.0,,Vilnius,Vileika,54.4140345,27.2911075,"Ілья, Вілейскі раён, Мінская вобласць, Беларусь",243011350.0,Q5213666,,0.889,matched_db_api
Kraisk,0402Kr1,Vilnius,4.0,2.0,Pale,Lithuania,0,549.0,629.0,1.0,mestechko,,,629.0,,Vilnius,Vileika,54.5220301,27.5002284,"Крайск, Лагойскі раён, Мінская вобласць, Беларусь",243012824.0,Q13028173,,1.0,matched_db_api
Krasnoe,0402Kr2,Vilnius,4.0,2.0,Pale,Lithuania,0,573.0,1077.0,1.0,mestechko,,,1077.0,,Vilnius,Vileika,54.249104,27.078309,"Краснае, Маладзечанскі раён, Мінская вобласць, Беларусь",243009124.0,Q3917896,,1.0,matched_db_api
Krivichi,0402Kr3,Vilnius,4.0,2.0,Pale,Lithuania,0,457.0,520.0,1.0,mestechko,,,520.0,,Vilnius,Vileika,54.7141707,27.2895903,"Крывічы, Мядзельскі раён, Мінская вобласць, Беларусь",242979030.0,Q2659553,קריביצ'י,1.0,matched_db_api
Kurenets,0402Kr4,Vilnius,4.0,2.0,Pale,Lithuania,0,1613.0,1774.0,1.0,mestechko,,,1774.0,,Vilnius,Vileika,54.5554547,26.9642369,"Куранец, Вілейскі раён, Мінская вобласць, Беларусь",243008981.0,Q13029781,,1.0,matched_db_api
Lebedev,0402Lb1,Vilnius,4.0,2.0,Pale,Lithuania,0,1232.0,2275.0,1.0,mestechko,,,2275.0,,Vilnius,Vileika,54.3142698,26.7064608,"Лебядзева, Маладзечанскі раён, Мінская вобласць, Беларусь",242999695.0,Q2782945,,0.933,matched_db_api
Molodechno,0402Ml1,Vilnius,4.0,2.0,Pale,Lithuania,0,1105.0,2393.0,1.0,mestechko,,,2393.0,,Vilnius,Vileika,54.3073327,26.8389111,"Маладзечна, Маладзечанскі раён, Мінская вобласць, Беларусь",1816928488.0,Q201203,מלדזייצ'נה,1.0,matched_db_api
Nivki,0402Nv1,Vilnius,4.0,2.0,Pale,Lithuania,1,,,0.0,,,Mentioned in Jewishgen but not in the census,,unknown,Vilnius,Vileika,54.643589,27.12001,"Княгінінскі сельскі Савет, Мядзельскі раён, Мінская вобласць, Беларусь",243011382.0,Q6522645,,1.0,matched_db_api
Novyi Miadziol,0402Nv2,Vilnius,4.0,2.0,Pale,Lithuania,0,436.0,1164.0,1.0,mestechko,,,1164.0,,Vilnius,Vileika,54.8707533,26.9299904,"Мядзел, Мядзельскі раён, Мінская вобласць, Беларусь",242978928.0,Q201218,,1.0,matched_refined
Parafianovo,0402Pr1,Vilnius,4.0,2.0,Pale,Lithuania,1,,,0.0,,,Mentioned in Jewishgen but not in the census,,unknown,Vilnius,Vileika,54.8775146,27.6040096,"Парафʼянава, Докшыцкі раён, Віцебская вобласць, Беларусь",1190756809.0,Q3919858,,1.0,matched_db_api
Radoshkovichi,0402Rd1,Vilnius,4.0,2.0,Pale,Lithuania,0,1519.0,2615.0,1.0,zashtatnyi gorod,,,2615.0,,Vilnius,Vileika,54.1596917,27.235522,"Радашковічы, Маладзечанскі раён, Мінская вобласць, Беларусь",242979029.0,Q2993986,,1.0,matched_db_api
Vileika,0402Vl1,Vilnius,4.0,2.0,Pale,Lithuania,0,1328.0,3560.0,1.0,Uezdnyi gorod,,,3560.0,,Vilnius,Vileika,54.4880686,26.9145229,"Вілейка, Вілейскі раён, Мінская вобласць, Беларусь",242978923.0,Q181632,וילייקה,1.0,matched_db_api
Volkolata,0402Vl2,Vilnius,4.0,2.0,Pale,Lithuania,0,69.0,543.0,1.0,selo,,,543.0,,Vilnius,Vileika,54.9274716,27.368018,Валкалата,243014077.0,Q20462374,,1.0,matched_db_api
Viazyn',0402Vz1,Vilnius,4.0,2.0,Pale,Lithuania,0,234.0,604.0,1.0,mestechko,,The district is incorrect in Jewishgen,604.0,,Vilnius,Vileika,54.4205112,27.162876,"Вязынь, Вілейскі раён, Мінская вобласць, Беларусь",243011302.0,Q143061,,1.0,matched_db_api
Druia,0403Dr1,Vilnius,4.0,3.0,Pale,Lithuania,0,3006.0,4742.0,1.0,Zashtatnyi gorod,,,4742.0,,Vilnius,Disna,55.7869548,27.464213,"Друя, Браслаўскі раён, Віцебская вобласць, Беларусь",130200330.0,Q2621918,,1.0,matched_db_api
Disna,0403Ds1,Vilnius,4.0,3.0,Pale,Lithuania,0,4617.0,6756.0,1.0,Uezdnyi gorod,,,6756.0,,Vilnius,Disna,55.5332754,28.0889639,"Дзісна, Завуццеўскі сельскі Савет, Мёрскі раён, Віцебская вобласць, Беларусь",565536011.0,Q432399,,1.0,matched_nominatim
Glubokoe,0403Gl1,Vilnius,4.0,3.0,Pale,Lithuania,0,3917.0,5564.0,1.0,mestechko,,Name of district as it mentioned in census,5564.0,,Vilnius,Disna,55.139235,27.6845787,Глыбокае,242978934.0,Q954114,גלובוקי,1.0,matched_db_api
Golubiche,0403Gl2,Vilnius,4.0,3.0,Pale,Lithuania,1,,,0.0,,,Mentioned in Jewishgen but not in the census,,unknown,Vilnius,Disna,55.1118649,27.9681082,"Галубічы, Глыбоцкі раён, Віцебская вобласць, Беларусь",243016473.0,Q1428413,,0.889,matched_db_api
Germanoviche,0403Gr1,Vilnius,4.0,3.0,Pale,Lithuania,1,,,0.0,,,Mentioned in Jewishgen but not in the census,,unknown,Vilnius,Disna,55.4138951,27.7353738,"Германавічы, Шаркаўшчынскі раён, Віцебская вобласць, Беларусь",243018475.0,Q2987254,,0.917,matched_db_api
Iody,0403Id1,Vilnius,4.0,3.0,Pale,Lithuania,1,,,0.0,,,Mentioned in Jewishgen but not in the census,,unknown,Vilnius,Disna,55.45401,27.227381,"Ёды, Шаркаўшчынскі раён, Віцебская вобласць, Беларусь",243012455.0,Q6459003,,1.0,matched_db_api
Ikazn',0403Ik1,Vilnius,4.0,3.0,Pale,Lithuania,0,78.0,673.0,1.0,selo,,,673.0,,Vilnius,Disna,55.621701,27.2585859,Іказнь,243012062.0,Q3917313,,1.0,matched_db_api
Koziany-I,0403Kz1,Vilnius,4.0,3.0,Pale,Lithuania,0,139.0,742.0,1.0,selo,,,742.0,,Vilnius,Disna,55.2975703,26.8571047,"Казяны, Браслаўскі раён, Віцебская вобласць, Беларусь",243007264.0,Q2626927,,0.933,matched_db_api
Kozlovshchina,0403Kz2,Vilnius,4.0,3.0,Pale,Lithuania,1,,,0.0,,,Mentioned in Jewishgen but not in the census,,unknown,Vilnius,Disna,53.3210996,25.2900694,"Казлоўшчына, Дзятлаўскі раён, Гродзенская вобласць, Беларусь",242979025.0,Q2478258,,1.0,matched_db_api
Leonpol',0403Ln1,Vilnius,4.0,3.0,Pale,Lithuania,1,,,0.0,,,Mentioned in Jewishgen but not in the census,,unknown,Vilnius,Disna,55.7994408,27.7843079,"Узмёнскі сельскі Савет, Мёрскі раён, Віцебская вобласць, Беларусь",243018340.0,Q3924843,,1.0,matched_db_api
Luzhki,0403Lz1,Vilnius,4.0,3.0,Pale,Lithuania,0,761.0,1672.0,1.0,mestechko,,,1672.0,,Vilnius,Disna,55.3528548,27.8686527,"Лужкі, Шаркаўшчынскі раён, Віцебская вобласць, Беларусь",243021170.0,Q3917910,,1.0,matched_db_api
Miory,0403Mr1,Vilnius,4.0,3.0,Pale,Lithuania,1,,,0.0,,,Mentioned in Jewishgen but not in the census,,unknown,Vilnius,Disna,55.622227,27.615358,"Мёры, Мёрскі раён, Віцебская вобласць, Беларусь",130200848.0,Q266841,מיורי,1.0,matched_db_api
Novo-Pogost,0403Nv1,Vilnius,4.0,3.0,Pale,Lithuania,0,118.0,607.0,1.0,mestechko,,,607.0,,Vilnius,Disna,55.4945072,27.4788907,"Новы Пагост, Мёрскі раён, Віцебская вобласць, Беларусь",243013435.0,Q11700512,,0.818,matched_db_api
Plisa,0403Pl1,Vilnius,4.0,3.0,Pale,Lithuania,0,366.0,899.0,1.0,mestechko,,,899.0,,Vilnius,Disna,55.2180816,27.9548642,"Пліса, Глыбоцкі раён, Віцебская вобласць, Беларусь",243016482.0,Q3917948,,1.0,matched_db_api
Perebrod'e,0403Pr1,Vilnius,4.0,3.0,Pale,Lithuania,0,176.0,675.0,1.0,mestechko,,,675.0,,Vilnius,Disna,55.6260406,27.3935707,Пераброддзе,243014562.0,Q3920743,,1.0,matched_db_api
Prozoroki,0403Pr2,Vilnius,4.0,3.0,Pale,Lithuania,1,,,0.0,,,Mentioned in Jewishgen but not in the census,,unknown,Vilnius,Disna,55.2949845,28.2187046,"Празарокі, Глыбоцкі раён, Віцебская вобласць, Беларусь",243023908.0,Q2478326,,1.0,matched_db_api
Postavy,0403Ps1,Vilnius,4.0,3.0,Pale,Lithuania,0,1310.0,2397.0,1.0,mestechko,,,2397.0,,Vilnius,Disna,55.1129217,26.83992,"Паставы, Пастаўскі раён, Віцебская вобласць, Беларусь",242978929.0,Q539012,פסטאווי,1.0,matched_db_api
Sharkovshchizna,0403Sr1,Vilnius,4.0,3.0,Pale,Lithuania,0,1007.0,1165.0,1.0,mestechko,,"No last digit in total population, need to be checked, according to http://be-x-old.wikipedia.org/wiki/%D0%A8%D0%B0%D1%80%D0%BA%D0%BE%D1%9E%D1%88%D1%87%D1%8B%D0%BD%D0%B0 - 1165",1165.0,,Vilnius,Disna,55.3657233,27.46663,"Шаркаўшчына, Шаркаўшчынскі раён, Віцебская вобласць, Беларусь",242978931.0,Q2659505,שרקובשצ'יזנה,0.966,matched_db_api
Zheludok,0403Zl1,Vilnius,4.0,3.0,Pale,Lithuania,0,1372.0,1860.0,1.0,mestechko,,,1860.0,,Vilnius,Disna,53.599599,24.9810327,"Жалудок, Шчучынскі раён, Гродзенская вобласць, Беларусь",242979021.0,Q2656523,,1.0,matched_db_api
Zaskevichi,0403Zs1,Vilnius,4.0,3.0,Pale,Lithuania,1,,,0.0,,,Mentioned in Jewishgen but not in the census,,unknown,Vilnius,Disna,54.39743,26.60322,"Заскавічы, Маладзечанскі раён, Мінская вобласць, Беларусь",242999705.0,Q16699970,,0.9,matched_db_api
Bielitsy,0404Bl1,Vilnius,4.0,4.0,Pale,Lithuania,0,679.0,1686.0,1.0,mestechko,,,1686.0,,Vilnius,Lida,53.651577,25.318424,"Беліца, Лідскі раён, Гродзенская вобласць, Беларусь",242989916.0,Q2429373,,0.8,matched_db_api
Beniakoni,0404Bn1,Vilnius,4.0,4.0,Pale,Lithuania,1,,,0.0,,,Mentioned in Jewishgen but not in the census,,unknown,Vilnius,Lida,54.25014,25.35902,"Беняконі, Воранаўскі раён, Гродзенская вобласць, Беларусь",242991281.0,Q3646802,,1.0,matched_db_api
Dubrovo,0404Db1,Vilnius,4.0,4.0,Pale,Lithuania,1,,,0.0,,,Mentioned in Jewishgen but not in the census,,unknown,Vilnius,Lida,53.55904,25.04874,"Жалудоцкі сельскі Савет, Шчучынскі раён, Гродзенская вобласць, Беларусь",242988664.0,Q21626404,,1.0,matched_db_api
Dvortsovaia sloboda,0404Dv1,Vilnius,4.0,4.0,Pale,Lithuania,0,68.0,505.0,1.0,derevnia,,,505.0,,Vilnius,Lida,53.8739,25.296,Дварцовая-Слабада,6405891059.0,,,0.973,matched_db_api
Eishishki,0404Es1,Vilnius,4.0,4.0,Pale,Lithuania,0,2376.0,3196.0,1.0,mestechko,,,3196.0,,Vilnius,Lida,54.1686462,25.0001234,"Eišiškės, Eišiškių seniūnija, Vilniaus apskritis, Lietuva",277151877.0,Q58880,איישישוק,0.889,matched_db_api
Lida,0404Ld1,Vilnius,4.0,4.0,Pale,Lithuania,0,5294.0,9323.0,1.0,Uezdnyi gorod,,,9323.0,,Vilnius,Lida,53.891636,25.3022894,"Ліда, Лідскі раён, Гродзенская вобласць, Беларусь",242978903.0,Q241475,לידא,1.0,matched_db_api
Novyi Dvor,0404Nv1,Vilnius,4.0,4.0,Pale,Lithuania,0,664.0,822.0,1.0,mestechko,,,822.0,,Vilnius,Lida,53.8143019,24.5600829,"Новы Двор, Шчучынскі раён, Гродзенская вобласць, Беларусь",242985529.0,Q3917811,,1.0,matched_db_api
Orlia,0404Or1,Vilnius,4.0,4.0,Pale,Lithuania,0,354.0,804.0,1.0,mestechko,,,804.0,,Vilnius,Lida,53.508343,24.980995,"Орля, Шчучынскі раён, Гродзенская вобласць, Беларусь",242988552.0,Q11799230,,1.0,matched_db_api
Ostrino,0404Os1,Vilnius,4.0,4.0,Pale,Lithuania,0,1440.0,2410.0,1.0,mestechko,,,2410.0,,Vilnius,Lida,53.7309393,24.5313527,"Астрына, Шчучынскі раён, Гродзенская вобласць, Беларусь",242979002.0,Q375228,,1.0,matched_db_api
Radun',0404Rd1,Vilnius,4.0,4.0,Pale,Lithuania,0,896.0,1621.0,1.0,mestechko,,,1621.0,,Vilnius,Lida,54.0527472,24.9977637,"Радунь, Воранаўскі раён, Гродзенская вобласць, Беларусь",242979020.0,Q2995176,ראדין,1.0,matched_db_api
Rozhanka,0404Rz1,Vilnius,4.0,4.0,Pale,Lithuania,0,543.0,777.0,1.0,mestechko,,,777.0,,Vilnius,Lida,53.5358305,24.7362097,"Ражанка, Шчучынскі раён, Гродзенская вобласць, Беларусь",3311955101.0,Q2647872,,1.0,matched_db_api
Shchuchin,0404Sc1,Vilnius,4.0,4.0,Pale,Lithuania,0,1356.0,1742.0,1.0,mestechko,,,1742.0,,Vilnius,Lida,53.6045037,24.7420522,"Шчучын, Шчучынскі раён, Гродзенская вобласць, Беларусь",242978899.0,Q431779,שצ'וצ'ין,1.0,matched_db_api
Voronovo,0404Vr1,Vilnius,4.0,4.0,Pale,Lithuania,0,1432.0,1574.0,1.0,mestechko,,,1574.0,,Vilnius,Lida,54.1520519,25.3196741,"Воранава, Воранаўскі раён, Гродзенская вобласць, Беларусь",2271196832.0,Q2470394,,1.0,matched_db_api
Vasilishki,0404Vs1,Vilnius,4.0,4.0,Pale,Lithuania,0,2081.0,2781.0,1.0,mestechko,,,2781.0,,Vilnius,Lida,53.78108,24.8473,"Васілішкі, Шчучынскі раён, Гродзенская вобласць, Беларусь",7528848.0,Q2632629,,1.0,matched_reverse
Bakshty,0405Bk1,Vilnius,4.0,5.0,Pale,Lithuania,0,172.0,1461.0,1.0,selo,,Name of district as it mentioned in census,1461.0,,Vilnius,Oshmiany,53.9374669,26.1849282,"Бакшты, Іўеўскі раён, Гродзенская вобласць, Беларусь",242994884.0,Q18755585,,1.0,matched_db_api
Derevno,0405Dr1,Vilnius,4.0,5.0,Pale,Lithuania,0,350.0,851.0,1.0,mestechko,,,851.0,,Vilnius,Oshmiany,53.699451,26.566231,"Дзераўная, Стаўбцоўскі раён, Мінская вобласць, Беларусь",242997518.0,Q822415,,0.933,matched_db_api
Dzevenishki,0405Dz1,Vilnius,4.0,5.0,Pale,Lithuania,0,1225.0,1710.0,1.0,mestechko,,,1710.0,,Vilnius,Oshmiany,54.1940549,25.6259051,"Dieveniškės, Dieveniškių seniūnija, Vilniaus apskritis, Lietuva",443310907.0,Q1224305,,0.87,matched_db_api
Gaviia,0405Gv1,Vilnius,4.0,5.0,Pale,Lithuania,1,,,0.0,,,Mentioned in Jewishgen but not in the census,,unknown,Vilnius,Oshmiany,53.8359587,25.5961979,"Гаўя, Траццякоўскі сельскі Савет, Лідскі раён, Гродзенская вобласць, Беларусь",773061236.0,Q2662320,,1.0,matched_refined
Iv'e,0405Iv1,Vilnius,4.0,5.0,Pale,Lithuania,0,573.0,3653.0,1.0,mestechko,,,3653.0,,Vilnius,Oshmiany,53.9297106,25.7703798,"Іўе, Іўеўскі раён, Гродзенская вобласць, Беларусь",242978908.0,Q738777,,1.0,matched_db_api
Krevo,0405Kr1,Vilnius,4.0,5.0,Pale,Lithuania,0,809.0,2201.0,1.0,mestechko,,,2201.0,,Vilnius,Oshmiany,54.310879,26.282677,"Крэва, Смаргонскі раён, Гродзенская вобласць, Беларусь",242996339.0,Q2621007,,1.0,matched_db_api
Lipnishki,0405Lp1,Vilnius,4.0,5.0,Pale,Lithuania,0,612.0,1377.0,1.0,mestechko,,,1377.0,,Vilnius,Oshmiany,54.0063484,25.6070857,"Ліпнішкі, Іўеўскі раён, Гродзенская вобласць, Беларусь",242992149.0,Q3692422,,1.0,matched_db_api
Nalibok,0405Nl1,Vilnius,4.0,5.0,Pale,Lithuania,1,120.0,1683.0,1.0,mestechko,at_most,Calculated by subtraction from Total value any other groups mentioned in census for this place,1683.0,,Vilnius,Oshmiany,53.761993,26.471273,"Налібакі, Стаўбцоўскі раён, Мінская вобласць, Беларусь",242997538.0,Q1025855,,0.933,matched_db_api
Ol'shany,0405Ol1,Vilnius,4.0,5.0,Pale,Lithuania,0,1049.0,2183.0,1.0,mestechko,,,2183.0,,Vilnius,Oshmiany,54.256939,26.012857,"Гальшаны, Ашмянскі раён, Гродзенская вобласць, Беларусь",242995231.0,Q1572234,,0.933,matched_db_api
Oshmiany,0405Os1,Vilnius,4.0,5.0,Pale,Lithuania,0,3803.0,7214.0,1.0,Uezdnyi gorod,,,7214.0,,Vilnius,Oshmiany,54.4252347,25.9374195,"Ашмяны, Ашмянскі раён, Гродзенская вобласць, Беларусь",242978910.0,Q722836,אשמיאני,1.0,matched_db_api
Subbotniki,0405Sb1,Vilnius,4.0,5.0,Pale,Lithuania,0,91.0,602.0,1.0,selo/mestechko,,,602.0,,Vilnius,Oshmiany,54.094021,25.749121,Суботнікі,242993368.0,Q567798,,1.0,matched_db_api
Soly,0405Sl1,Vilnius,4.0,5.0,Pale,Lithuania,0,530.0,981.0,1.0,mestechko,,,981.0,,Vilnius,Oshmiany,54.517941,26.18334,"Солы, Смаргонскі раён, Гродзенская вобласць, Беларусь",242996844.0,Q2366073,,1.0,matched_db_api
Smorgon',0405Sm1,Vilnius,4.0,5.0,Pale,Lithuania,0,6743.0,8908.0,1.0,mestechko,,,8908.0,,Vilnius,Oshmiany,54.4817816,26.4012822,"Смаргонь, Смаргонскі раён, Гродзенская вобласць, Беларусь",242978914.0,Q958617,סמרגון,1.0,matched_db_api
Traby,0405Tr1,Vilnius,4.0,5.0,Pale,Lithuania,0,634.0,1183.0,1.0,mestechko,,,1183.0,,Vilnius,Oshmiany,54.157619,25.90593,"Трабы, Іўеўскі раён, Гродзенская вобласць, Беларусь",242995180.0,Q3647159,,1.0,matched_db_api
Volozhin,0405Vl1,Vilnius,4.0,5.0,Pale,Lithuania,0,2452.0,4534.0,1.0,mestechko,,,4534.0,,Vilnius,Oshmiany,54.0888494,26.5257275,"Валожын, Валожынскі раён, Мінская вобласць, Беларусь",242978920.0,Q200876,וולוז'ין,1.0,matched_db_api
Vishnev,0405Vs1,Vilnius,4.0,5.0,Pale,Lithuania,0,1463.0,2650.0,1.0,mestechko,,,2650.0,,Vilnius,Oshmiany,54.1389586,26.2200524,"Вішнева, Валожынскі раён, Мінская вобласць, Беларусь",242997004.0,Q1022491,,0.933,matched_db_api
Yasevichi,0405Ys1,Vilnius,4.0,5.0,Pale,Lithuania,1,,,0.0,,,Mentioned in Jewishgen but not in the census,,unknown,Vilnius,Oshmiany,55.0780168,27.8750839,"Галубіцкі сельскі Савет, Глыбоцкі раён, Віцебская вобласць, Беларусь",243016719.0,Q20505965,,0.889,matched_db_api
Zhuprany,0405Zp1,Vilnius,4.0,5.0,Pale,Lithuania,0,415.0,824.0,1.0,mestechko,,,824.0,,Vilnius,Oshmiany,54.4697551,26.0873496,"Жупраны, Ашмянскі раён, Гродзенская вобласць, Беларусь",242996798.0,Q3545343,,1.0,matched_db_api
Daugelishki,0406Dg1,Vilnius,4.0,6.0,Pale,Lithuania,1,,,0.0,,,Mentioned in Jewishgen but not in the census,,unknown,Vilnius,Sventsiany,55.3695649,26.2977934,"Naujasis Daugėliškis, Naujojo Daugėliškio seniūnija, Ignalinos rajono savivaldybė, Utenos apskritis, Lietuva",458394309.0,Q9202525,,1.0,matched_refined
Godutishki s kazenoi usad'boi ,0406Gd1,Vilnius,4.0,6.0,Pale,Lithuania,0,1373.0,2247.0,1.0,mestechko,,Name of district as it mentioned in census,2247.0,,Vilnius,Sventsiany,55.1573449,26.5867484,"Adutiškis, Adutiškio seniūnija, Švenčionių rajono savivaldybė, Vilniaus apskritis, Lietuva",418391017.0,Q2509638,,1.0,matched_refined
Ignalino,0406Ig1,Vilnius,4.0,6.0,Pale,Lithuania,1,,,0.0,,,Mentioned in Jewishgen but not in the census,,unknown,Vilnius,Sventsiany,55.3398975,26.1614043,"Ignalina, Ignalinos miesto seniūnija, Utenos apskritis, Lietuva",182122005.0,Q658218,איגנלינה,1.0,matched_db_api
Kobyl'nik,0406Kb1,Vilnius,4.0,6.0,Pale,Lithuania,0,591.0,1055.0,1.0,mestechko,,,1055.0,,Vilnius,Sventsiany,54.9371661,26.6897469,"Нарач, Мядзельскі раён, Мінская вобласць, Беларусь",242999804.0,Q1050375,,1.0,matched_db_api
Koltyniany,0406Kl1,Vilnius,4.0,6.0,Pale,Lithuania,1,,,0.0,,,Mentioned in Jewishgen but not in the census,,unknown,Vilnius,Sventsiany,55.2531946,25.9930873,"Kaltanėnai, Kaltanėnų seniūnija, Švenčionių rajono savivaldybė, Vilniaus apskritis, Lietuva",196380792.0,Q2318590,,1.0,matched_nominatim
Kemelishki,0406Km1,Vilnius,4.0,6.0,Pale,Lithuania,0,101.0,507.0,1.0,mestechko,,,507.0,,Vilnius,Sventsiany,54.8573878,25.8839382,"Кемелішкі, Астравецкі раён, Гродзенская вобласць, Беларусь",242995690.0,Q12660575,,1.0,matched_db_api
Komai,0406Km2,Vilnius,4.0,6.0,Pale,Lithuania,0,155.0,622.0,1.0,mestechko,,"JG only has Komai in Kovno, not Vilna (Yannay)",622.0,,Vilnius,Sventsiany,55.8202029,25.5038998,"Kamšiškės, Kamajų seniūnija, Panevėžio apskritis, Lietuva",853170249.0,Q1961545,,0.8,matched_db_api
Lyngmiany s derevnei Lyngmiany,0406Ly1,Vilnius,4.0,6.0,Pale,Lithuania,0,297.0,847.0,1.0,mestechko,,,847.0,,Vilnius,Sventsiany,55.317613,25.9586059,"Linkmenys, Linkmenų seniūnija, Ignalinos rajono savivaldybė, Utenos apskritis, Lietuva",670233477.0,Q9394890,,1.0,matched_refined
Lyntupy,0406Ly2,Vilnius,4.0,6.0,Pale,Lithuania,0,238.0,685.0,1.0,selo,,,685.0,,Vilnius,Sventsiany,55.0498728,26.3060545,"Лынтупы, Пастаўскі раён, Віцебская вобласць, Беларусь",242979016.0,Q2657182,,1.0,matched_db_api
Melengiany,0406Ml1,Vilnius,4.0,6.0,Pale,Lithuania,0,118.0,517.0,1.0,selo,,,517.0,,Vilnius,Sventsiany,55.2586906,26.4371781,"Salomenka, Mielagėnų seniūnija, Utenos apskritis, Lietuva",771505218.0,Q584733,,0.947,matched_db_api
Novo-Sventsiany,0406Nv1,Vilnius,4.0,6.0,Pale,Lithuania,0,540.0,1340.0,1.0,posad,,,1340.0,,Vilnius,Sventsiany,55.1652567,25.9985239,"Švenčionėliai, Švenčionėlių seniūnija, Vilniaus apskritis, Lietuva",196378748.0,Q392772,שוויינצ'יונליאי,1.0,matched_refined
Podbrodze,0406Pd1,Vilnius,4.0,6.0,Pale,Lithuania,1,,,0.0,,,Mentioned in Jewishgen but not in the census,,unknown,Vilnius,Sventsiany,54.9831145,25.7663024,"Pabradė, Pabradės seniūnija, Vilniaus apskritis, Lietuva",196374894.0,Q1004328,,1.0,matched_db_api
Stoiatsishki,0406St1,Vilnius,4.0,6.0,Pale,Lithuania,1,,,0.0,,,Mentioned in Jewishgen but not in the census,,unknown,Vilnius,Sventsiany,55.182836,26.521875,"Stajėtiškis, Adutiškio seniūnija, Švenčionių rajono savivaldybė, Vilniaus apskritis, Lietuva",2626290720.0,Q16473005,,1.0,matched_refined
Sventsiany,0406Sv1,Vilnius,4.0,6.0,Pale,Lithuania,0,3172.0,6025.0,1.0,Uezdnyi gorod,,,6025.0,,Vilnius,Sventsiany,55.1336865,26.1630146,"Švenčionys, Švenčionių seniūnija, Vilniaus apskritis, Lietuva",196377583.0,Q137863,שווינציאן,0.857,matched_db_api
"Svir' I, II, III",0406Sv2,Vilnius,4.0,6.0,Pale,Lithuania,0,1114.0,1686.0,1.0,mestechko,,,1686.0,,Vilnius,Sventsiany,54.8484129,26.3911271,"Свір, Мядзельскі раён, Мінская вобласць, Беларусь",242979036.0,Q2659511,,1.0,matched_refined
Tseikiny,0406Ts1,Vilnius,4.0,6.0,Pale,Lithuania,1,,,0.0,,,Mentioned in Jewishgen but not in the census,,unknown,Vilnius,Sventsiany,55.2855198,26.2291542,"Ceikinėliai, Ignalinos seniūnija, Utenos apskritis, Lietuva",3628986462.0,Q12651907,,1.0,matched_db_api
Birshtany,0407Br1,Vilnius,4.0,7.0,Pale,Lithuania,1,,,0.0,,,Mentioned in Jewishgen but not in the census,,unknown,Vilnius,Troki,54.5928278,24.0244347,"Birštonas, Birštono seniūnija, Birštono savivaldybė, Kauno apskritis, Lietuva",162439361.0,Q11854305,,1.0,matched_refined
Butrimantsy,0407Bt1,Vilnius,4.0,7.0,Pale,Lithuania,0,1919.0,2394.0,1.0,mestechko,,,2394.0,,Vilnius,Troki,54.5021596,24.2523307,"Butrimonys, Butrimonių seniūnija, Alytaus rajono savivaldybė, Alytaus apskritis, Lietuva",1296337949.0,Q2483374,,1.0,matched_refined
Daugi,0407Dg1,Vilnius,4.0,7.0,Pale,Lithuania,0,511.0,1288.0,1.0,mestechko,,,1288.0,,Vilnius,Troki,54.3600126,24.3306273,"Daugai, Daugų seniūnija, Alytaus apskritis, Lietuva",2195363909.0,Q7471305,,1.0,matched_db_api
Dekshnia,0407Dk1,Vilnius,4.0,7.0,Pale,Lithuania,1,,,0.0,,,Mentioned in Jewishgen but not in the census,,unknown,Vilnius,Troki,54.3685101,24.7960422,"Degsnės, Valkininkų seniūnija, Varėnos rajono savivaldybė, Alytaus apskritis, Lietuva",2453218060.0,Q3545471,,1.0,matched_refined
Dorsunishki,0407Dr1,Vilnius,4.0,7.0,Pale,Lithuania,1,,,0.0,,,Mentioned in Jewishgen but not in the census,,unknown,Vilnius,Troki,54.7373802,24.119451,"Darsūniškis, Kruonio seniūnija, Kaišiadorių rajono savivaldybė, Kauno apskritis, Lietuva",1142713825.0,Q12652474,,0.909,matched_nominatim
Ev'e,0407Ev1,Vilnius,4.0,7.0,Pale,Lithuania,0,647.0,725.0,1.0,mestechko,,,725.0,,Vilnius,Troki,54.7693774,24.8158205,"Vievis, Vievio seniūnija, Vilniaus apskritis, Lietuva",32448784.0,Q1004332,,1.0,matched_refined
Ezno,0407Ez1,Vilnius,4.0,7.0,Pale,Lithuania,0,303.0,1255.0,1.0,mestechko,,,1255.0,,Vilnius,Troki,54.6007116,24.1749878,"Jieznas, Jiezno seniūnija, Kauno apskritis, Lietuva",80033735.0,Q47068,,0.889,matched_db_api
Ganishushki,0407Gn1,Vilnius,4.0,7.0,Pale,Lithuania,0,217.0,577.0,1.0,mestechko,,,577.0,,Vilnius,Troki,54.4829984,24.587394,"Onuškis, Onuškio seniūnija, Trakų rajono savivaldybė, Vilniaus apskritis, Lietuva",39054412.0,Q5247152,,1.0,matched_refined
Kriuni,0407Kr1,Vilnius,4.0,7.0,Pale,Lithuania,0,126.0,549.0,1.0,mestechko,,,549.0,,Vilnius,Troki,54.7576712,24.2385957,Kruonis,130144274.0,Q6439338,,0.769,matched_db_api
Koshedary,0407Ks1,Vilnius,4.0,7.0,Pale,Lithuania,0,317.0,883.0,1.0,posad,,,883.0,,Vilnius,Troki,54.8602337,24.4544785,"Kaišiadorys, Kaišiadorių miesto seniūnija, Kauno apskritis, Lietuva",104550533.0,Q614855,,0.947,matched_db_api
Liandvarovo,0407Ln1,Vilnius,4.0,7.0,Pale,Lithuania,1,,,0.0,,,Mentioned in Jewishgen but not in the census,,unknown,Vilnius,Troki,54.6428696,25.0504034,"Lentvaris, Lentvario seniūnija, Vilniaus apskritis, Lietuva",32331421.0,Q923393,,1.0,matched_refined
Leipuny,0407Lp1,Vilnius,4.0,7.0,Pale,Lithuania,1,,,0.0,,,Mentioned in Jewishgen but not in the census,,unknown,Vilnius,Troki,54.4401209,24.7490117,"Lieponys, Rūdiškių seniūnija, Trakų rajono savivaldybė, Vilniaus apskritis, Lietuva",2285859608.0,Q12663118,,0.857,matched_nominatim
Merech',0407Mr1,Vilnius,4.0,7.0,Pale,Lithuania,0,1900.0,2580.0,1.0,mestechko,,,2580.0,,Vilnius,Troki,54.1613269,24.1830609,"Merkinė, Merkinės seniūnija, Alytaus apskritis, Lietuva",32441781.0,Q1594489,מרקינה,0.833,matched_db_api
Niemaniuny,0407Nm1,Vilnius,4.0,7.0,Pale,Lithuania,1,,,0.0,,,Mentioned in Jewishgen but not in the census,,unknown,Vilnius,Troki,54.5597176,24.0747856,"Nemajūnai, Birštono seniūnija, Kauno apskritis, Lietuva",1706674412.0,Q12666660,,0.9,matched_db_api
Niemonoitse,0407Nm2,Vilnius,4.0,7.0,Pale,Lithuania,0,361.0,742.0,1.0,mestechko,,,742.0,,Vilnius,Troki,54.2980941,24.0401872,"Nemunaitis, Nemunaičio seniūnija, Alytaus apskritis, Lietuva",3783835325.0,Q16465614,,1.0,matched_refined
Ol'keniki,0407Ol1,Vilnius,4.0,7.0,Pale,Lithuania,0,1126.0,2619.0,1.0,mestechko,,,2619.0,,Vilnius,Troki,54.3589408,24.8416634,"Užuperkasis, Valkininkų seniūnija, Alytaus apskritis, Lietuva",317360830.0,Q2121733,אולקניק,0.941,matched_db_api
Olava,0407Ol2,Vilnius,4.0,7.0,Pale,Lithuania,1,,,0.0,,,Mentioned in Jewishgen but not in the census,,unknown,Vilnius,Troki,54.3501313,24.1734127,"Alovė, Alovės seniūnija, Alytaus apskritis, Lietuva",944007716.0,Q7297277,,0.8,matched_db_api
Olita,0407Ol3,Vilnius,4.0,7.0,Pale,Lithuania,0,753.0,2010.0,1.0,mestechko,,,2010.0,,Vilnius,Troki,54.3961344,24.0459268,"Alytus, Alytaus miesto savivaldybė, Alytaus apskritis, Lietuva",32821920.0,Q450625,אליטא,1.0,matched_db_api
Orany,0407Or1,Vilnius,4.0,7.0,Pale,Lithuania,0,1473.0,2624.0,1.0,mestechko,,,2624.0,,Vilnius,Troki,54.2121764,24.5673724,"Varėna, Varėnos seniūnija, Alytaus apskritis, Lietuva",32441683.0,Q835843,וריאנה,1.0,matched_db_api
Pananishki,0407Pn1,Vilnius,4.0,7.0,Pale,Lithuania,1,,,0.0,,,Mentioned in Jewishgen but not in the census,,unknown,Vilnius,Troki,54.5141379,24.7292943,"Panošiškės, Grendavės seniūnija, Trakų rajono savivaldybė, Vilniaus apskritis, Lietuva",917384303.0,Q12668299,,1.0,matched_refined
Puni,0407Pn2,Vilnius,4.0,7.0,Pale,Lithuania,0,1045.0,1133.0,1.0,mestechko,,,1133.0,,Vilnius,Troki,54.510711,24.1042365,"Punia, Punios seniūnija, Alytaus rajono savivaldybė, Alytaus apskritis, Lietuva",390351414.0,Q7260193,,0.889,matched_nominatim
Rotnitsa,0407Rt1,Vilnius,4.0,7.0,Pale,Lithuania,0,517.0,539.0,1.0,mestechko,,,539.0,,Vilnius,Troki,54.0015457,24.0163431,"Druskininkai, Druskininkų savivaldybė, Alytaus apskritis, Lietuva",1245504053.0,Q12670979,,0.8,matched_reverse
Sulemishki,0407Sl1,Vilnius,4.0,7.0,Pale,Lithuania,0,300.0,968.0,1.0,selo,,,968.0,,Vilnius,Troki,54.6644657,24.6590614,Semeliškės,32448780.0,Q2548176,סמילישוק,0.7,matched_db_api
Stoklishki,0407St1,Vilnius,4.0,7.0,Pale,Lithuania,0,808.0,2200.0,1.0,mestechko,,,2200.0,,Vilnius,Troki,54.5897701,24.3205564,"Stakliškės, Stakliškių seniūnija, Prienų rajono savivaldybė, Kauno apskritis, Lietuva",80050493.0,Q5764045,,0.9,matched_nominatim
Troki,0407Tr1,Vilnius,4.0,7.0,Pale,Lithuania,0,1112.0,3240.0,1.0,Uezdnyi gorod,,,3240.0,,Vilnius,Troki,54.6449911,24.9353981,"Trakai, Trakų seniūnija, Vilniaus apskritis, Lietuva",32821844.0,Q191015,טרקאי,1.0,matched_db_api
Vysokii dvor,0407Vy1,Vilnius,4.0,7.0,Pale,Lithuania,0,309.0,711.0,1.0,mestechko,,,711.0,,Vilnius,Troki,54.5804193,24.5279233,"Aukštadvaris, Aukštadvario seniūnija, Vilniaus apskritis, Lietuva",80031267.0,Q2667459,,1.0,matched_refined
Zhosli,0407Zs1,Vilnius,4.0,7.0,Pale,Lithuania,0,1325.0,1955.0,1.0,mestechko,,,1955.0,,Vilnius,Troki,54.865248,24.5897095,"Žasliai, Žaslių seniūnija, Kauno apskritis, Lietuva",130147827.0,Q2212797,,1.0,matched_refined
Zhizhmor'e,0407Zz1,Vilnius,4.0,7.0,Pale,Lithuania,0,1628.0,2795.0,1.0,mestechko,,,2795.0,,Vilnius,Troki,54.8138853,24.4249197,"Žiežmariai, Žiežmarių apylinkės seniūnija, Kaišiadorių rajono savivaldybė, Kauno apskritis, Lietuva",2379094149.0,Q12680730,ז'ייז'מריאי,1.0,matched_refined
Ianovichi,0501In1,Vitebsk,5.0,1.0,Pale,Lithuania,0,1702.0,2359.0,1.0,mestechko,,,2359.0,,Vitebsk,Vitebsk,55.2932768,30.7019427,"Янавічы, Віцебскі раён, Віцебская вобласць, Беларусь",242979074.0,Q2478237,,1.0,matched_db_api
Kolyshki,0501Kl1,Vitebsk,5.0,1.0,Pale,Lithuania,0,1127.0,1568.0,1.0,mestechko,,,1568.0,,Vitebsk,Vitebsk,55.167407,30.9583627,"Яськаўшчынскі сельскі Савет, Лёзненскі раён, Віцебская вобласць, Беларусь",243046371.0,Q6496681,,1.0,matched_db_api
Surazh,0501Sr1,Vitebsk,5.0,1.0,Pale,Lithuania,0,1246.0,2731.0,1.0,Zashtatnyi gorod,,,2731.0,,Vitebsk,Vitebsk,55.4078137,30.7229995,"Сураж, Віцебскі раён, Віцебская вобласць, Беларусь",242979102.0,Q2471115,,1.0,matched_db_api
Vitebsk,0501Vt1,Vitebsk,5.0,1.0,Pale,Lithuania,0,34440.0,65871.0,1.0,Gubernskii gorod,,,65871.0,,Vitebsk,Vitebsk,55.1930197,30.2070437,"Віцебск, Віцебская вобласць, Беларусь",242978887.0,Q102217,ויטבסק,1.0,matched_db_api
Il'ino,0502Il1,Vitebsk,5.0,2.0,Pale,Lithuania,0,1105.0,1415.0,1.0,mestechko,,,1415.0,,Vitebsk,Velizh,55.9473848,31.665797,"Ильино, Западнодвинский муниципальный округ, Тверская область, Центральный федеральный округ, Россия",496512756.0,Q4199658,,1.0,matched_nominatim
Usviat,0502Us1,Vitebsk,5.0,2.0,Pale,Lithuania,0,956.0,2679.0,1.0,mestechko,,,2679.0,,Vitebsk,Velizh,55.7432428,30.7538528,"Усвяты, Усвятский муниципальный округ, Псковская область, Россия",2499164596.0,Q2625702,,0.923,matched_db_api
Velizh,0502Vl1,Vitebsk,5.0,2.0,Pale,Lithuania,0,5989.0,12193.0,1.0,Uezdnyi gorod,,,12193.0,,Vitebsk,Velizh,55.6045223,31.1949976,"Велиж, Велижский муниципальный округ, Смоленская область, Россия",173835805.0,Q132960,וליז',1.0,matched_db_api
Gorodok,0503Gr1,Vitebsk,5.0,3.0,Pale,Lithuania,0,3413.0,5023.0,1.0,Uezdnyi gorod,,,5023.0,,Vitebsk,Gorodok,55.4614306,29.9872766,"Гарадок, Гарадоцкі раён, Віцебская вобласць, Беларусь",242978970.0,Q954265,הרדוק,1.0,matched_db_api
Dagda,0504Dg1,Vitebsk,5.0,4.0,Pale,Lithuania,0,1026.0,1516.0,1.0,mestechko,,,1516.0,,Vitebsk,Dvinsk,56.0948815,27.5374136,"Dagda, Latvija",119253538.0,Q757101,,1.0,matched_db_api
Dvinsk,0504Dv1,Vitebsk,5.0,4.0,Pale,Lithuania,0,32400.0,69675.0,1.0,Uezdnyi gorod,,,69675.0,,Vitebsk,Dvinsk,55.8712267,26.5159337,"Daugavpils, Latvija",30391426.0,Q80021,דאוגבפילס,0.923,matched_db_api
Glazmanka,0504Gl1,Vitebsk,5.0,4.0,Pale,Lithuania,0,1976.0,2328.0,1.0,mestechko,,,2328.0,,Vitebsk,Dvinsk,56.6161759,25.7858012,"Gaiziņi, Maiļupsala, Aiviekstes pagasts, Aizkraukles novads, LV-5120, Latvija",2073536693.0,,,manual,matched_manual
Kreitsburg,0504Kr1,Vitebsk,5.0,4.0,Pale,Lithuania,0,3164.0,4150.0,1.0,mestechko,,,4150.0,,Vitebsk,Dvinsk,56.5052479,25.8716796,"Jēkabpils, Latvija",1159209533.0,,,0.8,matched_db_api
Kreslavka,0504Kr2,Vitebsk,5.0,4.0,Pale,Lithuania,0,4051.0,7834.0,1.0,mestechko,,,7834.0,,Vitebsk,Dvinsk,55.895206,27.1619304,"Krāslava, Latvija",119246280.0,Q638592,,0.824,matched_db_api
Livengof,0504Lv1,Vitebsk,5.0,4.0,Pale,Lithuania,0,1406.0,2658.0,1.0,mestechko,,,2658.0,,Vitebsk,Dvinsk,56.3531859,26.177657,"Līvāni, Latvija",2298737778.0,Q849156,,0.824,matched_db_api
Preli,0504Pr1,Vitebsk,5.0,4.0,Pale,Lithuania,0,1375.0,2104.0,1.0,mestechko,,,2104.0,,Vitebsk,Dvinsk,56.2937366,26.7266734,"Preiļi, Latvija",129965572.0,Q858476,,0.909,matched_db_api
Raipol',0504Rp1,Vitebsk,5.0,4.0,Pale,Lithuania,0,220.0,1528.0,1.0,poselok,,Now Staryi Forshtadt,1528.0,,Vitebsk,Dvinsk,55.9,26.5,Raipol',,,,,legacy_coords
Vyshki,0504Vy1,Vitebsk,5.0,4.0,Pale,Lithuania,0,668.0,959.0,1.0,mestechko,,Name of district as it mentioned in census,959.0,,Vitebsk,Dvinsk,56.0541902,26.7833676,"Višķi, Latvija",130233084.0,Q1999379,,1.0,matched_refined
Drissa,0505Dr1,Vitebsk,5.0,5.0,Pale,Lithuania,0,2856.0,4238.0,1.0,Uezdnyi gorod,,,4238.0,,Vitebsk,Drissa,55.7673597,27.9425299,"Дрыса, Верхнядзвінск, Верхнядзвінскі раён, Віцебская вобласць, Беларусь",566272443.0,Q2622731,,1.0,matched_nominatim
Iukhovichi,0505Ik1,Vitebsk,5.0,5.0,Pale,Lithuania,0,336.0,618.0,1.0,mestechko,,,618.0,,Vitebsk,Drissa,56.0127522,28.6481773,"Клясціцкі сельскі Савет, Расонскі раён, Віцебская вобласць, Беларусь",243026462.0,Q6549791,,1.0,matched_db_api
Nikolaevo,0505Nk1,Vitebsk,5.0,5.0,Pale,Lithuania,0,551.0,749.0,1.0,mestechko,,,749.0,,Vitebsk,Drissa,55.5410008,28.1082179,"Мікалаёва, Мікалаёўскі сельскі Савет, Мёрскі раён, Віцебская вобласць, Беларусь",7491671.0,Q20513864,,0.842,matched_nominatim
Osveia,0505Os1,Vitebsk,5.0,5.0,Pale,Lithuania,0,1660.0,2830.0,1.0,mestechko,,,2830.0,,Vitebsk,Drissa,56.016373,28.107273,"Асвея, Верхнядзвінскі раён, Віцебская вобласць, Беларусь",132246871.0,Q2596938,,1.0,matched_db_api
Pridruisk,0505Pr1,Vitebsk,5.0,5.0,Pale,Lithuania,0,561.0,854.0,1.0,mestechko,,,854.0,,Vitebsk,Drissa,55.796398,27.4426214,"Piedruja, Latvija",124186427.0,Q4362480,,1.0,matched_db_api
Rositsa,0505Rs1,Vitebsk,5.0,5.0,Pale,Lithuania,0,524.0,755.0,1.0,mestechko,,,755.0,,Vitebsk,Drissa,55.9190455,27.7585382,"Росіца, Верхнядзвінскі раён, Віцебская вобласць, Беларусь",132241966.0,Q3442846,,1.0,matched_db_api
Volynets,0505Vl1,Vitebsk,5.0,5.0,Pale,Lithuania,0,602.0,985.0,1.0,mestechko,,,985.0,,Vitebsk,Drissa,55.7055753,28.1846939,"Валынцы, Верхнядзвінскі раён, Віцебская вобласць, Беларусь",243019152.0,Q59060,,0.875,matched_db_api
Bocheikovo,0506Bc1,Vitebsk,5.0,6.0,Pale,Lithuania,0,323.0,722.0,1.0,mestechko,,,722.0,,Vitebsk,Lepel',55.0136223,29.1447601,"Бачэйкава, Бешанковіцкі раён, Віцебская вобласць, Беларусь",243027104.0,Q3919263,,1.0,matched_db_api
Beshenkovichi,0506Bs1,Vitebsk,5.0,6.0,Pale,Lithuania,0,3182.0,4423.0,1.0,mestechko,,,4423.0,,Vitebsk,Lepel',55.0457981,29.4578212,"Бешанковічы, Бешанковіцкі раён, Віцебская вобласць, Беларусь",242978968.0,Q1033593,,1.0,matched_db_api
Chashniki,0506Cs1,Vitebsk,5.0,6.0,Pale,Lithuania,0,3480.0,4590.0,1.0,mestechko,,,4590.0,,Vitebsk,Lepel',54.8569819,29.1598825,"Чашнікі, Чашніцкі раён, Віцебская вобласць, Беларусь",242978956.0,Q954421,צ'אשניקי,1.0,matched_db_api
Kublichi,0506Kb1,Vitebsk,5.0,6.0,Pale,Lithuania,0,935.0,1291.0,1.0,mestechko,,,1291.0,,Vitebsk,Lepel',55.1574602,28.339433,"Кублічы, Ушацкі раён, Віцебская вобласць, Беларусь",243023945.0,Q3925043,,1.0,matched_db_api
Kamen',0506Km1,Vitebsk,5.0,6.0,Pale,Lithuania,0,826.0,1056.0,1.0,mestechko,,,1056.0,,Vitebsk,Lepel',55.0144547,28.8860752,"Камень, Лепельскі раён, Віцебская вобласць, Беларусь",243025071.0,Q20470286,,1.0,matched_db_api
Lepel',0506Lp1,Vitebsk,5.0,6.0,Pale,Lithuania,0,3379.0,6284.0,1.0,Uezdnyi gorod,,,6284.0,,Vitebsk,Lepel',54.8866187,28.6936245,"Лепель, Лепельскі раён, Віцебская вобласць, Беларусь",242978947.0,Q954132,לפל,1.0,matched_db_api
Ulla,0506Ul1,Vitebsk,5.0,6.0,Pale,Lithuania,0,1539.0,2485.0,1.0,mestechko,,,2485.0,,Vitebsk,Lepel',55.2243814,29.240568,"Ула, Бешанковіцкі раён, Віцебская вобласць, Беларусь",242979059.0,Q2376687,,1.0,matched_db_api
Ushach,0506Us1,Vitebsk,5.0,6.0,Pale,Lithuania,0,1129.0,1460.0,1.0,mestechko,,,1460.0,,Vitebsk,Lepel',55.1790267,28.617221,"Ушачы, Ушацкі раён, Віцебская вобласць, Беларусь",242978948.0,Q2987234,אושאצ'י,0.923,matched_db_api
Korsovka,0507Kr1,Vitebsk,5.0,7.0,Pale,Lithuania,0,609.0,1313.0,1.0,mestechko,,Name of district as it mentioned in census,1313.0,,Vitebsk,Liutsin,56.7874531,27.6733754,"Kārsava, Latvija",157344234.0,Q849147,קרסאווה,1.0,matched_db_api
Liutsin,0507Lt1,Vitebsk,5.0,7.0,Pale,Lithuania,0,2803.0,5140.0,1.0,Uezdnyi gorod,,,5140.0,,Vitebsk,Liutsin,56.5477177,27.7242092,"Ludza, Latvija",27083904.0,Q744259,לודזה,0.857,matched_db_api
Polishcheno,0507Pl1,Vitebsk,5.0,7.0,Pale,Lithuania,0,144.0,599.0,1.0,selo,,,599.0,,Vitebsk,Liutsin,56.1326728,28.0016098,"Šķaune, Šķaunes pagasts, Krāslavas novads, Latvija",148140778.0,Q15220212,,1.0,matched_refined
Nevel',0508Nv1,Vitebsk,5.0,8.0,Pale,Lithuania,0,5836.0,9349.0,1.0,Uezdnyi gorod,,,9349.0,,Vitebsk,Nevel',56.017616,29.917128,"Невель, Невельский муниципальный округ, Псковская область, Северо-Западный федеральный округ, Россия",26163795.0,Q165773,נוול,1.0,matched_nominatim
Polotsk,0509Pl1,Vitebsk,5.0,9.0,Pale,Lithuania,0,12481.0,20294.0,1.0,Uezdnyi gorod,,,20294.0,,Vitebsk,Polotsk,55.4854656,28.7682339,"Полацк, Полацкі раён, Віцебская вобласць, Беларусь",119310785.0,Q200797,פולאצק,1.0,matched_db_api
Sirotino,0509Sr1,Vitebsk,5.0,9.0,Pale,Lithuania,0,1766.0,1998.0,1.0,mestechko,,,1998.0,,Vitebsk,Polotsk,55.3718746,29.6257143,"Сіроцінскі сельскі Савет, Шумілінскі раён, Віцебская вобласць, Беларусь",243038718.0,Q13134177,,1.0,matched_db_api
Rybinishki,0510Ry1,Vitebsk,5.0,10.0,Pale,Lithuania,0,533.0,584.0,1.0,mestechko,,,584.0,,Vitebsk,Riezhitsa,56.3378625,26.800997,"Riebiņi, Latvija",290688769.0,Q942401,,1.0,matched_refined
Riezhitsa,0510Rz1,Vitebsk,5.0,10.0,Pale,Lithuania,0,6478.0,10795.0,1.0,Uezdnyi gorod,,,10795.0,,Vitebsk,Riezhitsa,56.506281,27.3306623,"Rēzekne, Latvija",58422785.0,Q180379,רזקנה,1.0,matched_refined
Veleny,0510Vl1,Vitebsk,5.0,10.0,Pale,Lithuania,0,321.0,774.0,1.0,mestechko,,,774.0,,Vitebsk,Riezhitsa,56.5549602,26.9288591,"Viļāni, Latvija",59772550.0,Q836513,,1.0,matched_refined
Varkliany,0510Vr1,Vitebsk,5.0,10.0,Pale,Lithuania,0,1365.0,1810.0,1.0,mestechko,,Name of district as it mentioned in census,1810.0,,Vitebsk,Riezhitsa,56.6088743,26.7539093,"Varakļāni, Latvija",157088773.0,Q849141,ורקליאני,0.947,matched_db_api
Sebezh,0511Sb1,Vitebsk,5.0,11.0,Pale,Lithuania,0,2561.0,4326.0,1.0,Uezdnyi gorod,,,4326.0,,Vitebsk,Sebezh,56.2774187,28.4848862,"Себеж, городское поселение Себеж, Себежский район, Псковская область, Северо-Западный федеральный округ, Россия",27084320.0,Q193641,סבז',1.0,matched_nominatim
Andrushovka,0801An1,Volhinia,8.0,1.0,Pale,South-West,0,430.0,2682.0,1.0,mestechko,,,2682.0,,Volhinia,Zhitomir,50.0301392,29.0222111,"Андрушівка, Андрушівська міська громада, Бердичівський район, Житомирська область, 13400-13405, Україна",337536703.0,Q148909,,0.957,matched_nominatim
Barashi,0801Br1,Volhinia,8.0,1.0,Pale,South-West,0,338.0,2170.0,1.0,selo,,,2170.0,,Volhinia,Zhitomir,50.712551,28.029209,"Бараші, Барашівська сільська громада, Звягельський район, Житомирська область, 11255, Україна",337517468.0,Q4077969,,1.0,matched_nominatim
Berezovka,0801Br2,Volhinia,8.0,1.0,Pale,South-West,0,60.0,550.0,1.0,derevnia,,,550.0,,Volhinia,Zhitomir,47.2016391,30.908595,"Березівка, Березівська міська громада, Березівський район, Одеська область, Україна",193430239.0,Q819103,,1.0,matched_nominatim
Bykovka,0801By1,Volhinia,8.0,1.0,Pale,South-West,0,92.0,618.0,1.0,derevnia,,,618.0,,Volhinia,Zhitomir,50.2927853,27.9746606,"Биківка, Романівська селищна громада, Житомирський район, Житомирська область, 13012, Україна",337525071.0,Q2670499,,1.0,matched_nominatim
Chudnov,0801Cd1,Volhinia,8.0,1.0,Pale,South-West,0,4491.0,5580.0,1.0,mestechko,,,5580.0,,Volhinia,Zhitomir,50.0524287,28.1153765,"Чуднів, Житомирська область, Україна",337535925.0,Q149271,צ'ודניב,1.0,matched_db_api
Cherniakhov,0801Cr1,Volhinia,8.0,1.0,Pale,South-West,0,1774.0,3878.0,1.0,mestechko,,,3878.0,,Volhinia,Zhitomir,50.45299,28.66573,"Черняхів, Черняхівська селищна громада, Житомирський район, Житомирська область, 12301, Україна",143837898.0,Q872377,,1.0,matched_nominatim
Chervonnoe,0801Cr2,Volhinia,8.0,1.0,Pale,South-West,0,711.0,2638.0,1.0,mestechko,,,2638.0,,Volhinia,Zhitomir,49.9528344,28.87532,"Малі Мошківці, Житомирська область, Україна",337539430.0,Q787722,,0.947,matched_db_api
Goroshki,0801Gr1,Volhinia,8.0,1.0,Pale,South-West,0,2018.0,3228.0,1.0,mestechko,,,3228.0,,Volhinia,Zhitomir,50.5959845,28.445337,"Хорошів, Житомирська область, Україна",337519185.0,Q2993479,,0.947,matched_refined
Ianushpol',0801In1,Volhinia,8.0,1.0,Pale,South-West,0,1251.0,5085.0,1.0,mestechko,,,5085.0,,Volhinia,Zhitomir,49.8571284,28.2159062,"Іванопіль, Краснопільська сільська громада, Бердичівський район, Житомирська область, 13255, Україна",337541893.0,Q2670459,,1.0,matched_refined
Ivnitsa,0801Iv1,Volhinia,8.0,1.0,Pale,South-West,0,607.0,3095.0,1.0,mestechko,,,3095.0,,Volhinia,Zhitomir,50.145935,29.04398,"Івниця, Волицька сільська громада, Житомирський район, Житомирська область, 13420, Україна",337528277.0,Q4197225,,1.0,matched_nominatim
Kodnia,0801Kd1,Volhinia,8.0,1.0,Pale,South-West,0,688.0,2564.0,1.0,mestechko,,,2564.0,,Volhinia,Zhitomir,50.087009,28.693199,"Кодня, Станишівська сільська громада, Житомирський район, Житомирська область, 12452, Україна",337534863.0,Q4226198,,1.0,matched_nominatim
Krasnopol',0801Kr1,Volhinia,8.0,1.0,Pale,South-West,0,374.0,3344.0,1.0,selo,,,3344.0,,Volhinia,Zhitomir,50.91991,28.49819,Краснопіль,337514001.0,Q4238918,,1.0,matched_db_api
Leshchin,0801Ls1,Volhinia,8.0,1.0,Pale,South-West,0,337.0,1666.0,1.0,mestechko,,,1666.0,,Volhinia,Zhitomir,50.159451,28.84495,"Ліщин, Житомирська область, Україна",337527844.0,Q4260583,,1.0,matched_reverse
Levkov,0801Lv1,Volhinia,8.0,1.0,Pale,South-West,1,541.0,3685.0,1.0,mestechko,at_most,No Jews mentioned at census year; calculated by subtraction from Total value any other groups mentioned in census for this place,3685.0,,Volhinia,Zhitomir,50.2370914,28.832007,"Левків, Житомирська область, Україна",337526264.0,Q7243791,,1.0,matched_db_api
Ol'shanka,0801Ol1,Volhinia,8.0,1.0,Pale,South-West,0,136.0,761.0,1.0,derevnia,,,761.0,,Volhinia,Zhitomir,50.019379,28.14423,"Вільшанка, Житомирська область, Україна",337537018.0,Q4334417,,1.0,matched_reverse
Puliny,0801Pl1,Volhinia,8.0,1.0,Pale,South-West,0,1168.0,2736.0,1.0,mestechko,,,2736.0,,Volhinia,Zhitomir,50.4690331,28.270617,"Пулини, Пулинська селищна громада, Житомирський район, Житомирська область, 12004, Україна",337521296.0,Q2641647,,1.0,matched_nominatim
Piatka,0801Pt1,Volhinia,8.0,1.0,Pale,South-West,0,836.0,2703.0,1.0,mestechko,,,2703.0,,Volhinia,Zhitomir,50.021179,28.366579,"П’ятка, Чуднівська міська громада, Житомирський район, Житомирська область, 13222, Україна",337537303.0,Q4385911,פיאטקה,1.0,matched_nominatim
Raigorodok,0801Rg1,Volhinia,8.0,1.0,Pale,South-West,0,946.0,2058.0,1.0,mestechko,,,2058.0,,Volhinia,Zhitomir,49.826771,28.377001,"Райгородок, Райгородоцька сільська громада, Бердичівський район, Житомирська область, 13363, Україна",337543715.0,Q4388925,,1.0,matched_nominatim
Sosnovaia-Baliarka,0801Ss1,Volhinia,8.0,1.0,Pale,South-West,0,96.0,712.0,1.0,derevnia,,Now Radetskaia Boliarka : http://forum.vgd.ru/?o=1&t=3316&st=0&p=,712.0,,Volhinia,Zhitomir,50.591386,28.2488489,"Радецька Болярка, Житомирська область, Україна",7813595140.0,Q4387187,,0.611,matched_reverse
Staraia Kotel'nia,0801St1,Volhinia,8.0,1.0,Pale,South-West,0,1345.0,3183.0,1.0,mestechko,,,3183.0,,Volhinia,Zhitomir,50.1007278,28.9531036,Стара Котельня,337534268.0,Q4439706,,1.0,matched_db_api
Troianov,0801Tr1,Volhinia,8.0,1.0,Pale,South-West,0,1469.0,7224.0,1.0,mestechko,,,7224.0,,Volhinia,Zhitomir,50.1114033,28.5333286,"Троянів, Новогуйвинська селищна громада, Житомирський район, Житомирська область, 12460, Україна",337534078.0,Q4464054,,1.0,matched_nominatim
Utomir,0801Ut1,Volhinia,8.0,1.0,Pale,South-West,0,1754.0,2381.0,1.0,mestechko,,,2381.0,,Volhinia,Zhitomir,50.861889,28.469351,"Ушомир, Ушомирська сільська громада, Коростенський район, Житомирська область, 11571, Україна",337514850.0,Q239490,,0.833,matched_nominatim
Zhitomir,0801Zt1,Volhinia,8.0,1.0,Pale,South-West,0,30748.0,65895.0,1.0,Gubernskii gorod,,,65895.0,,Volhinia,Zhitomir,50.2601065,28.6696281,"Житомир, Житомирська міська громада, Житомирський район, Житомирська область, 12440, Україна",252098339.0,Q156713,ז'יטומיר,1.0,matched_nominatim
Dubechno,0802Db1,Volhinia,8.0,2.0,Pale,South-West,1,50.0,1364.0,1.0,selo,at_most,Calculated by subtraction from Total value any other groups mentioned in census for this place,1364.0,,Volhinia,Vladimir-Volynskii,51.5481067,24.3754757,"Дубечне, Дубечненська сільська громада, Ковельський район, Волинська область, 44412, Україна",337507107.0,Q4169120,,1.0,matched_nominatim
Druzhkopol',0802Dr1,Volhinia,8.0,2.0,Pale,South-West,0,870.0,1340.0,1.0,mestechko,,,1340.0,,Volhinia,Vladimir-Volynskii,50.426411,24.681585,"Журавники, Горохівська міська громада, Луцький район, Волинська область, Україна",314192631.0,Q4181826,,1.0,matched_refined
Gorokhov,0802Gr1,Volhinia,8.0,2.0,Pale,South-West,0,2571.0,4699.0,1.0,mestechko,,,4699.0,,Volhinia,Vladimir-Volynskii,50.4986166,24.7600734,"Горохів, Горохівська міська громада, Луцький район, Волинська область, 45701, Україна",337520718.0,Q148974,,1.0,matched_nominatim
Kupichev,0802Kp1,Volhinia,8.0,2.0,Pale,South-West,1,124.0,1698.0,1.0,selo,at_most,Calculated by subtraction from Total value any other groups mentioned in census for this place,1698.0,,Volhinia,Vladimir-Volynskii,50.989227,24.713057,"Купичів, Турійська селищна громада, Ковельський район, Волинська область, 44852, Україна",1588719497.0,Q2065576,,1.0,matched_nominatim
Kiselik,0802Ks1,Volhinia,8.0,2.0,Pale,South-West,0,873.0,889.0,1.0,mestechko,,Different city is mentioned on site and link (same population),889.0,,Volhinia,Vladimir-Volynskii,50.851917,24.80002,"Кисилин, Затурцівська сільська громада, Володимирський район, Волинська область, Україна",30722046.0,Q2065713,,0.8,matched_nominatim
Liuboml',0802Lb1,Volhinia,8.0,2.0,Pale,South-West,0,3297.0,4470.0,1.0,mestechko,,,4470.0,,Volhinia,Vladimir-Volynskii,51.2234546,24.0315783,"Любомль, Любомльська міська громада, Ковельський район, Волинська область, 44301, Україна",260342645.0,Q974468,,1.0,matched_nominatim
Lokachi,0802Lk1,Volhinia,8.0,2.0,Pale,South-West,0,1730.0,2309.0,1.0,mestechko,,,2309.0,,Volhinia,Vladimir-Volynskii,50.738946,24.6482949,"Локачі, Локачинська селищна громада, Володимирський район, Волинська область, 45500, Україна",337517065.0,Q1996325,,1.0,matched_nominatim
Opalin,0802Op1,Volhinia,8.0,2.0,Pale,South-West,0,769.0,1612.0,1.0,mestechko,,,1612.0,,Volhinia,Vladimir-Volynskii,51.2857795,23.7170254,"Вишнівка, Рівненська сільська громада, Ковельський район, Волинська область, Україна",30717827.0,Q4112694,,1.0,matched_nominatim
Ozdiutichi,0802Oz1,Volhinia,8.0,2.0,Pale,South-West,0,701.0,701.0,1.0,mestechko,,,701.0,,Volhinia,Vladimir-Volynskii,50.8505674,24.7103899,"Озютичі, Волинська область, Україна",30721615.0,Q4332258,אוזדיוטיץ,0.947,matched_db_api
Ozeriany,0802Oz2,Volhinia,8.0,2.0,Pale,South-West,1,40.0,759.0,1.0,selo,at_most,No Jews mentioned at census year; calculated by subtraction from Total value any other groups mentioned in census for this place,759.0,,Volhinia,Vladimir-Volynskii,51.023624,24.809338,"Озеряни, Турійська селищна громада, Ковельський район, Волинська область, 44860, Україна",337512633.0,Q4332196,,1.0,matched_nominatim
Poritsk,0802Pr1,Volhinia,8.0,2.0,Pale,South-West,0,1316.0,2264.0,1.0,mestechko,,,2264.0,,Volhinia,Vladimir-Volynskii,50.627998,24.46138,"Павлівка, Волинська область, Україна",337518709.0,Q2065690,,0.615,matched_reverse
Shatsk,0802St1,Volhinia,8.0,2.0,Pale,South-West,1,122.0,2410.0,1.0,selo,at_most,No Jews mentioned at census year; calculated by subtraction from Total value any other groups mentioned in census for this place,2410.0,,Volhinia,Vladimir-Volynskii,51.4909494,23.9219323,"Шацьк, Шацька селищна громада, Ковельський район, Волинська область, 44000, Україна",260893514.0,Q2638835,שאצק,1.0,matched_nominatim
Sviniukhi,0802Sv1,Volhinia,8.0,2.0,Pale,South-West,0,629.0,1780.0,1.0,mestechko,,,1780.0,,Volhinia,Vladimir-Volynskii,50.639229,24.748358,"Привітне, Локачинська селищна громада, Володимирський район, Волинська область, 45543, Україна",30736993.0,Q2065596,,1.0,matched_nominatim
Ustilug,0802Us1,Volhinia,8.0,2.0,Pale,South-West,0,3212.0,3590.0,1.0,mestechko,,,3590.0,,Volhinia,Vladimir-Volynskii,50.8622192,24.1505139,"Устилуг, Устилузька міська громада, Володимирський район, Волинська область, 44731, Україна",3308250.0,Q147292,אוסטילוג,1.0,matched_nominatim
Vladimir-Volynskii,0802Vl1,Volhinia,8.0,2.0,Pale,South-West,0,5869.0,9883.0,1.0,Uezdnyi gorod,,,9883.0,,Volhinia,Vladimir-Volynskii,50.8474669,24.319319,"Володимир, Володимирська міська громада, Володимирський район, Волинська область, 44751, Україна",259984311.0,Q33544,לודמיר,1.0,matched_nominatim
Berestechko,0803Br1,Volhinia,8.0,3.0,Pale,South-West,0,2251.0,4953.0,1.0,mestechko,,,4953.0,,Volhinia,Dubno,50.3585756,25.1209852,"Берестечко, Берестечківська міська громада, Луцький район, Волинська область, 45765, Україна",337523440.0,Q819126,,1.0,matched_nominatim
Dubno,0803Db1,Volhinia,8.0,3.0,Pale,South-West,0,7108.0,14257.0,1.0,Uezdnyi gorod,,,14257.0,,Volhinia,Dubno,50.4187918,25.7455972,"Дубно, Дубенська міська громада, Дубенський район, Рівненська область, 35627, Україна",337522487.0,Q932184,דובנו,1.0,matched_nominatim
Demidovka,0803Dm1,Volhinia,8.0,3.0,Pale,South-West,0,679.0,679.0,1.0,mestechko,,,679.0,,Volhinia,Dubno,50.4285969,25.3299118,"Демидівка, Демидівська селищна громада, Дубенський район, Рівненська область, 35200, Україна",79657640.0,Q2993536,,1.0,matched_nominatim
Kozin,0803Kz1,Volhinia,8.0,3.0,Pale,South-West,0,972.0,1820.0,1.0,mestechko,,,1820.0,,Volhinia,Dubno,50.266911,25.465281,"Козин, Козинська сільська громада, Дубенський район, Рівненська область, 35523, Україна",337525655.0,Q4226579,,1.0,matched_nominatim
Lobachevka,0803Lb1,Volhinia,8.0,3.0,Pale,South-West,0,193.0,981.0,1.0,mestechko,,,981.0,,Volhinia,Dubno,50.418919,24.976742,"Лобачівка, Волинська область, Україна",30722636.0,Q547697,,0.9,matched_reverse
Mikhailovka,0803Mk1,Volhinia,8.0,3.0,Pale,South-West,0,1047.0,1197.0,1.0,mestechko,,,1197.0,,Volhinia,Dubno,50.4710604,25.1931736,"Боремель, Боремельська сільська громада, Дубенський район, Рівненська область, 35210, Україна",337521109.0,Q4093558,,1.0,matched_refined
Mlynov,0803Ml1,Volhinia,8.0,3.0,Pale,South-West,0,672.0,1105.0,1.0,mestechko,,,1105.0,,Volhinia,Dubno,50.5118774,25.6126259,"Млинів, Млинівська селищна громада, Дубенський район, Рівненська область, 35100, Україна",337520527.0,Q2658207,,0.833,matched_nominatim
Muravitsa,0803Mr1,Volhinia,8.0,3.0,Pale,South-West,0,757.0,958.0,1.0,mestechko,,,958.0,,Volhinia,Dubno,50.5210243,25.5902795,"Млинів, Рівненська область, Україна",3170604795.0,,,0.947,matched_db_api
Mizoch',0803Mz1,Volhinia,8.0,3.0,Pale,South-West,0,1175.0,2667.0,1.0,mestechko,,,2667.0,,Volhinia,Dubno,50.3838453,26.1500123,"Мізочок, Мізоцька селищна громада, Рівненський район, Рівненська область, 35740, Україна",337523044.0,Q4292921,,0.857,matched_nominatim
Olyka,0803Ol1,Volhinia,8.0,3.0,Pale,South-West,0,2606.0,4210.0,1.0,mestechko,,,4210.0,,Volhinia,Dubno,50.7237994,25.8120572,"Олика, Волинська область, Україна",337517247.0,Q1050383,,1.0,matched_db_api
Ostrozhets,0803Os1,Volhinia,8.0,3.0,Pale,South-West,0,636.0,1464.0,1.0,mestechko,,,1464.0,,Volhinia,Dubno,50.667568,25.53978,"Острожець, Острожецька сільська громада, Дубенський район, Рівненська область, 35113, Україна",337518171.0,Q4339107,אוסטרוז'ץ,1.0,matched_nominatim
Ozerany,0803Oz1,Volhinia,8.0,3.0,Pale,South-West,0,1013.0,1111.0,1.0,derevnia,,,1111.0,,Volhinia,Dubno,50.4683593,26.0294852,"Озеряни, Варковицька сільська громада, Дубенський район, Рівненська область, 35613, Україна",337521272.0,Q4332192,,0.933,matched_nominatim
Torgovitsa,0803Tr1,Volhinia,8.0,3.0,Pale,South-West,0,891.0,907.0,1.0,mestechko,,,907.0,,Volhinia,Dubno,50.5541235,25.3960949,"Торговиця, Підлозцівська сільська громада, Дубенський район, Рівненська область, 35133, Україна",337519808.0,Q359380,,1.0,matched_nominatim
Varkovichi,0803Vr1,Volhinia,8.0,3.0,Pale,South-West,0,1109.0,1925.0,1.0,mestechko,,,1925.0,,Volhinia,Dubno,50.4709226,25.9708915,"Варковичі, Варковицька сільська громада, Дубенський район, Рівненська область, 35612, Україна",337521236.0,Q4103854,,1.0,matched_nominatim
Verba,0803Vr2,Volhinia,8.0,3.0,Pale,South-West,0,452.0,1530.0,1.0,mestechko,,,1530.0,,Volhinia,Dubno,50.280323,25.590887,"Верба, Вербська сільська громада, Дубенський район, Рівненська область, 35670, Україна",337525256.0,Q2599119,,1.0,matched_nominatim
Antoniny,0804An1,Volhinia,8.0,4.0,Pale,South-West,1,25.0,1803.0,1.0,selo,at_most,No Jews mentioned at census year; calculated by subtraction from Total value any other groups mentioned in census for this place,1803.0,,Volhinia,Zaslavl',49.81029,26.86466,"Антоніни, Хмельницька область, Україна",337544206.0,Q599421,,1.0,matched_db_api
Bielogorodka,0804Bl1,Volhinia,8.0,4.0,Pale,South-West,0,1846.0,5438.0,1.0,mestechko,,Name of district as it mentioned in census,5438.0,,Volhinia,Zaslavl',50.007359,26.639441,"Білогородка, Ізяславська міська громада, Шепетівський район, Хмельницька область, 30343, Україна",337537394.0,Q1660287,,0.957,matched_nominatim
Gritsev,0804Gr1,Volhinia,8.0,4.0,Pale,South-West,0,979.0,1011.0,1.0,mestechko,,,1011.0,,Volhinia,Zaslavl',49.9726651,27.2175036,"Гриців, Хмельницька область, Україна",337538282.0,Q1973720,,1.0,matched_db_api
Kornitsa,0804Kr1,Volhinia,8.0,4.0,Pale,South-West,0,517.0,1251.0,1.0,mestechko,,,1251.0,,Volhinia,Zaslavl',50.052333,26.5269027,"Корниця, Хмельницька область, Україна",337535940.0,Q4233418,,1.0,matched_db_api
Labun',0804Lb1,Volhinia,8.0,4.0,Pale,South-West,1,10.0,2317.0,1.0,mestechko,at_most,No Jews mentioned at census year; calculated by subtraction from Total value any other groups mentioned in census for this place; strange difference in populations-coordinates in the middle between 2 countries,2317.0,,Volhinia,Zaslavl',50.018445,27.367373,"Юровщина, Полонська міська громада, Шепетівський район, Хмельницька область, 30522, Україна",337536933.0,Q4535126,,1.0,matched_nominatim
Mikhlia,0804Mk1,Volhinia,8.0,4.0,Pale,South-West,0,311.0,1438.0,1.0,selo,,,1438.0,,Volhinia,Zaslavl',50.1603563,26.8094319,"Михля, Хмельницька область, Україна",337527874.0,Q4298176,,1.0,matched_reverse
Shchepetovka,0804Sc1,Volhinia,8.0,4.0,Pale,South-West,0,3880.0,8033.0,1.0,mestechko,,,8033.0,,Volhinia,Zaslavl',50.1809437,27.0651783,"Шепетівка, Хмельницька область, Україна",313245343.0,Q161965,שפטיבקה,0.909,matched_db_api
Sudilkov,0804Sd1,Volhinia,8.0,4.0,Pale,South-West,0,2712.0,5551.0,1.0,mestechko,,,5551.0,,Volhinia,Zaslavl',50.166321,27.13142,"Судилків, Судилківська сільська громада, Шепетівський район, Хмельницька область, 30430, Україна",337527665.0,Q4445436,סודילקוב,1.0,matched_nominatim
Sluvuta,0804Sl1,Volhinia,8.0,4.0,Pale,South-West,0,4891.0,8454.0,1.0,mestechko,,,8454.0,,Volhinia,Zaslavl',50.2962398,26.8658254,"Славута, Славутська міська громада, Шепетівський район, Хмельницька область, 30000, Україна",313243807.0,Q856018,סלאוויטא,0.857,matched_nominatim
Velikii Cherniatin,0804Vl1,Volhinia,8.0,4.0,Pale,South-West,0,254.0,1555.0,1.0,selo,,,1555.0,,Volhinia,Zaslavl',49.786949,27.071341,"Великий Чернятин, Хмельницька область, Україна",337545099.0,Q967955,,1.0,matched_reverse
Zaslavl',0804Zs1,Volhinia,8.0,4.0,Pale,South-West,0,5998.0,12611.0,1.0,Uezdnyi gorod,,,12611.0,,Volhinia,Zaslavl',50.1194691,26.8207625,"Ізяслав, Ізяславська міська громада, Шепетівський район, Хмельницька область, Україна",192675927.0,Q841029,,0.8,matched_nominatim
Cheremoshno,0805Cr1,Volhinia,8.0,5.0,Pale,South-West,1,113.0,1144.0,1.0,selo,at_most,No Jews mentioned at census year; calculated by subtraction from Total value any other groups mentioned in census for this place,1144.0,,Volhinia,Kovel',51.3233953,25.0232037,"Черемошне, Волинська область, Україна",337509550.0,Q4512739,,1.0,matched_db_api
Dol'sk,0805Dl1,Volhinia,8.0,5.0,Pale,South-West,1,17.0,637.0,1.0,selo,at_most,No Jews mentioned at census year; calculated by subtraction from Total value any other groups mentioned in census for this place,637.0,,Volhinia,Kovel',51.1079635,24.3728217,"Дольськ, Турійська селищна громада, Ковельський район, Волинська область, Україна",30722807.0,Q4165139,,1.0,matched_nominatim
Datyn',0805Dt1,Volhinia,8.0,5.0,Pale,South-West,1,40.0,1520.0,1.0,selo,at_most,No Jews mentioned at census year; calculated by subtraction from Total value any other groups mentioned in census for this place,1520.0,,Volhinia,Kovel',51.525532,24.76009,"Датинь, Велимченська сільська громада, Ковельський район, Волинська область, 44165, Україна",337507282.0,Q4155220,,1.0,matched_nominatim
Goloby,0805Gl1,Volhinia,8.0,5.0,Pale,South-West,1,108.0,1416.0,1.0,selo,at_most,No Jews mentioned at census year; calculated by subtraction from Total value any other groups mentioned in census for this place,1416.0,,Volhinia,Kovel',51.0859784,25.015465,"Голоби, Голобська селищна громада, Ковельський район, Волинська область, 45070, Україна",337511906.0,Q2470639,,1.0,matched_nominatim
Kamen'-Kashirsk,0805Km1,Volhinia,8.0,5.0,Pale,South-West,0,1189.0,1220.0,1.0,mestechko,,,1220.0,,Volhinia,Kovel',51.6271153,24.961357,"Камінь-Каширський, Камінь-Каширська міська громада, Камінь-Каширський район, Волинська область, 44501, Україна",337506245.0,Q1000461,קאמין-קושירסקי,0.929,matched_nominatim
Kortelisy,0805Kr1,Volhinia,8.0,5.0,Pale,South-West,0,141.0,1110.0,1.0,selo,,,1110.0,,Volhinia,Kovel',51.851753,24.42799,"Кортеліси, Ратнівська селищна громада, Ковельський район, Волинська область, Україна",30723729.0,Q2621101,,1.0,matched_nominatim
Kashovka,0805Ks1,Volhinia,8.0,5.0,Pale,South-West,0,445.0,1059.0,1.0,mestechko,,,1059.0,,Volhinia,Kovel',51.164021,25.313869,"Кашівка, Волинська область, Україна",337511143.0,Q4218083,,0.875,matched_db_api
Kovel',0805Kv1,Volhinia,8.0,5.0,Pale,South-West,0,8521.0,17697.0,1.0,Uezdnyi gorod,,,17697.0,,Volhinia,Kovel',51.2120807,24.7088806,"Ковель, Ковельська міська громада, Ковельський район, Волинська область, 45004, Україна",146651245.0,Q156704,קובל,1.0,matched_nominatim
Malaia Glusha,0805Ml1,Volhinia,8.0,5.0,Pale,South-West,1,55.0,1046.0,1.0,selo,at_most,No Jews mentioned at census year; calculated by subtraction from Total value any other groups mentioned in census for this place,1046.0,,Volhinia,Kovel',51.7866437,24.9807531,"Мала Глуша, Камінь-Каширська міська громада, Камінь-Каширський район, Волинська область, 44224, Україна",30723881.0,Q4276806,,1.0,matched_nominatim
Mel'nitsa,0805Ml2,Volhinia,8.0,5.0,Pale,South-West,0,1599.0,2588.0,1.0,mestechko,,,2588.0,,Volhinia,Kovel',51.15131,25.104099,"Мельниця, Велицька сільська громада, Ковельський район, Волинська область, 45080, Україна",337511239.0,Q2509678,,1.0,matched_nominatim
Milianovichi,0805Ml3,Volhinia,8.0,5.0,Pale,South-West,0,100.0,755.0,1.0,mestechko,,,755.0,,Volhinia,Kovel',51.189984,24.4479483,"Миляновичі, Луківська селищна громада, Ковельський район, Волинська область, 44820, Україна",337510829.0,Q4293895,,1.0,matched_nominatim
Matsiov,0805Mt1,Volhinia,8.0,5.0,Pale,South-West,0,2337.0,3897.0,1.0,mestechko,,,3897.0,,Volhinia,Kovel',51.2297317,24.3420795,"Луків, Луківська селищна громада, Ковельський район, Волинська область, 44810, Україна",337510512.0,Q2027024,,1.0,matched_refined
Nesukhoizhi,0805Ns1,Volhinia,8.0,5.0,Pale,South-West,0,814.0,1862.0,1.0,mestechko,,,1862.0,,Volhinia,Kovel',51.3767408,24.833854,"Воля, Ковельська міська громада, Ковельський район, Волинська область, 45021, Україна",337508873.0,Q2068366,,1.0,matched_refined
Povursk,0805Pv1,Volhinia,8.0,5.0,Pale,South-West,1,35.0,1328.0,1.0,selo,at_most,Calculated by subtraction from Total value any other groups mentioned in census for this place,1328.0,,Volhinia,Kovel',51.261631,25.129389,"Поворськ, Поворська сільська громада, Ковельський район, Волинська область, Україна",30723689.0,Q933619,,0.857,matched_nominatim
Ratno,0805Rt1,Volhinia,8.0,5.0,Pale,South-West,0,2219.0,3089.0,1.0,mestechko,,,3089.0,,Volhinia,Kovel',51.67145,24.52458,"Ратне, Ратнівська селищна громада, Ковельський район, Волинська область, 44100, Україна",337505820.0,Q1385480,רטנה,1.0,matched_nominatim
Stobykova,0805St1,Volhinia,8.0,5.0,Pale,South-West,0,492.0,1214.0,1.0,mestechko,,,1214.0,,Volhinia,Kovel',51.3965,25.181232,"Стобихва, Камінь-Каширська міська громада, Камінь-Каширський район, Волинська область, Україна",30718739.0,Q4442690,,0.889,matched_nominatim
Turiisk,0805Tr1,Volhinia,8.0,5.0,Pale,South-West,0,1713.0,2938.0,1.0,Zashtatnyi gorod,,,2938.0,,Volhinia,Kovel',51.08299,24.52389,"Турійськ, Турійська селищна громада, Ковельський район, Волинська область, 44800, Україна",337511968.0,Q1996528,,1.0,matched_nominatim
Velikaia Glusha,0805Vl1,Volhinia,8.0,5.0,Pale,South-West,0,182.0,1734.0,1.0,selo,,,1734.0,,Volhinia,Kovel',51.817032,25.04236,"Велика Глуша, Камінь-Каширська міська громада, Камінь-Каширський район, Волинська область, 44221, Україна",30723727.0,Q2065654,גלוּשָׁה רבתי,1.0,matched_nominatim
Bielozorki,0806Bl1,Volhinia,8.0,6.0,Pale,South-West,0,1070.0,2905.0,1.0,mestechko,,,2905.0,,Volhinia,Kremenets,49.7642414,26.1814411,"Білозірка, Тернопільська область, Україна",337545889.0,Q4082469,,0.8,matched_reverse
Bol'shie Fol'varki,0806Bl2,Volhinia,8.0,6.0,Pale,South-West,1,,,0.0,selo,,It's not mentioned in census; http://fgurgia.ru/showObject.do?object=27413913,,,Volhinia,Kremenets,50.36666,28.13333,Bol'shie Fol'varki,,,,,legacy_coords
Berezhetsy,0806Br1,Volhinia,8.0,6.0,Pale,South-West,0,428.0,1252.0,1.0,mestechko,,,1252.0,,Volhinia,Kremenets,50.09663,25.60501,"Великі Бережці, Тернопільська область, Україна",337534596.0,Q4106383,,1.0,matched_refined
Iampol',0806Im1,Volhinia,8.0,6.0,Pale,South-West,0,1482.0,2564.0,1.0,mestechko,,,2564.0,,Volhinia,Kremenets,49.9562165,26.2274578,"Ямпіль, Хмельницька область, Україна",337538997.0,Q1681481,יאמפיל,1.0,matched_db_api
Kremenets,0806Kr1,Volhinia,8.0,6.0,Pale,South-West,0,6539.0,17704.0,1.0,Uezdnyi gorod,,,17704.0,,Volhinia,Kremenets,50.0960966,25.7260783,"Кременець, Тернопільська область, Україна",312247291.0,Q849116,,1.0,matched_db_api
Katerburg,0806Kt1,Volhinia,8.0,6.0,Pale,South-West,0,693.0,1035.0,1.0,mestechko,,,1035.0,,Volhinia,Kremenets,50.0053,25.88619,"Катеринівка, Тернопільська область, Україна",337537503.0,Q4217332,,1.0,matched_db_api
Lapovtsy,0806Lp1,Volhinia,8.0,6.0,Pale,South-West,0,1174.0,2525.0,1.0,mestechko,,Different city is mentioned on site and link (same population),2525.0,,Volhinia,Kremenets,49.8734191,26.0780148,"Ланівці, Лановецька міська громада, Кременецький район, Тернопільська область, 47400, Україна",312249487.0,Q591788,לאניבצי,0.875,matched_nominatim
Novyi Aleksinets,0806Nv1,Volhinia,8.0,6.0,Pale,South-West,0,342.0,1206.0,1.0,mestechko,,,1206.0,,Volhinia,Kremenets,49.838958,25.4945994,"Новий Олексинець, Тернопільська область, Україна",337543349.0,Q4326561,,1.0,matched_db_api
Novyi Pochaev,0806Nv2,Volhinia,8.0,6.0,Pale,South-West,0,1377.0,1921.0,1.0,mestechko,,Different city is mentioned on site and link (same population),1921.0,,Volhinia,Kremenets,50.0017638,25.5110926,"Почаїв, Тернопільська область, Україна",312253429.0,Q149060,,1.0,matched_refined
Novyi Vishnevets,0806Nv3,Volhinia,8.0,6.0,Pale,South-West,0,2980.0,4196.0,1.0,mestechko,,,4196.0,,Volhinia,Kremenets,49.9019379,25.7510822,"Вишнівець, Тернопільська область, Україна",337541242.0,Q2993487,,1.0,matched_refined
Radzivilov,0806Rd1,Volhinia,8.0,6.0,Pale,South-West,0,4322.0,7313.0,1.0,mestechko,,,7313.0,,Volhinia,Kremenets,50.1279775,25.2487069,"Радивилів, Рівненська область, Україна",337533363.0,Q1020069,ראדיביליב,0.947,matched_db_api
Rokhmanovo,0806Rk1,Volhinia,8.0,6.0,Pale,South-West,0,93.0,576.0,1.0,selo,,,576.0,,Volhinia,Kremenets,50.12821,26.08669,"Рохманів, Тернопільська область, Україна",337533422.0,Q4398758,,0.947,matched_db_api
Shumsk,0806Sm1,Volhinia,8.0,6.0,Pale,South-West,0,1962.0,2258.0,1.0,mestechko,,,2258.0,,Volhinia,Kremenets,50.1183638,26.1186214,"Шумськ, Тернопільська область, Україна",312259277.0,Q219601,,1.0,matched_db_api
Staryi Vishnevets,0806St1,Volhinia,8.0,6.0,Pale,South-West,0,314.0,1651.0,1.0,mestechko,,,1651.0,,Volhinia,Kremenets,49.8918086,25.7546001,"Старий Вишнівець, Тернопільська область, Україна",3167522.0,Q4441028,,1.0,matched_reverse
Vyshgorodok,0806Vy1,Volhinia,8.0,6.0,Pale,South-West,0,1078.0,2169.0,1.0,mestechko,,,2169.0,,Volhinia,Kremenets,49.76875,25.96859,"Вишгородок, Лановецька міська громада, Кременецький район, Тернопільська область, 47432, Україна",337545647.0,Q4129953,וישגרודק,1.0,matched_nominatim
Bol'shaia Volnianka,0807Bl1,Volhinia,8.0,7.0,Pale,South-West,0,286.0,1305.0,1.0,koloniia,,Now part of Rozhishche: http://www.rujen.ru/index.php/%D0%92%D0%BE%D0%B2%D0%BD%D1%8F%D0%BD%D0%BA%D0%B0,1305.0,,Volhinia,Lutsk,50.916332,25.2712543,"Рожище, Рожищенська міська громада, Луцький район, Волинська область, 45101, Україна",337514044.0,Q148896,רוז'ישצ'ה,1.0,matched_refined
Bol'shoi Zheludsk,0807Bl2,Volhinia,8.0,7.0,Pale,South-West,1,51.0,595.0,1.0,selo,at_most,Calculated by subtraction from Total value any other groups mentioned in census for this place,595.0,,Volhinia,Lutsk,51.303978,26.103418,"Малий Жолудськ, Рафалівська селищна громада, Вараський район, Рівненська область, 34364, Україна",337509636.0,Q4278868,,manual,matched_manual
Berezhnitsa,0807Br1,Volhinia,8.0,7.0,Pale,South-West,0,2160.0,2964.0,1.0,mestechko,,,2964.0,,Volhinia,Lutsk,51.440048,26.46607,"Бережниця, Дубровицька міська громада, Сарненський район, Рівненська область, 34164, Україна",337508161.0,Q4084328,,1.0,matched_nominatim
Chartoriisk,0807Cr1,Volhinia,8.0,7.0,Pale,South-West,0,822.0,2776.0,1.0,mestechko,,,2776.0,,Volhinia,Lutsk,51.226158,25.878981,"Чарторийськ, Волинська область, Україна",30723699.0,Q1007758,,1.0,matched_db_api
Dradysk,0807Dr1,Volhinia,8.0,7.0,Pale,South-West,1,18.0,579.0,1.0,selo,at_most,No Jews mentioned; calculated by subtraction from Total value any other groups mentioned in census for this place,579.0,,Volhinia,Lutsk,51.382202,25.346375,"Градиськ, Маневицька селищна громада, Камінь-Каширський район, Волинська область, 44621, Україна",337508775.0,Q4147398,,0.857,matched_nominatim
Gulevichev,0807Gl1,Volhinia,8.0,7.0,Pale,South-West,0,245.0,673.0,1.0,mestechko,,,673.0,,Volhinia,Lutsk,51.259121,25.21946,"Гулівка, Поворська сільська громада, Ковельський район, Волинська область, Україна",30718912.0,Q2068330,,1.0,matched_refined
Gorodets,0807Gr1,Volhinia,8.0,7.0,Pale,South-West,1,113.0,1876.0,1.0,selo,at_most,Calculated by subtraction from Total value any other groups mentioned in census for this place,1876.0,,Volhinia,Lutsk,51.2816709,26.3289655,"Городець, Сарненська міська громада, Сарненський район, Рівненська область, 34381, Україна",337509894.0,Q964803,,1.0,matched_nominatim
Gorodok,0807Gr2,Volhinia,8.0,7.0,Pale,South-West,0,188.0,1118.0,1.0,mestechko,,,1118.0,,Volhinia,Lutsk,50.6964519,25.129314,Городок,337517729.0,Q2065860,,1.0,matched_db_api
Ignatovka,0807Ig1,Volhinia,8.0,7.0,Pale,South-West,0,567.0,567.0,1.0,koloniia,,,567.0,,Volhinia,Lutsk,50.9346675,25.6994506,"Ківерцівська міська громада, Волинська область, Україна",10738436126.0,Q2905629,לוז'ישט,0.889,matched_db_api
Kolki,0807Kl1,Volhinia,8.0,7.0,Pale,South-West,0,2537.0,4394.0,1.0,mestechko,,,4394.0,,Volhinia,Lutsk,51.0962777,25.6676021,"Колки, Колківська селищна громада, Луцький район, Волинська область, 44663, Україна",337511872.0,Q1010088,,1.0,matched_nominatim
Kopachevka,0807Kp1,Volhinia,8.0,7.0,Pale,South-West,0,226.0,648.0,1.0,poselok,,,648.0,,Volhinia,Lutsk,50.8798116,25.2230391,"Копачівка, Копачівська сільська громада, Луцький район, Волинська область, 45150, Україна",337514623.0,Q4232263,,0.9,matched_nominatim
Kivertsy,0807Kv1,Volhinia,8.0,7.0,Pale,South-West,1,59.0,564.0,1.0,selo,at_most,No Jews mentioned at census year; calculated by subtraction from Total value any other groups mentioned in census for this place,564.0,,Volhinia,Lutsk,50.8333448,25.4648622,"Ківерці, Ківерцівська міська громада, Луцький район, Волинська область, 45201, Україна",337515438.0,Q148890,קיברצי,1.0,matched_nominatim
Lishnevka,0807Ls1,Volhinia,8.0,7.0,Pale,South-West,0,292.0,1354.0,1.0,mestechko,,,1354.0,,Volhinia,Lutsk,51.47575,25.40863,"Лишнівка, Волинська область, Україна",337507826.0,Q7238092,,1.0,matched_db_api
Lutsk,0807Lt1,Volhinia,8.0,7.0,Pale,South-West,0,9468.0,15804.0,1.0,Uezdnyi gorod,,,15804.0,,Volhinia,Lutsk,50.7450733,25.320078,"Луцьк, Луцька міська громада, Луцький район, Волинська область, 45606, Україна",146570870.0,Q7550,לוצק,1.0,matched_nominatim
Manevichi,0807Mn1,Volhinia,8.0,7.0,Pale,South-West,1,5.0,990.0,1.0,selo,at_most,No Jews mentioned at census year; calculated by subtraction from Total value any other groups mentioned in census for this place,990.0,,Volhinia,Lutsk,51.2908106,25.537878,"Маневичі, Маневицька селищна громада, Камінь-Каширський район, Волинська область, 44600, Україна",337509799.0,Q1014310,,1.0,matched_nominatim
Olizarka,0807Ol1,Volhinia,8.0,7.0,Pale,South-West,0,254.0,,0.0,koloniia,,It's not mentioned in census but mentioned in Jewish Encyclopedy of Brokhaus&Efron,,unknown,Volhinia,Lutsk,51.3552476,25.9823543,"хутір Олізарка, Рафалівська селищна громада, Вараський район, Рівненська область, 34362, Україна",1782353075.0,,,0.71,matched_refined
Rafalovka,0807Rf1,Volhinia,8.0,7.0,Pale,South-West,0,1054.0,2038.0,1.0,mestechko,,,2038.0,,Volhinia,Lutsk,51.30718,26.00018,"Рафалівка, Рафалівська селищна громада, Вараський район, Рівненська область, 34371, Україна",337509652.0,Q2670231,רפליבקה,1.0,matched_nominatim
Rozhishche,0807Rz1,Volhinia,8.0,7.0,Pale,South-West,0,3169.0,3830.0,1.0,mestechko,,,3830.0,,Volhinia,Lutsk,50.916332,25.2712543,Рожище,337514044.0,Q148896,רוז'ישצ'ה,1.0,matched_db_api
Sofievka,0807Sf1,Volhinia,8.0,7.0,Pale,South-West,0,1580.0,1591.0,1.0,koloniia,,,1591.0,,Volhinia,Lutsk,50.9143165,25.6951115,"Цуманська селищна громада, Волинська область, Україна",4295226540.0,Q702450,טרוכנברוד,0.875,matched_refined
Sokul',0807Sk1,Volhinia,8.0,7.0,Pale,South-West,0,490.0,1333.0,1.0,mestechko,,,1333.0,,Volhinia,Lutsk,51.047291,25.34203,"Сокіл, Рожищенська міська громада, Луцький район, Волинська область, 45113, Україна",30720258.0,Q762209,,1.0,matched_nominatim
Torchin,0807Tr1,Volhinia,8.0,7.0,Pale,South-West,0,2629.0,4507.0,1.0,mestechko,,,4507.0,,Volhinia,Lutsk,50.769734,25.010768,"Торчин, Торчинська селищна громада, Луцький район, Волинська область, 45612, Україна",30736942.0,Q2469901,,1.0,matched_nominatim
Troianovka,0807Tr2,Volhinia,8.0,7.0,Pale,South-West,0,314.0,1676.0,1.0,mestechko,,,1676.0,,Volhinia,Lutsk,51.331558,25.28606,"Троянівка, Маневицька селищна громада, Камінь-Каширський район, Волинська область, Україна",30723631.0,Q4464060,,1.0,matched_nominatim
Vladimirets,0807Vl1,Volhinia,8.0,7.0,Pale,South-West,0,1024.0,2074.0,1.0,mestechko,,,2074.0,,Volhinia,Lutsk,51.4197839,26.1392078,"Володимирець, Володимирецька селищна громада, Вараський район, Рівненська область, 34300, Україна",337508346.0,Q2658213,ולדימירץ,1.0,matched_nominatim
Zhalobov,0807Zl1,Volhinia,8.0,7.0,Pale,South-West,0,261.0,1063.0,1.0,derevnia,,Now part of Rozhishche:http://www.rujen.ru/index.php/%D0%96%D0%90%D0%9B%D0%9E%D0%91%D0%9E%D0%92,1063.0,,Volhinia,Lutsk,50.9167,25.2667,Zhalobov,,,,,legacy_coords
Baranovka,0808Br1,Volhinia,8.0,8.0,Pale,South-West,0,1990.0,2095.0,1.0,mestechko,,,2095.0,,Volhinia,Novograd-Volynskii,50.29369,27.66666,Баранівка,337525063.0,Q148917,ברניבקה,1.0,matched_db_api
Berezdov,0808Br2,Volhinia,8.0,8.0,Pale,South-West,0,1319.0,2687.0,1.0,mestechko,,,2687.0,,Volhinia,Novograd-Volynskii,50.460449,27.116673,"Берездів, Берездівська сільська громада, Шепетівський район, Хмельницька область, 30053, Україна",1489631662.0,Q2040277,,1.0,matched_nominatim
Chizhovka,0808Cz1,Volhinia,8.0,8.0,Pale,South-West,0,91.0,635.0,1.0,derevnia,,,635.0,,Volhinia,Novograd-Volynskii,50.6675866,27.618603,"Чижівка, Житомирська область, Україна",337518150.0,Q4515784,,1.0,matched_reverse
Dolgosel'e,0808Dl1,Volhinia,8.0,8.0,Pale,South-West,0,120.0,820.0,1.0,derevnia,,,820.0,,Volhinia,Novograd-Volynskii,51.15,27.5,Dolgosel'e (Kamenka),,,,,legacy_coords
Dovbysh,0808Dv1,Volhinia,8.0,8.0,Pale,South-West,0,92.0,872.0,1.0,derevnia,,,872.0,,Volhinia,Novograd-Volynskii,50.371498,27.985924,"Довбиш, Довбиська селищна громада, Звягельський район, Житомирська область, 12724, Україна",337523156.0,Q2993483,,1.0,matched_nominatim
Emil'chik,0808Em1,Volhinia,8.0,8.0,Pale,South-West,0,1049.0,2477.0,1.0,selo,,,2477.0,,Volhinia,Novograd-Volynskii,50.872091,27.8047443,"Ємільчине, Житомирська область, Україна",337514704.0,Q2641633,,0.824,matched_db_api
Gorodnitsa,0808Gr1,Volhinia,8.0,8.0,Pale,South-West,0,1310.0,2314.0,1.0,mestechko,,,2314.0,,Volhinia,Novograd-Volynskii,50.80627,27.31407,"Городниця, Городницька селищна громада, Звягельський район, Житомирська область, 11714, Україна",337515899.0,Q2670476,,1.0,matched_nominatim
Kamennyi Brod,0808Km1,Volhinia,8.0,8.0,Pale,South-West,0,1147.0,1773.0,1.0,derevnia,,,1773.0,,Volhinia,Novograd-Volynskii,50.4181836,27.8381143,"Жовте, Житомирська область, Україна",337522370.0,Q2657922,,1.0,matched_db_api
Korets,0808Kr1,Volhinia,8.0,8.0,Pale,South-West,0,4608.0,6060.0,1.0,mestechko,,,6060.0,,Volhinia,Novograd-Volynskii,50.6194566,27.159712,"Корець, Корецька міська громада, Рівненський район, Рівненська область, 34700, Україна",1489631667.0,Q997398,קורץ,1.0,matched_nominatim
Krasnostav,0808Kr2,Volhinia,8.0,8.0,Pale,South-West,0,1222.0,2194.0,1.0,mestechko,,,2194.0,,Volhinia,Novograd-Volynskii,50.4094642,27.1791527,"Красностав, Берездівська сільська громада, Шепетівський район, Хмельницька область, 30085, Україна",337522431.0,Q4239088,,1.0,matched_nominatim
Liubar,0808Lb1,Volhinia,8.0,8.0,Pale,South-West,0,5435.0,12507.0,1.0,mestechko,,,12507.0,,Volhinia,Novograd-Volynskii,49.9231632,27.7487535,"Любар, Любарська селищна громада, Житомирський район, Житомирська область, 13101, Україна",337540453.0,Q2652151,ליובר‎,1.0,matched_nominatim
Mar'ianovka Guta,0808Mr1,Volhinia,8.0,8.0,Pale,South-West,0,106.0,710.0,1.0,derevnia,,http://rujen.ru/index.php/%D0%93%D0%A3%D0%A2%D0%90_%D0%9C%D0%90%D0%A0%D0%AC%D0%AF%D0%9D%D0%9E%D0%92%D0%9A%D0%90,710.0,,Volhinia,Novograd-Volynskii,50.686451,27.823219,"Стара Гута, Житомирська область, Україна",337517857.0,Q4439656,,0.667,matched_reverse
Miropol',0808Mr2,Volhinia,8.0,8.0,Pale,South-West,0,1912.0,4914.0,1.0,mestechko,,,4914.0,,Volhinia,Novograd-Volynskii,50.1099029,27.697456,"Миропіль, Миропільська селищна громада, Житомирський район, Житомирська область, 13038, Україна",337534123.0,Q2980442,,1.0,matched_nominatim
Novaia Chartoriia,0808Nv1,Volhinia,8.0,8.0,Pale,South-West,0,502.0,1872.0,1.0,mestechko,,,1872.0,,Volhinia,Novograd-Volynskii,50.031738,27.70134,"Нова Чортория, Любарська селищна громада, Житомирський район, Житомирська область, 13120, Україна",337536658.0,Q4322387,,0.941,matched_nominatim
Novograd-Volynsk,0808Nv2,Volhinia,8.0,8.0,Pale,South-West,0,9378.0,16904.0,1.0,Uezdnyi gorod,,,16904.0,,Volhinia,Novograd-Volynskii,50.5917622,27.6066973,"Звягель, Житомирська область, Україна",146498192.0,Q149024,זוויאהל,0.938,matched_db_api
Novyi Korets,0808Nv3,Volhinia,8.0,8.0,Pale,South-West,0,951.0,2502.0,1.0,mestechko,,,2502.0,,Volhinia,Novograd-Volynskii,50.61264,27.138981,"Новий Корець, Рівненська область, Україна",337518890.0,Q4326674,,1.0,matched_reverse
Ostropol',0808Os1,Volhinia,8.0,8.0,Pale,South-West,0,2714.0,7505.0,1.0,mestechko,,,7505.0,,Volhinia,Novograd-Volynskii,49.807892,27.559225,"Старий Остропіль, Староостропільська сільська громада, Хмельницький район, Хмельницька область, 31146, Україна",337544267.0,Q1012604,,1.0,matched_nominatim
Pogorieloe,0808Pg1,Volhinia,8.0,8.0,Pale,South-West,0,67.0,578.0,1.0,derevnia,,,578.0,,Volhinia,Novograd-Volynskii,51.61797,28.888008,"Скараднянскі сельскі Савет, Ельскі раён, Гомельская вобласць, Беларусь",243025303.0,Q4366712,,0.947,matched_reverse
Polonnoe,0808Pl1,Volhinia,8.0,8.0,Pale,South-West,0,7910.0,16288.0,1.0,mestechko,,,16288.0,,Volhinia,Novograd-Volynskii,50.1193439,27.5089702,"Полонне, Полонська міська громада, Шепетівський район, Хмельницька область, 30500-30509, Україна",664074031.0,Q997351,פולונה,1.0,matched_nominatim
Paninka,0808Pn1,Volhinia,8.0,8.0,Pale,South-West,0,206.0,1025.0,1.0,derevnia,,,1025.0,,Volhinia,Novograd-Volynskii,50.19138,27.56126,"Понінка, Хмельницька область, Україна",337527159.0,Q1973731,,0.857,matched_db_api
Rogachev,0808Rg1,Volhinia,8.0,8.0,Pale,South-West,0,1303.0,1381.0,1.0,mestechko,,,1381.0,,Volhinia,Novograd-Volynskii,50.4092607,27.7222824,"Рогачів, Баранівська міська громада, Звягельський район, Житомирська область, 12722, Україна",337522262.0,Q4395415,רוהאצ'יב,0.875,matched_nominatim
Romanov,0808Rm1,Volhinia,8.0,8.0,Pale,South-West,0,2599.0,5645.0,1.0,mestechko,,,5645.0,,Volhinia,Novograd-Volynskii,50.1476608,27.9313692,"Романів, Романівська селищна громада, Житомирський район, Житомирська область, 13002, Україна",337528233.0,Q2629338,,1.0,matched_nominatim
Sokolov,0808Sk1,Volhinia,8.0,8.0,Pale,South-West,0,239.0,770.0,1.0,selo,,,770.0,,Volhinia,Novograd-Volynskii,50.496601,28.07007,"Соколів, Курненська сільська громада, Житомирський район, Житомирська область, 12021, Україна",337520816.0,Q4427266,,1.0,matched_nominatim
Seredniaia,0808Sr1,Volhinia,8.0,8.0,Pale,South-West,0,104.0,674.0,1.0,derevnia,,,674.0,,Volhinia,Novograd-Volynskii,50.3365238,27.5596188,"Середня, Житомирська область, Україна",337524324.0,Q4417520,,0.889,matched_reverse
Varvarovka,0808Vr1,Volhinia,8.0,8.0,Pale,South-West,0,62.0,621.0,1.0,derevnia,,"There are 2 countries with this name, was chosen by population and Emilchin history: http://www.jewishperson.org/emilchino/emilchino/",621.0,,Volhinia,Novograd-Volynskii,46.99205,31.941372,"Варварівка, Центральний район, Миколаїв, Миколаївська міська громада, Миколаївський район, Миколаївська область, 54000, Україна",2416748.0,Q4103639,,1.0,matched_nominatim
