index,name,prov,dist,pale,region,jews,total,type,no_jews,is_census,total_flag,jewish_flag,comments,name_he,modern_name,dist_code,index_sht,osm_id,wikidata_id,lat,lon
1,Bol'shiia Chepurniki,Astrakhan,Chernyi Iar,0,Inner Russia,256,2219,selo,0,1,"","",.,"","Большие Чапурники, Светлоярский район, Волгоградская область, Россия",0205,0205Bl1,1186585399,Q3641689,48.421906,44.584492
2,Gancheshty,Bessarabia,Kishinev,1,New Russia,2228,5044,mestechko,0,1,"","","","","Hîncești, Raionul Hîncești, Moldova",0301,0301Gn1,12326787558,"",46.8463666,28.5427304
3,Kishinev,Bessarabia,Kishinev,1,New Russia,50237,108483,Gubernskii gorod,0,1,"","","",קישינב,"Chișinău, Moldova",0301,0301Ks1,129991407,Q21197,47.0245117,28.8322923
4,Secareni,Bessarabia,Kishinev,1,New Russia,,,selo,1,1,"","","","","Secăreni, Moldova",0301,0301Sc1,277635130,Q1987061,47.0254321,28.3309879
5,Akkerman,Bessarabia,Akkerman,1,New Russia,5624,28258,Uezdnyi gorod,0,1,"","","",בילהורוד-דניסטרובסקי,"Білгород-Дністровський, Білгород-Дністровська міська громада, Білгород-Дністровський район, Одеська область, 67700-67719, Україна",0302,0302Ak1,738536340,Q672990,46.1909823,30.345784
6,Bairamcha,Bessarabia,Akkerman,1,New Russia,980,2718,selo,0,1,"","","","","Байрамча, Одеська область, Україна",0302,0302Br1,337691949,Q4320223,46.1350455,29.903189
7,Staro-Artsiz,Bessarabia,Akkerman,1,New Russia,337,1827,selo,0,1,"","","","","Арциз, Арцизька міська громада, Болградський район, Одеська область, Україна",0302,0302St1,191255341,Q719051,45.9962017,29.431517
8,Tarutino,Bessarabia,Akkerman,1,New Russia,1873,5200,selo,0,1,"","","","","Бессарабське, Одеська область, Україна",0302,0302Tr1,337691696,Q2037768,46.1821786,29.151948
9,Tatarbunary,Bessarabia,Akkerman,1,New Russia,999,6023,mestechko,0,1,"","","","","Татарбунари, Татарбунарська міська громада, Білгород-Дністровський район, Одеська область, 68100-68104, Україна",0302,0302Tt1,176806726,Q545923,45.8398696,29.6166537
10,Bendery,Bessarabia,Bendery,1,New Russia,10654,31797,Uezdnyi gorod,0,1,"","","",טיגינה,"Бендеры, Нистрения / Приднестровье / Придністров'я, Moldova",0303,0303Bn1,265099165,Q192176,46.8218177,29.4819196
11,Chimishliia,Bessarabia,Bendery,1,New Russia,752,4355,mestechko,0,1,"","","","","Cimișlia, Moldova",0303,0303Cm1,265099170,Q2019719,46.5214777,28.7832993
12,Manzyr',Bessarabia,Bendery,1,New Russia,310,1079,mestechko,0,1,"","",Possible some connection with Lambrovka not mentioned in census lists,"","Лісне, Одеська область, Україна",0303,0303Mn1,1105027826,Q387287,46.467018,29.350321
13,Novye Kaushany,Bessarabia,Bendery,1,New Russia,1675,3729,mestechko,0,1,"","","","","Căușeni, Moldova",0303,0303Nv1,265099168,Q657744,46.6495405,29.4067719
14,Petrovka,Bessarabia,Bendery,1,New Russia,611,1740,mestechko,0,1,"","",According to Chaga (name of the river as well) I would suggest this destination to it,"","Mereni, Moldova",0303,0303Pt1,12500498226,"",46.974685,29.0876527
15,Romanovka,Bessarabia,Bendery,1,New Russia,1142,1622,derevnia,0,1,"","","","","Романовка, Basarabeasca, Raionul Basarabeasca, Moldova",0303,0303Rm1,13051971319,"",46.3344133,28.9612962
16,Aleksandreny,Bessarabia,Bieltsy,1,New Russia,1190,1253,koloniia,0,1,"","","","","Alexăndreni, Moldova",0304,0304Al1,281161097,Q2448236,47.8103129,28.0837775
17,Bel'tsy,Bessarabia,Bieltsy,1,New Russia,10348,18478,Uezdnyi gorod,0,1,"","","",בלץ,"Bălți, Moldova",0304,0304Bl1,266185307,Q37801,47.7623952,27.9286022
18,Buteshty Stavry,Bessarabia,Bieltsy,1,New Russia,108,674,selo,0,1,"","",http://ru.wikisource.org/wiki/%D0%A1%D0%B1%D0%BE%D1%80%D0%BD%D0%B8%D0%BA_%D0%B1%D0%BE%D0%B5%D0%B2%D1%8B%D1%85_%D0%B4%D0%BE%D0%BA%D1%83%D0%BC%D0%B5%D0%BD%D1%82%D0%BE%D0%B2/38/062,"",Buteshty Stavry (Broneshty),0304,0304Bt1,,"",47.3,28.91667
19,Foleshty,Bessarabia,Bieltsy,1,New Russia,4518,6672,mestechko,0,1,note_appended,"","","","Fălești, Moldova",0304,0304Fl1,265099157,Q2078085,47.5735141,27.7068016
20,Korneshty,Bessarabia,Bieltsy,1,New Russia,552,2689,selo,0,1,"","","","","Cornești, Moldova",0304,0304Kr1,262634522,Q2452920,47.3564908,28.0091608
21,Pyrlitsa,Bessarabia,Bieltsy,1,New Russia,494,722,poselok,0,1,"","","","","Pîrlița, Moldova",0304,0304Py1,18967765,"",47.7395891,27.8023661
22,Ryshkonovka,Bessarabia,Bieltsy,1,New Russia,2247,3246,mestechko,0,1,"","","","","Rîșcani, Moldova",0304,0304Ry1,265099150,Q1022131,47.9535987,27.5514453
23,Skuliany,Bessarabia,Bieltsy,1,New Russia,1555,3375,mestechko,0,1,"","","","","Sculeni, Victoria, Zona Metropolitană Iași, Iași, 707584, România",0304,0304Sk1,2028965166,Q12153433,47.3140503,27.605704
24,Ungeny,Bessarabia,Bieltsy,1,New Russia,997,1693,poselok,0,1,"","","",אונגני,"Ungheni, Moldova",0304,0304Un1,261076253,Q858713,47.2059965,27.798917
25,Valialui Vlad,Bessarabia,Bieltsy,1,New Russia,1318,1349,koloniia,0,1,"","","","","Valea lui Vlad, Dumbrăvița, Raionul Sîngerei, Moldova",0304,0304Vl1,281159656,Q4103165,47.4822493,28.1268665
26,Bolgrad,Bessarabia,Izmail,1,New Russia,1196,12300,zashtatnyi gorod,0,1,"","",A Gorod with less than 10% Jews (number of Jews is from Guberniyas volumes),"","Болград, Болградська міська громада, Болградський район, Одеська область, 68733, Україна",0305,0305Bl1,337693965,Q890122,45.6779137,28.6132404
27,Baimakliia,Bessarabia,Izmail,1,New Russia,397,1821,selo,0,1,"","","","","Baimaclia, Moldova",0305,0305Bm1,274074856,Q1776387,46.1871843,28.3774494
28,Izmail,Bessarabia,Izmail,1,New Russia,2780,22295,Uezdnyi gorod,0,1,"","","",איזמאיל,"Ізмаїл, Ізмаїльська міська громада, Ізмаїльський район, Одеська область, 68600-68633, Україна",0305,0305Iz1,337696139,Q147739,45.3511307,28.8361514
29,Kagul,Bessarabia,Izmail,1,New Russia,801,7077,zashtatnyi gorod,0,1,"","","",קאחול,"Cahul, Moldova",0305,0305Kg1,265099177,Q503469,45.9044087,28.1946583
30,Kyliia,Bessarabia,Izmail,1,New Russia,2153,11618,zashtatnyi gorod,0,1,"","","",קיליה,"Кілія, Кілійська міська громада, Ізмаїльський район, Одеська область, 68300-68303, Україна",0305,0305Ky1,337695449,Q889966,45.4409767,29.2652788
31,Leovo,Bessarabia,Izmail,1,New Russia,2773,4877,mestechko,0,1,"","","","","Leova, Moldova",0305,0305Lv1,19113653,"",46.4831855,28.265199
32,Reni,Bessarabia,Izmail,1,New Russia,730,6941,zashtatnyi gorod,0,1,"","","","","Рені, Ренійська міська громада, Ізмаїльський район, Одеська область, 68800-68809, Україна",0305,0305Rn1,337695416,Q890311,45.455413,28.2790948
33,Isakova,Bessarabia,Orgieev,1,New Russia,,,koloniia,1,1,unknown,unknown,Jewish colony since the end of XIX century,"","Isacova, Moldova",0306,0306Is1,18966839,"",47.3708104,28.7176372
34,Kriulian,Bessarabia,Orgieev,1,New Russia,338,2054,mestechko,0,1,"","","","","Criuleni, Moldova",0306,0306Kr1,273129425,Q997029,47.2132673,29.1599485
35,Olishkany,Bessarabia,Orgieev,1,New Russia,341,2943,selo,0,1,"","","","","Olișcani, Moldova",0306,0306Ol1,281155443,Q2447223,47.7990172,28.7144975
36,Orgieev,Bessarabia,Orgieev,1,New Russia,7144,12336,Uezdnyi gorod,0,1,"","","","","Orhei, Moldova",0306,0306Or1,1333215830,Q423258,47.3681328,28.8271393
37,Rezena,Bessarabia,Orgieev,1,New Russia,3182,3652,mestechko,0,1,"","","","","Rezina, Moldova",0306,0306Rz1,4674764082,Q2281181,47.7489209,28.9565739
38,Teleneshty,Bessarabia,Orgieev,1,New Russia,3876,4379,mestechko,0,1,"","","","","Telenești, Moldova",0306,0306Tl1,265099158,Q647051,47.5030998,28.3638314
39,Tuzora,Bessarabia,Orgieev,1,New Russia,4593,5153,mestechko,0,1,"","","","","Tuzara, Moldova",0306,0306Tz1,278468973,Q2454354,47.2418847,28.3041866
40,Vysshie Samashkony,Bessarabia,Orgieev,1,New Russia,79,678,selo,0,1,"","","","","Sămășcani, Moldova",0306,0306Vy1,19080665,Q1991127,47.7547863,28.6924283
41,Ataki,Bessarabia,Soroki,1,New Russia,4690,6976,mestechko,0,1,"","","","","Otaci, Moldova",0307,0307At1,283853454,Q2608576,48.437605,27.7916711
42,Bricheva,Bessarabia,Soroki,1,New Russia,1598,1644,koloniia,0,1,"","","","","Briceva, Moldova",0307,0307Br1,283559474,Q4096633,48.11138,27.6493716
43,Dombroveny,Bessarabia,Soroki,1,New Russia,1726,1815,koloniia,0,1,"","","","","Dumbrăveni, Moldova",0307,0307Dm1,281905624,"",48.0518203,28.2259698
44,Kapreshty,Bessarabia,Soroki,1,New Russia,866,1002,koloniia,0,1,"","",Different name in census but exactly the same population,"","Căprești, Moldova",0307,0307Kp1,281158638,Q4213203,47.7533722,28.4649435
45,Kremenchuk,Bessarabia,Soroki,1,New Russia,291,985,selo,0,1,"","","","",Cremenciug,0307,0307Kr1,282047160,Q1990607,48.2740004,28.0834272
46,Kot Markuleshty,Bessarabia,Soroki,1,New Russia,1336,1339,koloniia,0,1,"","",Different name in census but exactly the same population,"","Mărculești, Moldova",0307,0307Kt1,281158770,Q2608314,47.8693441,28.2415422
47,Liublin,Bessarabia,Soroki,1,New Russia,512,517,koloniia,0,1,"","",Coordinates added 191005,"","Nimereuca, Moldova",0307,0307Lb1,281908369,Q2446124,48.1126793,28.5375654
48,Pogorno-Rezesh,Bessarabia,Soroki,1,New Russia,73,540,derevnia,0,1,"","","","","Pohoarna, Moldova",0307,0307Pg1,281155452,Q1990771,47.8327305,28.4994684
49,Ruda,Bessarabia,Soroki,1,New Russia,127,1289,selo,0,1,"","","","","Rudi, Moldova",0307,0307Rd1,282047386,Q1962859,48.3265845,27.9008939
50,Subbotovka,Bessarabia,Soroki,1,New Russia,,,derevnia,1,1,unknown,unknown,"Not mentioned in lists of census, found accidently, searching on Wikimapia","","Суботівка, Вінницька область, Україна",0307,0307Sb1,337602312,Q4445003,48.3302176,28.0031797
51,Soroki,Bessarabia,Soroki,1,New Russia,8783,15351,Uezdnyi gorod,0,1,"","","","","Soroca, Raionul Soroca, Moldova",0307,0307Sr1,243320566,Q853785,48.1542664,28.2883476
52,Vad,Bessarabia,Soroki,1,New Russia,3237,4641,mestechko,0,1,"","","","",Vad (Vad-Rashkov),0307,0307Vd1,,"",47.93333,28.81667
53,Vertiuzhany,Bessarabia,Soroki,1,New Russia,1047,1057,koloniia,0,1,"","",Remains of settlement can be seen on Wikimapia,"","Vertiujeni, Moldova",0307,0307Vr1,281158737,Q2440660,47.9927181,28.539332
54,Zguritse,Bessarabia,Soroki,1,New Russia,1802,2107,koloniia,0,1,"","","","","Zgurița, Moldova",0307,0307Zg1,283556371,Q2439578,48.1269757,28.0099677
55,Ataki,Bessarabia,Khotin,1,New Russia,123,831,selo,0,1,"","","","","Otaci, Moldova",0308,0308At1,283853454,Q2608576,48.437605,27.7916711
56,Bolboka,Bessarabia,Khotin,1,New Russia,89,829,selo,0,1,"","",http://ru.wikisource.org/wiki/%D0%A3%D0%BA%D0%B0%D0%B7_%D0%9F%D1%80%D0%B5%D0%B7%D0%B8%D0%B4%D0%B8%D1%83%D0%BC%D0%B0_%D0%92%D0%A1_%D0%A1%D0%A1%D0%A1%D0%A0_%D0%BE%D1%82_4.11.1940_%D0%BE%D0%B1_%D1%83%D1%81%D1%82%D0%B0%D0%BD%D0%BE%D0%B2%D0%BB%D0%B5,"","Bulboaca, Moldova",0308,0308Bl1,19034082,Q2436781,48.3691361,27.2060605
57,Brakha,Bessarabia,Khotin,1,New Russia,,,selo,1,1,unknown,unknown,"Not mentioned in lists of census, found accidently, searching on Wikimapia on the opposite side of the Khotin river coast","",Брага,0308,0308Br1,337595773,Q4095620,48.518711,26.512409
58,Brichany,Bessarabia,Khotin,1,New Russia,7184,7446,mestechko,0,1,"","","","","Briceni, Moldova",0308,0308Br2,265099144,Q2019727,48.3613276,27.0849008
59,Chepeliutsy,Bessarabia,Khotin,1,New Russia,163,1555,selo,0,1,"","","","","Cepeleuți, Moldova",0308,0308Cp1,283816061,"",48.3026571,27.3070451
60,Edintsy,Bessarabia,Khotin,1,New Russia,7379,10211,mestechko,0,1,"","","","","Edineț, Moldova",0308,0308Ed1,265099147,Q1150271,48.1684275,27.2984813
61,Klishkovtsy,Bessarabia,Khotin,1,New Russia,1000,7707,selo,0,1,"","","","","Клішківці, Клішковецька сільська громада, Дністровський район, Чернівецька область, 60014, Україна",0308,0308Kl1,288288083,Q2090239,48.430443,26.259632
62,Khotin,Bessarabia,Khotin,1,New Russia,9227,18398,Uezdnyi gorod,0,1,"","","",חוטין,"Хотин, Чернівецька область, Україна",0308,0308Kt1,268080348,Q45883,48.5068418,26.4859086
63,Lipkony,Bessarabia,Khotin,1,New Russia,4410,6865,mestechko,0,1,"","",Different name in census but exactly the same population,"","Lipcani, Moldova",0308,0308Lp1,283838177,Q1827367,48.2649946,26.8077363
64,Neporotovo,Bessarabia,Khotin,1,New Russia,268,1631,selo,0,1,"","","","","Непоротове, Чернівецька область, Україна",0308,0308Np1,337592268,Q2090020,48.605522,27.2829873
65,Novoselitsy,Bessarabia,Khotin,1,New Russia,3898,5891,mestechko,0,1,"","","",נובוסליצה,"Новоселиця, Новоселицька міська громада, Чернівецький район, Чернівецька область, 60300, Україна",0308,0308Nv1,217289029,Q149030,48.2179594,26.2664831
66,Rzhavintsy,Bessarabia,Khotin,1,New Russia,369,2140,selo,0,1,"","",Different name in census but close by name and by other local countries mentioned in Jewish encyclopedy of Brokhauz and Efron,"",Ржавинці,0308,0308Rz1,337596131,Q4394173,48.507038,26.06712
67,Sekuriany,Bessarabia,Khotin,1,New Russia,5042,8982,selo,0,1,"","","","","Сокиряни, Сокирянська міська громада, Дністровський район, Чернівецька область, 60200-60207, Україна",0308,0308Sk1,217289242,Q149173,48.4460307,27.411193
68,Voloshkovo,Bessarabia,Khotin,1,New Russia,119,1050,selo,0,1,"","","","","Волошкове, Чернівецька область, Україна",0308,0308Vl1,337597346,Q4124126,48.470989,27.499121
69,Iaisa,Vilnius,"",1,Lithuania,,,"",1,0,unknown,"",Mentioned in Jewishgen but not in the census,"",Iaisa,NANA,04.Is1,,"",55.4167,27.0833
70,Antokol',Vilnius,Vilnius,1,Lithuania,,,"",1,0,unknown,"",Mentioned in Jewishgen but not in the census,"","Antakalnis, Antakalnio seniūnija, Vilnius, Vilniaus miesto savivaldybė, Vilniaus apskritis, Lietuva",0401,0401An1,32332874,Q570649,54.7056388,25.3145377
71,Boguslavishki,Vilnius,Vilnius,1,Lithuania,,,"",1,0,unknown,"",Mentioned in Jewishgen but not in the census,"","Bagaslaviškis, Gelvonų seniūnija, Vilniaus apskritis, Lietuva",0401,0401Bg1,1271387157,Q12649954,55.0769881,24.7774088
72,Bol'shie Solochniki,Vilnius,Vilnius,1,Lithuania,207,586,selo,0,1,"","","",שלצ'ינינקאי,"Šalčininkai, Šalčininkų seniūnija, Vilniaus apskritis, Lietuva",0401,0401Bl1,289972744,Q391011,54.3089991,25.3821472
73,Bystritsa,Vilnius,Vilnius,1,Lithuania,,,"",1,0,unknown,"",Mentioned in Jewishgen but not in the census,"","Варнянскі сельскі Савет, Астравецкі раён, Гродзенская вобласць, Беларусь",0401,0401By1,242995642,Q3920685,54.7990701,25.875701
74,Bezdany,Vilnius,Vilnius,1,Lithuania,,,"",1,0,unknown,"",Mentioned in Jewishgen but not in the census,"","Bezdonių seniūnija, Vilniaus rajono savivaldybė, Vilniaus apskritis, Lietuva",0401,0401Bz1,356751586,Q853452,54.8031795,25.5187481
75,Chabishki,Vilnius,Vilnius,1,Lithuania,,,"",1,0,unknown,"",Mentioned in Jewishgen but not in the census,"","Čiobiškis, Čiobiškio seniūnija, Širvintų rajono savivaldybė, Vilniaus apskritis, Lietuva",0401,0401Cb1,1751386830,Q12679242,54.9540963,24.6598973
76,Dubinki,Vilnius,Vilnius,1,Lithuania,,,"",1,0,unknown,"",Mentioned in Jewishgen but not in the census,"","Dubingiai, Dubingių seniūnija, Molėtų rajono savivaldybė, Utenos apskritis, Lietuva",0401,0401Db1,290359383,Q1883864,55.0585136,25.4498643
77,Gedroitsy,Vilnius,Vilnius,1,Lithuania,357,548,mestechko,0,1,"","","","","Giedraičiai, Giedraičių seniūnija, Molėtų rajono savivaldybė, Utenos apskritis, Lietuva",0401,0401Gd1,307745519,Q3068575,55.0734157,25.2612495
78,Gelvani,Vilnius,Vilnius,1,Lithuania,374,523,mestechko,0,1,"","","","","Gelvonai, Gelvonų seniūnija, Širvintų rajono savivaldybė, Vilniaus apskritis, Lietuva",0401,0401Gl1,1271387198,Q2046850,55.0666904,24.6922301
79,Inturki,Vilnius,Vilnius,1,Lithuania,,,"",1,0,unknown,"",Mentioned in Jewishgen but not in the census,אינטורקה,"Inturkė, Inturkės seniūnija, Molėtų rajono savivaldybė, Utenos apskritis, Lietuva",0401,0401In1,307740231,Q12656820,55.15964,25.561491
80,Iashuny,Vilnius,Vilnius,1,Lithuania,,,"",1,0,unknown,"",Mentioned in Jewishgen but not in the census,"","Keturiai, Jašiūnų seniūnija, Vilniaus apskritis, Lietuva",0401,0401Is1,2158761438,Q12657406,54.4395719,25.3300192
81,Kalvariskie snipishki,Vilnius,Vilnius,1,Lithuania,,,"",1,0,unknown,"",Mentioned in Jewishgen but not in the census,"","Šnipiškių seniūnija, Vilnius, Vilniaus miesto savivaldybė, Vilniaus apskritis, Lietuva",0401,0401Kl1,1252013,Q12680105,54.7020544,25.2752872
82,Kernovo,Vilnius,Vilnius,1,Lithuania,,,"",1,0,unknown,"",Mentioned in Jewishgen but not in the census,קרנאווה,"Kernavė, Kernavės seniūnija, Vilniaus apskritis, Lietuva",0401,0401Kr1,60460997,Q215315,54.8863237,24.8539683
83,Laibishki,Vilnius,Vilnius,1,Lithuania,,,"",1,0,unknown,"",Mentioned in Jewishgen but not in the census,"","Laibiškės, Medininkų seniūnija, Vilniaus rajono savivaldybė, Vilniaus apskritis, Lietuva",0401,0401Lb1,1406048423,Q16457927,54.4784612,25.5391764
84,Mikhalishki,Vilnius,Vilnius,1,Lithuania,951,1224,mestechko,0,1,"","",#NAME?,"","Міхалішкі, Астравецкі раён, Гродзенская вобласць, Беларусь",0401,0401Mk1,242997278,Q3917249,54.8128921,26.1600209
85,Maliaty,Vilnius,Vilnius,1,Lithuania,1948,2397,mestechko,0,1,"","","","","Molėtai, Molėtų rajono savivaldybė, Utenos apskritis, Lietuva",0401,0401Ml1,32592592,Q957530,55.2319273,25.419316
86,Meishagola,Vilnius,Vilnius,1,Lithuania,109,920,mestechko,0,1,"","","",מיישגולה,"Maišiagala, Maišiagalos seniūnija, Vilniaus apskritis, Lietuva",0401,0401Ms1,33692800,Q3494848,54.871362,25.0643171
87,Musniki,Vilnius,Vilnius,1,Lithuania,,,"",1,0,unknown,"",Mentioned in Jewishgen but not in the census,"","Musninkai, Musninkų seniūnija, Vilniaus apskritis, Lietuva",0401,0401Ms2,287439810,Q2486211,54.9480474,24.8421207
88,Niemenchin,Vilnius,Vilnius,1,Lithuania,639,886,mestechko,0,1,"","","","","Nemenčinė, Nemenčinės miesto seniūnija, Vilniaus apskritis, Lietuva",0401,0401Nm1,60023133,Q118910,54.8476292,25.4689647
89,Novo-Vileisk,Vilnius,Vilnius,1,Lithuania,,,"",1,0,unknown,"",Mentioned in Jewishgen but not in the census,"","Naujoji Vilnia, Naujosios Vilnios seniūnija, Vilnius, Vilniaus miesto savivaldybė, Vilniaus apskritis, Lietuva",0401,0401Nv1,50125156,Q937667,54.6908669,25.421441
90,Ostrovets,Vilnius,Vilnius,1,Lithuania,,,"",1,0,unknown,"",Mentioned in Jewishgen but not in the census,אסטרבייץ,"Астравец, Астравецкі раён, Гродзенская вобласць, Беларусь",0401,0401Os1,242978913,Q261024,54.6149379,25.9565998
91,Podberezy,Vilnius,Vilnius,1,Lithuania,556,688,mestechko,0,1,"","","","",Paberžė,0401,0401Pd1,307747170,Q5620453,54.9426403,25.235597
92,Peski,Vilnius,Vilnius,1,Lithuania,197,1740,prigorod,0,1,"","","","","Пескі, Мастоўскі раён, Гродзенская вобласць, Беларусь",0401,0401Ps1,242985766,Q140224,53.3504065,24.623711
93,Rudomino,Vilnius,Vilnius,1,Lithuania,,,"",1,0,unknown,"",Mentioned in Jewishgen but not in the census,"","Rudamina, Antupiai, Rudaminos seniūnija, Vilniaus rajono savivaldybė, Vilniaus apskritis, Lietuva",0401,0401Rd1,337991791,"",54.5816635,25.3902838
94,Soltanishki,Vilnius,Vilnius,1,Lithuania,413,1440,prigorod,0,1,"","","","",Saltoniškės,0401,0401Sl1,5663341891,Q12672261,54.7013476,25.256753
95,Shirvinty,Vilnius,Vilnius,1,Lithuania,1413,1864,mestechko,0,1,"","","","","Širvintos, Širvintų miesto seniūnija, Vilniaus apskritis, Lietuva",0401,0401Sr1,60461226,Q391764,55.0514295,24.9516122
96,Shesholi,Vilnius,Vilnius,1,Lithuania,,,"",1,0,unknown,"",Mentioned in Jewishgen but not in the census,"","Šešuoliai, Šešuolių seniūnija, Ukmergės rajono savivaldybė, Vilniaus apskritis, Lietuva",0401,0401Ss1,421338869,Q8082771,55.1792707,24.9699569
97,Tsekhanovishki,Vilnius,Vilnius,1,Lithuania,,,"",1,0,unknown,"",Mentioned in Jewishgen but not in the census,"","Čekoniškės, Zujūnų seniūnija, Vilniaus apskritis, Lietuva",0401,0401Ts1,316032610,Q338321,54.7361475,25.0808516
98,Vil'na,Vilnius,Vilnius,1,Lithuania,63996,154532,Gubernskii gorod,0,1,"","","",וילנה,"Vilnius, Vilniaus miesto savivaldybė, Vilniaus apskritis, Lietuva",0401,0401Vl1,27193093,Q216,54.6870458,25.2829111
99,Vileika,Vilnius,Vilnius,1,Lithuania,346,3350,selo,0,1,"","","",וילייקה,"Вілейка, Вілейскі раён, Мінская вобласць, Беларусь",0401,0401Vl2,242978923,Q181632,54.4880686,26.9145229
100,Vorniany,Vilnius,Vilnius,1,Lithuania,,,"",1,0,unknown,"",Mentioned in Jewishgen but not in the census,"","Варняны, Астравецкі раён, Гродзенская вобласць, Беларусь",0401,0401Vr1,242995611,Q82271,54.7263876,26.0054119
101,Zakret,Vilnius,Vilnius,1,Lithuania,170,1594,Prigorod,0,1,"","","","",Zakret,0401,0401Zk1,,"",54.68333,25.23333
102,Budslav,Vilnius,Vileika,1,Lithuania,,,"",1,0,unknown,"",Mentioned in Jewishgen but not in the census,"","Будслаў, Мядзельскі раён, Мінская вобласць, Беларусь",0402,0402Bd1,243010530,Q2993992,54.786885,27.4536992
103,Dolginov,Vilnius,Vileika,1,Lithuania,2559,3551,mestechko,0,1,"","","","","Даўгінава, Вілейскі раён, Мінская вобласць, Беларусь",0402,0402Dl1,243012885,Q2029657,54.6456778,27.4762063
104,Dunilovichi,Vilnius,Vileika,1,Lithuania,1553,1810,mestechko,0,1,"","","","","Дунілавічы, Пастаўскі раён, Віцебская вобласць, Беларусь",0402,0402Dn1,243011661,Q3917466,55.0754285,27.2344135
105,Gorodok,Vilnius,Vileika,1,Lithuania,1230,1603,mestechko,0,1,"","","","","Гарадок, Маладзечанскі раён, Мінская вобласць, Беларусь",0402,0402Gr1,243003397,Q36820,54.1570388,26.9192441
106,Iliia,Vilnius,Vileika,1,Lithuania,829,1431,mestechko,0,1,"","","","","Ілья, Вілейскі раён, Мінская вобласць, Беларусь",0402,0402Il1,243011350,Q5213666,54.4140345,27.2911075
107,Kraisk,Vilnius,Vileika,1,Lithuania,549,629,mestechko,0,1,"","","","","Крайск, Лагойскі раён, Мінская вобласць, Беларусь",0402,0402Kr1,243012824,Q13028173,54.5220301,27.5002284
108,Krasnoe,Vilnius,Vileika,1,Lithuania,573,1077,mestechko,0,1,"","","","","Краснае, Маладзечанскі раён, Мінская вобласць, Беларусь",0402,0402Kr2,243009124,Q3917896,54.249104,27.078309
109,Krivichi,Vilnius,Vileika,1,Lithuania,457,520,mestechko,0,1,"","","",קריביצ'י,"Крывічы, Мядзельскі раён, Мінская вобласць, Беларусь",0402,0402Kr3,242979030,Q2659553,54.7141707,27.2895903
110,Kurenets,Vilnius,Vileika,1,Lithuania,1613,1774,mestechko,0,1,"","","","","Куранец, Вілейскі раён, Мінская вобласць, Беларусь",0402,0402Kr4,243008981,Q13029781,54.5554547,26.9642369
111,Lebedev,Vilnius,Vileika,1,Lithuania,1232,2275,mestechko,0,1,"","","","","Лебядзева, Маладзечанскі раён, Мінская вобласць, Беларусь",0402,0402Lb1,242999695,Q2782945,54.3142698,26.7064608
112,Molodechno,Vilnius,Vileika,1,Lithuania,1105,2393,mestechko,0,1,"","","",מלדזייצ'נה,"Маладзечна, Маладзечанскі раён, Мінская вобласць, Беларусь",0402,0402Ml1,1816928488,Q201203,54.3073327,26.8389111
113,Nivki,Vilnius,Vileika,1,Lithuania,,,"",1,0,unknown,"",Mentioned in Jewishgen but not in the census,"","Княгінінскі сельскі Савет, Мядзельскі раён, Мінская вобласць, Беларусь",0402,0402Nv1,243011382,Q6522645,54.643589,27.12001
114,Novyi Miadziol,Vilnius,Vileika,1,Lithuania,436,1164,mestechko,0,1,"","","","","Мядзел, Мядзельскі раён, Мінская вобласць, Беларусь",0402,0402Nv2,242978928,Q201218,54.8707533,26.9299904
115,Parafianovo,Vilnius,Vileika,1,Lithuania,,,"",1,0,unknown,"",Mentioned in Jewishgen but not in the census,"","Парафʼянава, Докшыцкі раён, Віцебская вобласць, Беларусь",0402,0402Pr1,1190756809,Q3919858,54.8775146,27.6040096
116,Radoshkovichi,Vilnius,Vileika,1,Lithuania,1519,2615,zashtatnyi gorod,0,1,"","","","","Радашковічы, Маладзечанскі раён, Мінская вобласць, Беларусь",0402,0402Rd1,242979029,Q2993986,54.1596917,27.235522
117,Vileika,Vilnius,Vileika,1,Lithuania,1328,3560,Uezdnyi gorod,0,1,"","","",וילייקה,"Вілейка, Вілейскі раён, Мінская вобласць, Беларусь",0402,0402Vl1,242978923,Q181632,54.4880686,26.9145229
118,Volkolata,Vilnius,Vileika,1,Lithuania,69,543,selo,0,1,"","","","",Валкалата,0402,0402Vl2,243014077,Q20462374,54.9274716,27.368018
119,Viazyn',Vilnius,Vileika,1,Lithuania,234,604,mestechko,0,1,"","",The district is incorrect in Jewishgen,"","Вязынь, Вілейскі раён, Мінская вобласць, Беларусь",0402,0402Vz1,243011302,Q143061,54.4205112,27.162876
120,Druia,Vilnius,Disna,1,Lithuania,3006,4742,Zashtatnyi gorod,0,1,"","","","","Друя, Браслаўскі раён, Віцебская вобласць, Беларусь",0403,0403Dr1,130200330,Q2621918,55.7869548,27.464213
121,Disna,Vilnius,Disna,1,Lithuania,4617,6756,Uezdnyi gorod,0,1,"","","","","Дзісна, Завуццеўскі сельскі Савет, Мёрскі раён, Віцебская вобласць, Беларусь",0403,0403Ds1,565536011,Q432399,55.5332754,28.0889639
122,Glubokoe,Vilnius,Disna,1,Lithuania,3917,5564,mestechko,0,1,"","",Name of district as it mentioned in census,גלובוקי,Глыбокае,0403,0403Gl1,242978934,Q954114,55.139235,27.6845787
123,Golubiche,Vilnius,Disna,1,Lithuania,,,"",1,0,unknown,"",Mentioned in Jewishgen but not in the census,"","Галубічы, Глыбоцкі раён, Віцебская вобласць, Беларусь",0403,0403Gl2,243016473,Q1428413,55.1118649,27.9681082
124,Germanoviche,Vilnius,Disna,1,Lithuania,,,"",1,0,unknown,"",Mentioned in Jewishgen but not in the census,"","Германавічы, Шаркаўшчынскі раён, Віцебская вобласць, Беларусь",0403,0403Gr1,243018475,Q2987254,55.4138951,27.7353738
125,Iody,Vilnius,Disna,1,Lithuania,,,"",1,0,unknown,"",Mentioned in Jewishgen but not in the census,"","Ёды, Шаркаўшчынскі раён, Віцебская вобласць, Беларусь",0403,0403Id1,243012455,Q6459003,55.45401,27.227381
126,Ikazn',Vilnius,Disna,1,Lithuania,78,673,selo,0,1,"","","","",Іказнь,0403,0403Ik1,243012062,Q3917313,55.621701,27.2585859
127,Koziany-I,Vilnius,Disna,1,Lithuania,139,742,selo,0,1,"","","","","Казяны, Браслаўскі раён, Віцебская вобласць, Беларусь",0403,0403Kz1,243007264,Q2626927,55.2975703,26.8571047
128,Kozlovshchina,Vilnius,Disna,1,Lithuania,,,"",1,0,unknown,"",Mentioned in Jewishgen but not in the census,"","Казлоўшчына, Дзятлаўскі раён, Гродзенская вобласць, Беларусь",0403,0403Kz2,242979025,Q2478258,53.3210996,25.2900694
129,Leonpol',Vilnius,Disna,1,Lithuania,,,"",1,0,unknown,"",Mentioned in Jewishgen but not in the census,"","Узмёнскі сельскі Савет, Мёрскі раён, Віцебская вобласць, Беларусь",0403,0403Ln1,243018340,Q3924843,55.7994408,27.7843079
130,Luzhki,Vilnius,Disna,1,Lithuania,761,1672,mestechko,0,1,"","","","","Лужкі, Шаркаўшчынскі раён, Віцебская вобласць, Беларусь",0403,0403Lz1,243021170,Q3917910,55.3528548,27.8686527
131,Miory,Vilnius,Disna,1,Lithuania,,,"",1,0,unknown,"",Mentioned in Jewishgen but not in the census,מיורי,"Мёры, Мёрскі раён, Віцебская вобласць, Беларусь",0403,0403Mr1,130200848,Q266841,55.622227,27.615358
132,Novo-Pogost,Vilnius,Disna,1,Lithuania,118,607,mestechko,0,1,"","","","","Новы Пагост, Мёрскі раён, Віцебская вобласць, Беларусь",0403,0403Nv1,243013435,Q11700512,55.4945072,27.4788907
133,Plisa,Vilnius,Disna,1,Lithuania,366,899,mestechko,0,1,"","","","","Пліса, Глыбоцкі раён, Віцебская вобласць, Беларусь",0403,0403Pl1,243016482,Q3917948,55.2180816,27.9548642
134,Perebrod'e,Vilnius,Disna,1,Lithuania,176,675,mestechko,0,1,"","","","",Пераброддзе,0403,0403Pr1,243014562,Q3920743,55.6260406,27.3935707
135,Prozoroki,Vilnius,Disna,1,Lithuania,,,"",1,0,unknown,"",Mentioned in Jewishgen but not in the census,"","Празарокі, Глыбоцкі раён, Віцебская вобласць, Беларусь",0403,0403Pr2,243023908,Q2478326,55.2949845,28.2187046
136,Postavy,Vilnius,Disna,1,Lithuania,1310,2397,mestechko,0,1,"","","",פסטאווי,"Паставы, Пастаўскі раён, Віцебская вобласць, Беларусь",0403,0403Ps1,242978929,Q539012,55.1129217,26.83992
137,Sharkovshchizna,Vilnius,Disna,1,Lithuania,1007,1165,mestechko,0,1,"","","No last digit in total population, need to be checked, according to http://be-x-old.wikipedia.org/wiki/%D0%A8%D0%B0%D1%80%D0%BA%D0%BE%D1%9E%D1%88%D1%87%D1%8B%D0%BD%D0%B0 - 1165",שרקובשצ'יזנה,"Шаркаўшчына, Шаркаўшчынскі раён, Віцебская вобласць, Беларусь",0403,0403Sr1,242978931,Q2659505,55.3657233,27.46663
138,Zheludok,Vilnius,Disna,1,Lithuania,1372,1860,mestechko,0,1,"","","","","Жалудок, Шчучынскі раён, Гродзенская вобласць, Беларусь",0403,0403Zl1,242979021,Q2656523,53.599599,24.9810327
139,Zaskevichi,Vilnius,Disna,1,Lithuania,,,"",1,0,unknown,"",Mentioned in Jewishgen but not in the census,"","Заскавічы, Маладзечанскі раён, Мінская вобласць, Беларусь",0403,0403Zs1,242999705,Q16699970,54.39743,26.60322
140,Bielitsy,Vilnius,Lida,1,Lithuania,679,1686,mestechko,0,1,"","","","","Беліца, Лідскі раён, Гродзенская вобласць, Беларусь",0404,0404Bl1,242989916,Q2429373,53.651577,25.318424
141,Beniakoni,Vilnius,Lida,1,Lithuania,,,"",1,0,unknown,"",Mentioned in Jewishgen but not in the census,"","Беняконі, Воранаўскі раён, Гродзенская вобласць, Беларусь",0404,0404Bn1,242991281,Q3646802,54.25014,25.35902
142,Dubrovo,Vilnius,Lida,1,Lithuania,,,"",1,0,unknown,"",Mentioned in Jewishgen but not in the census,"","Жалудоцкі сельскі Савет, Шчучынскі раён, Гродзенская вобласць, Беларусь",0404,0404Db1,242988664,Q21626404,53.55904,25.04874
143,Dvortsovaia sloboda,Vilnius,Lida,1,Lithuania,68,505,derevnia,0,1,"","","","",Дварцовая-Слабада,0404,0404Dv1,6405891059,"",53.8739,25.296
144,Eishishki,Vilnius,Lida,1,Lithuania,2376,3196,mestechko,0,1,"","","",איישישוק,"Eišiškės, Eišiškių seniūnija, Vilniaus apskritis, Lietuva",0404,0404Es1,277151877,Q58880,54.1686462,25.0001234
145,Lida,Vilnius,Lida,1,Lithuania,5294,9323,Uezdnyi gorod,0,1,"","","",לידא,"Ліда, Лідскі раён, Гродзенская вобласць, Беларусь",0404,0404Ld1,242978903,Q241475,53.891636,25.3022894
146,Novyi Dvor,Vilnius,Lida,1,Lithuania,664,822,mestechko,0,1,"","","","","Новы Двор, Шчучынскі раён, Гродзенская вобласць, Беларусь",0404,0404Nv1,242985529,Q3917811,53.8143019,24.5600829
147,Orlia,Vilnius,Lida,1,Lithuania,354,804,mestechko,0,1,"","","","","Орля, Шчучынскі раён, Гродзенская вобласць, Беларусь",0404,0404Or1,242988552,Q11799230,53.508343,24.980995
148,Ostrino,Vilnius,Lida,1,Lithuania,1440,2410,mestechko,0,1,"","","","","Астрына, Шчучынскі раён, Гродзенская вобласць, Беларусь",0404,0404Os1,242979002,Q375228,53.7309393,24.5313527
149,Radun',Vilnius,Lida,1,Lithuania,896,1621,mestechko,0,1,"","","",ראדין,"Радунь, Воранаўскі раён, Гродзенская вобласць, Беларусь",0404,0404Rd1,242979020,Q2995176,54.0527472,24.9977637
150,Rozhanka,Vilnius,Lida,1,Lithuania,543,777,mestechko,0,1,"","","","","Ражанка, Шчучынскі раён, Гродзенская вобласць, Беларусь",0404,0404Rz1,3311955101,Q2647872,53.5358305,24.7362097
151,Shchuchin,Vilnius,Lida,1,Lithuania,1356,1742,mestechko,0,1,"","","",שצ'וצ'ין,"Шчучын, Шчучынскі раён, Гродзенская вобласць, Беларусь",0404,0404Sc1,242978899,Q431779,53.6045037,24.7420522
152,Voronovo,Vilnius,Lida,1,Lithuania,1432,1574,mestechko,0,1,"","","","","Воранава, Воранаўскі раён, Гродзенская вобласць, Беларусь",0404,0404Vr1,2271196832,Q2470394,54.1520519,25.3196741
153,Vasilishki,Vilnius,Lida,1,Lithuania,2081,2781,mestechko,0,1,"","","","","Васілішкі, Шчучынскі раён, Гродзенская вобласць, Беларусь",0404,0404Vs1,7528848,Q2632629,53.78108,24.8473
154,Bakshty,Vilnius,Oshmiany,1,Lithuania,172,1461,selo,0,1,"","",Name of district as it mentioned in census,"","Бакшты, Іўеўскі раён, Гродзенская вобласць, Беларусь",0405,0405Bk1,242994884,Q18755585,53.9374669,26.1849282
155,Derevno,Vilnius,Oshmiany,1,Lithuania,350,851,mestechko,0,1,"","","","","Дзераўная, Стаўбцоўскі раён, Мінская вобласць, Беларусь",0405,0405Dr1,242997518,Q822415,53.699451,26.566231
156,Dzevenishki,Vilnius,Oshmiany,1,Lithuania,1225,1710,mestechko,0,1,"","","","","Dieveniškės, Dieveniškių seniūnija, Vilniaus apskritis, Lietuva",0405,0405Dz1,443310907,Q1224305,54.1940549,25.6259051
157,Gaviia,Vilnius,Oshmiany,1,Lithuania,,,"",1,0,unknown,"",Mentioned in Jewishgen but not in the census,"","Гаўя, Траццякоўскі сельскі Савет, Лідскі раён, Гродзенская вобласць, Беларусь",0405,0405Gv1,773061236,Q2662320,53.8359587,25.5961979
158,Iv'e,Vilnius,Oshmiany,1,Lithuania,573,3653,mestechko,0,1,"","","","","Іўе, Іўеўскі раён, Гродзенская вобласць, Беларусь",0405,0405Iv1,242978908,Q738777,53.9297106,25.7703798
159,Krevo,Vilnius,Oshmiany,1,Lithuania,809,2201,mestechko,0,1,"","","","","Крэва, Смаргонскі раён, Гродзенская вобласць, Беларусь",0405,0405Kr1,242996339,Q2621007,54.310879,26.282677
160,Lipnishki,Vilnius,Oshmiany,1,Lithuania,612,1377,mestechko,0,1,"","","","","Ліпнішкі, Іўеўскі раён, Гродзенская вобласць, Беларусь",0405,0405Lp1,242992149,Q3692422,54.0063484,25.6070857
161,Nalibok,Vilnius,Oshmiany,1,Lithuania,120,1683,mestechko,1,1,"",at_most,Calculated by subtraction from Total value any other groups mentioned in census for this place,"","Налібакі, Стаўбцоўскі раён, Мінская вобласць, Беларусь",0405,0405Nl1,242997538,Q1025855,53.761993,26.471273
162,Ol'shany,Vilnius,Oshmiany,1,Lithuania,1049,2183,mestechko,0,1,"","","","","Гальшаны, Ашмянскі раён, Гродзенская вобласць, Беларусь",0405,0405Ol1,242995231,Q1572234,54.256939,26.012857
163,Oshmiany,Vilnius,Oshmiany,1,Lithuania,3803,7214,Uezdnyi gorod,0,1,"","","",אשמיאני,"Ашмяны, Ашмянскі раён, Гродзенская вобласць, Беларусь",0405,0405Os1,242978910,Q722836,54.4252347,25.9374195
164,Subbotniki,Vilnius,Oshmiany,1,Lithuania,91,602,selo/mestechko,0,1,"","","","",Суботнікі,0405,0405Sb1,242993368,Q567798,54.094021,25.749121
165,Soly,Vilnius,Oshmiany,1,Lithuania,530,981,mestechko,0,1,"","","","","Солы, Смаргонскі раён, Гродзенская вобласць, Беларусь",0405,0405Sl1,242996844,Q2366073,54.517941,26.18334
166,Smorgon',Vilnius,Oshmiany,1,Lithuania,6743,8908,mestechko,0,1,"","","",סמרגון,"Смаргонь, Смаргонскі раён, Гродзенская вобласць, Беларусь",0405,0405Sm1,242978914,Q958617,54.4817816,26.4012822
167,Traby,Vilnius,Oshmiany,1,Lithuania,634,1183,mestechko,0,1,"","","","","Трабы, Іўеўскі раён, Гродзенская вобласць, Беларусь",0405,0405Tr1,242995180,Q3647159,54.157619,25.90593
168,Volozhin,Vilnius,Oshmiany,1,Lithuania,2452,4534,mestechko,0,1,"","","",וולוז'ין,"Валожын, Валожынскі раён, Мінская вобласць, Беларусь",0405,0405Vl1,242978920,Q200876,54.0888494,26.5257275
169,Vishnev,Vilnius,Oshmiany,1,Lithuania,1463,2650,mestechko,0,1,"","","","","Вішнева, Валожынскі раён, Мінская вобласць, Беларусь",0405,0405Vs1,242997004,Q1022491,54.1389586,26.2200524
170,Yasevichi,Vilnius,Oshmiany,1,Lithuania,,,"",1,0,unknown,"",Mentioned in Jewishgen but not in the census,"","Галубіцкі сельскі Савет, Глыбоцкі раён, Віцебская вобласць, Беларусь",0405,0405Ys1,243016719,Q20505965,55.0780168,27.8750839
171,Zhuprany,Vilnius,Oshmiany,1,Lithuania,415,824,mestechko,0,1,"","","","","Жупраны, Ашмянскі раён, Гродзенская вобласць, Беларусь",0405,0405Zp1,242996798,Q3545343,54.4697551,26.0873496
172,Daugelishki,Vilnius,Sventsiany,1,Lithuania,,,"",1,0,unknown,"",Mentioned in Jewishgen but not in the census,"","Naujasis Daugėliškis, Naujojo Daugėliškio seniūnija, Ignalinos rajono savivaldybė, Utenos apskritis, Lietuva",0406,0406Dg1,458394309,Q9202525,55.3695649,26.2977934
173,Godutishki s kazenoi usad'boi,Vilnius,Sventsiany,1,Lithuania,1373,2247,mestechko,0,1,"","",Name of district as it mentioned in census,"","Adutiškis, Adutiškio seniūnija, Švenčionių rajono savivaldybė, Vilniaus apskritis, Lietuva",0406,0406Gd1,418391017,Q2509638,55.1573449,26.5867484
174,Ignalino,Vilnius,Sventsiany,1,Lithuania,,,"",1,0,unknown,"",Mentioned in Jewishgen but not in the census,איגנלינה,"Ignalina, Ignalinos miesto seniūnija, Utenos apskritis, Lietuva",0406,0406Ig1,182122005,Q658218,55.3398975,26.1614043
175,Kobyl'nik,Vilnius,Sventsiany,1,Lithuania,591,1055,mestechko,0,1,"","","","","Нарач, Мядзельскі раён, Мінская вобласць, Беларусь",0406,0406Kb1,242999804,Q1050375,54.9371661,26.6897469
176,Koltyniany,Vilnius,Sventsiany,1,Lithuania,,,"",1,0,unknown,"",Mentioned in Jewishgen but not in the census,"","Kaltanėnai, Kaltanėnų seniūnija, Švenčionių rajono savivaldybė, Vilniaus apskritis, Lietuva",0406,0406Kl1,196380792,Q2318590,55.2531946,25.9930873
177,Kemelishki,Vilnius,Sventsiany,1,Lithuania,101,507,mestechko,0,1,"","","","","Кемелішкі, Астравецкі раён, Гродзенская вобласць, Беларусь",0406,0406Km1,242995690,Q12660575,54.8573878,25.8839382
178,Komai,Vilnius,Sventsiany,1,Lithuania,155,622,mestechko,0,1,"","","JG only has Komai in Kovno, not Vilna (Yannay)","","Kamšiškės, Kamajų seniūnija, Panevėžio apskritis, Lietuva",0406,0406Km2,853170249,Q1961545,55.8202029,25.5038998
179,Lyngmiany s derevnei Lyngmiany,Vilnius,Sventsiany,1,Lithuania,297,847,mestechko,0,1,"","","","","Linkmenys, Linkmenų seniūnija, Ignalinos rajono savivaldybė, Utenos apskritis, Lietuva",0406,0406Ly1,670233477,Q9394890,55.317613,25.9586059
180,Lyntupy,Vilnius,Sventsiany,1,Lithuania,238,685,selo,0,1,"","","","","Лынтупы, Пастаўскі раён, Віцебская вобласць, Беларусь",0406,0406Ly2,242979016,Q2657182,55.0498728,26.3060545
181,Melengiany,Vilnius,Sventsiany,1,Lithuania,118,517,selo,0,1,"","","","","Salomenka, Mielagėnų seniūnija, Utenos apskritis, Lietuva",0406,0406Ml1,771505218,Q584733,55.2586906,26.4371781
182,Novo-Sventsiany,Vilnius,Sventsiany,1,Lithuania,540,1340,posad,0,1,"","","",שוויינצ'יונליאי,"Švenčionėliai, Švenčionėlių seniūnija, Vilniaus apskritis, Lietuva",0406,0406Nv1,196378748,Q392772,55.1652567,25.9985239
183,Podbrodze,Vilnius,Sventsiany,1,Lithuania,,,"",1,0,unknown,"",Mentioned in Jewishgen but not in the census,"","Pabradė, Pabradės seniūnija, Vilniaus apskritis, Lietuva",0406,0406Pd1,196374894,Q1004328,54.9831145,25.7663024
184,Stoiatsishki,Vilnius,Sventsiany,1,Lithuania,,,"",1,0,unknown,"",Mentioned in Jewishgen but not in the census,"","Stajėtiškis, Adutiškio seniūnija, Švenčionių rajono savivaldybė, Vilniaus apskritis, Lietuva",0406,0406St1,2626290720,Q16473005,55.182836,26.521875
185,Sventsiany,Vilnius,Sventsiany,1,Lithuania,3172,6025,Uezdnyi gorod,0,1,"","","",שווינציאן,"Švenčionys, Švenčionių seniūnija, Vilniaus apskritis, Lietuva",0406,0406Sv1,196377583,Q137863,55.1336865,26.1630146
186,"Svir' I, II, III",Vilnius,Sventsiany,1,Lithuania,1114,1686,mestechko,0,1,"","","","","Свір, Мядзельскі раён, Мінская вобласць, Беларусь",0406,0406Sv2,242979036,Q2659511,54.8484129,26.3911271
187,Tseikiny,Vilnius,Sventsiany,1,Lithuania,,,"",1,0,unknown,"",Mentioned in Jewishgen but not in the census,"","Ceikinėliai, Ignalinos seniūnija, Utenos apskritis, Lietuva",0406,0406Ts1,3628986462,Q12651907,55.2855198,26.2291542
188,Birshtany,Vilnius,Troki,1,Lithuania,,,"",1,0,unknown,"",Mentioned in Jewishgen but not in the census,"","Birštonas, Birštono seniūnija, Birštono savivaldybė, Kauno apskritis, Lietuva",0407,0407Br1,162439361,Q11854305,54.5928278,24.0244347
189,Butrimantsy,Vilnius,Troki,1,Lithuania,1919,2394,mestechko,0,1,"","","","","Butrimonys, Butrimonių seniūnija, Alytaus rajono savivaldybė, Alytaus apskritis, Lietuva",0407,0407Bt1,1296337949,Q2483374,54.5021596,24.2523307
190,Daugi,Vilnius,Troki,1,Lithuania,511,1288,mestechko,0,1,"","","","","Daugai, Daugų seniūnija, Alytaus apskritis, Lietuva",0407,0407Dg1,2195363909,Q7471305,54.3600126,24.3306273
191,Dekshnia,Vilnius,Troki,1,Lithuania,,,"",1,0,unknown,"",Mentioned in Jewishgen but not in the census,"","Degsnės, Valkininkų seniūnija, Varėnos rajono savivaldybė, Alytaus apskritis, Lietuva",0407,0407Dk1,2453218060,Q3545471,54.3685101,24.7960422
192,Dorsunishki,Vilnius,Troki,1,Lithuania,,,"",1,0,unknown,"",Mentioned in Jewishgen but not in the census,"","Darsūniškis, Kruonio seniūnija, Kaišiadorių rajono savivaldybė, Kauno apskritis, Lietuva",0407,0407Dr1,1142713825,Q12652474,54.7373802,24.119451
193,Ev'e,Vilnius,Troki,1,Lithuania,647,725,mestechko,0,1,"","","","","Vievis, Vievio seniūnija, Vilniaus apskritis, Lietuva",0407,0407Ev1,32448784,Q1004332,54.7693774,24.8158205
194,Ezno,Vilnius,Troki,1,Lithuania,303,1255,mestechko,0,1,"","","","","Jieznas, Jiezno seniūnija, Kauno apskritis, Lietuva",0407,0407Ez1,80033735,Q47068,54.6007116,24.1749878
195,Ganishushki,Vilnius,Troki,1,Lithuania,217,577,mestechko,0,1,"","","","","Onuškis, Onuškio seniūnija, Trakų rajono savivaldybė, Vilniaus apskritis, Lietuva",0407,0407Gn1,39054412,Q5247152,54.4829984,24.587394
196,Kriuni,Vilnius,Troki,1,Lithuania,126,549,mestechko,0,1,"","","","",Kruonis,0407,0407Kr1,130144274,Q6439338,54.7576712,24.2385957
197,Koshedary,Vilnius,Troki,1,Lithuania,317,883,posad,0,1,"","","","","Kaišiadorys, Kaišiadorių miesto seniūnija, Kauno apskritis, Lietuva",0407,0407Ks1,104550533,Q614855,54.8602337,24.4544785
198,Liandvarovo,Vilnius,Troki,1,Lithuania,,,"",1,0,unknown,"",Mentioned in Jewishgen but not in the census,"","Lentvaris, Lentvario seniūnija, Vilniaus apskritis, Lietuva",0407,0407Ln1,32331421,Q923393,54.6428696,25.0504034
199,Leipuny,Vilnius,Troki,1,Lithuania,,,"",1,0,unknown,"",Mentioned in Jewishgen but not in the census,"","Lieponys, Rūdiškių seniūnija, Trakų rajono savivaldybė, Vilniaus apskritis, Lietuva",0407,0407Lp1,2285859608,Q12663118,54.4401209,24.7490117
200,Merech',Vilnius,Troki,1,Lithuania,1900,2580,mestechko,0,1,"","","",מרקינה,"Merkinė, Merkinės seniūnija, Alytaus apskritis, Lietuva",0407,0407Mr1,32441781,Q1594489,54.1613269,24.1830609
201,Niemaniuny,Vilnius,Troki,1,Lithuania,,,"",1,0,unknown,"",Mentioned in Jewishgen but not in the census,"","Nemajūnai, Birštono seniūnija, Kauno apskritis, Lietuva",0407,0407Nm1,1706674412,Q12666660,54.5597176,24.0747856
202,Niemonoitse,Vilnius,Troki,1,Lithuania,361,742,mestechko,0,1,"","","","","Nemunaitis, Nemunaičio seniūnija, Alytaus apskritis, Lietuva",0407,0407Nm2,3783835325,Q16465614,54.2980941,24.0401872
203,Ol'keniki,Vilnius,Troki,1,Lithuania,1126,2619,mestechko,0,1,"","","",אולקניק,"Užuperkasis, Valkininkų seniūnija, Alytaus apskritis, Lietuva",0407,0407Ol1,317360830,Q2121733,54.3589408,24.8416634
204,Olava,Vilnius,Troki,1,Lithuania,,,"",1,0,unknown,"",Mentioned in Jewishgen but not in the census,"","Alovė, Alovės seniūnija, Alytaus apskritis, Lietuva",0407,0407Ol2,944007716,Q7297277,54.3501313,24.1734127
205,Olita,Vilnius,Troki,1,Lithuania,753,2010,mestechko,0,1,"","","",אליטא,"Alytus, Alytaus miesto savivaldybė, Alytaus apskritis, Lietuva",0407,0407Ol3,32821920,Q450625,54.3961344,24.0459268
206,Orany,Vilnius,Troki,1,Lithuania,1473,2624,mestechko,0,1,"","","",וריאנה,"Varėna, Varėnos seniūnija, Alytaus apskritis, Lietuva",0407,0407Or1,32441683,Q835843,54.2121764,24.5673724
207,Pananishki,Vilnius,Troki,1,Lithuania,,,"",1,0,unknown,"",Mentioned in Jewishgen but not in the census,"","Panošiškės, Grendavės seniūnija, Trakų rajono savivaldybė, Vilniaus apskritis, Lietuva",0407,0407Pn1,917384303,Q12668299,54.5141379,24.7292943
208,Puni,Vilnius,Troki,1,Lithuania,1045,1133,mestechko,0,1,"","","","","Punia, Punios seniūnija, Alytaus rajono savivaldybė, Alytaus apskritis, Lietuva",0407,0407Pn2,390351414,Q7260193,54.510711,24.1042365
209,Rotnitsa,Vilnius,Troki,1,Lithuania,517,539,mestechko,0,1,"","","","","Druskininkai, Druskininkų savivaldybė, Alytaus apskritis, Lietuva",0407,0407Rt1,1245504053,Q12670979,54.0015457,24.0163431
210,Sulemishki,Vilnius,Troki,1,Lithuania,300,968,selo,0,1,"","","",סמילישוק,Semeliškės,0407,0407Sl1,32448780,Q2548176,54.6644657,24.6590614
211,Stoklishki,Vilnius,Troki,1,Lithuania,808,2200,mestechko,0,1,"","","","","Stakliškės, Stakliškių seniūnija, Prienų rajono savivaldybė, Kauno apskritis, Lietuva",0407,0407St1,80050493,Q5764045,54.5897701,24.3205564
212,Troki,Vilnius,Troki,1,Lithuania,1112,3240,Uezdnyi gorod,0,1,"","","",טרקאי,"Trakai, Trakų seniūnija, Vilniaus apskritis, Lietuva",0407,0407Tr1,32821844,Q191015,54.6449911,24.9353981
213,Vysokii dvor,Vilnius,Troki,1,Lithuania,309,711,mestechko,0,1,"","","","","Aukštadvaris, Aukštadvario seniūnija, Vilniaus apskritis, Lietuva",0407,0407Vy1,80031267,Q2667459,54.5804193,24.5279233
214,Zhosli,Vilnius,Troki,1,Lithuania,1325,1955,mestechko,0,1,"","","","","Žasliai, Žaslių seniūnija, Kauno apskritis, Lietuva",0407,0407Zs1,130147827,Q2212797,54.865248,24.5897095
215,Zhizhmor'e,Vilnius,Troki,1,Lithuania,1628,2795,mestechko,0,1,"","","",ז'ייז'מריאי,"Žiežmariai, Žiežmarių apylinkės seniūnija, Kaišiadorių rajono savivaldybė, Kauno apskritis, Lietuva",0407,0407Zz1,2379094149,Q12680730,54.8138853,24.4249197
216,Ianovichi,Vitebsk,Vitebsk,1,Lithuania,1702,2359,mestechko,0,1,"","","","","Янавічы, Віцебскі раён, Віцебская вобласць, Беларусь",0501,0501In1,242979074,Q2478237,55.2932768,30.7019427
217,Kolyshki,Vitebsk,Vitebsk,1,Lithuania,1127,1568,mestechko,0,1,"","","","","Яськаўшчынскі сельскі Савет, Лёзненскі раён, Віцебская вобласць, Беларусь",0501,0501Kl1,243046371,Q6496681,55.167407,30.9583627
218,Surazh,Vitebsk,Vitebsk,1,Lithuania,1246,2731,Zashtatnyi gorod,0,1,"","","","","Сураж, Віцебскі раён, Віцебская вобласць, Беларусь",0501,0501Sr1,242979102,Q2471115,55.4078137,30.7229995
219,Vitebsk,Vitebsk,Vitebsk,1,Lithuania,34440,65871,Gubernskii gorod,0,1,"","","",ויטבסק,"Віцебск, Віцебская вобласць, Беларусь",0501,0501Vt1,242978887,Q102217,55.1930197,30.2070437
220,Il'ino,Vitebsk,Velizh,1,Lithuania,1105,1415,mestechko,0,1,"","","","","Ильино, Западнодвинский муниципальный округ, Тверская область, Центральный федеральный округ, Россия",0502,0502Il1,496512756,Q4199658,55.9473848,31.665797
221,Usviat,Vitebsk,Velizh,1,Lithuania,956,2679,mestechko,0,1,"","","","","Усвяты, Усвятский муниципальный округ, Псковская область, Россия",0502,0502Us1,2499164596,Q2625702,55.7432428,30.7538528
222,Velizh,Vitebsk,Velizh,1,Lithuania,5989,12193,Uezdnyi gorod,0,1,"","","",וליז',"Велиж, Велижский муниципальный округ, Смоленская область, Россия",0502,0502Vl1,173835805,Q132960,55.6045223,31.1949976
223,Gorodok,Vitebsk,Gorodok,1,Lithuania,3413,5023,Uezdnyi gorod,0,1,"","","",הרדוק,"Гарадок, Гарадоцкі раён, Віцебская вобласць, Беларусь",0503,0503Gr1,242978970,Q954265,55.4614306,29.9872766
224,Dagda,Vitebsk,Dvinsk,1,Lithuania,1026,1516,mestechko,0,1,"","","","","Dagda, Latvija",0504,0504Dg1,119253538,Q757101,56.0948815,27.5374136
225,Dvinsk,Vitebsk,Dvinsk,1,Lithuania,32400,69675,Uezdnyi gorod,0,1,"","","",דאוגבפילס,"Daugavpils, Latvija",0504,0504Dv1,30391426,Q80021,55.8712267,26.5159337
226,Glazmanka,Vitebsk,Dvinsk,1,Lithuania,1976,2328,mestechko,0,1,"","","","","Gaiziņi, Maiļupsala, Aiviekstes pagasts, Aizkraukles novads, LV-5120, Latvija",0504,0504Gl1,2073536693,"",56.6161759,25.7858012
227,Kreitsburg,Vitebsk,Dvinsk,1,Lithuania,3164,4150,mestechko,0,1,"","","","","Jēkabpils, Latvija",0504,0504Kr1,1159209533,"",56.5052479,25.8716796
228,Kreslavka,Vitebsk,Dvinsk,1,Lithuania,4051,7834,mestechko,0,1,"","","","","Krāslava, Latvija",0504,0504Kr2,119246280,Q638592,55.895206,27.1619304
229,Livengof,Vitebsk,Dvinsk,1,Lithuania,1406,2658,mestechko,0,1,"","","","","Līvāni, Latvija",0504,0504Lv1,2298737778,Q849156,56.3531859,26.177657
230,Preli,Vitebsk,Dvinsk,1,Lithuania,1375,2104,mestechko,0,1,"","","","","Preiļi, Latvija",0504,0504Pr1,129965572,Q858476,56.2937366,26.7266734
231,Raipol',Vitebsk,Dvinsk,1,Lithuania,220,1528,poselok,0,1,"","",Now Staryi Forshtadt,"",Raipol',0504,0504Rp1,,"",55.9,26.5
232,Vyshki,Vitebsk,Dvinsk,1,Lithuania,668,959,mestechko,0,1,"","",Name of district as it mentioned in census,"","Višķi, Latvija",0504,0504Vy1,130233084,Q1999379,56.0541902,26.7833676
233,Drissa,Vitebsk,Drissa,1,Lithuania,2856,4238,Uezdnyi gorod,0,1,"","","","","Дрыса, Верхнядзвінск, Верхнядзвінскі раён, Віцебская вобласць, Беларусь",0505,0505Dr1,566272443,Q2622731,55.7673597,27.9425299
234,Iukhovichi,Vitebsk,Drissa,1,Lithuania,336,618,mestechko,0,1,"","","","","Клясціцкі сельскі Савет, Расонскі раён, Віцебская вобласць, Беларусь",0505,0505Ik1,243026462,Q6549791,56.0127522,28.6481773
235,Nikolaevo,Vitebsk,Drissa,1,Lithuania,551,749,mestechko,0,1,"","","","","Мікалаёва, Мікалаёўскі сельскі Савет, Мёрскі раён, Віцебская вобласць, Беларусь",0505,0505Nk1,7491671,Q20513864,55.5410008,28.1082179
236,Osveia,Vitebsk,Drissa,1,Lithuania,1660,2830,mestechko,0,1,"","","","","Асвея, Верхнядзвінскі раён, Віцебская вобласць, Беларусь",0505,0505Os1,132246871,Q2596938,56.016373,28.107273
237,Pridruisk,Vitebsk,Drissa,1,Lithuania,561,854,mestechko,0,1,"","","","","Piedruja, Latvija",0505,0505Pr1,124186427,Q4362480,55.796398,27.4426214
238,Rositsa,Vitebsk,Drissa,1,Lithuania,524,755,mestechko,0,1,"","","","","Росіца, Верхнядзвінскі раён, Віцебская вобласць, Беларусь",0505,0505Rs1,132241966,Q3442846,55.9190455,27.7585382
239,Volynets,Vitebsk,Drissa,1,Lithuania,602,985,mestechko,0,1,"","","","","Валынцы, Верхнядзвінскі раён, Віцебская вобласць, Беларусь",0505,0505Vl1,243019152,Q59060,55.7055753,28.1846939
240,Bocheikovo,Vitebsk,Lepel',1,Lithuania,323,722,mestechko,0,1,"","","","","Бачэйкава, Бешанковіцкі раён, Віцебская вобласць, Беларусь",0506,0506Bc1,243027104,Q3919263,55.0136223,29.1447601
241,Beshenkovichi,Vitebsk,Lepel',1,Lithuania,3182,4423,mestechko,0,1,"","","","","Бешанковічы, Бешанковіцкі раён, Віцебская вобласць, Беларусь",0506,0506Bs1,242978968,Q1033593,55.0457981,29.4578212
242,Chashniki,Vitebsk,Lepel',1,Lithuania,3480,4590,mestechko,0,1,"","","",צ'אשניקי,"Чашнікі, Чашніцкі раён, Віцебская вобласць, Беларусь",0506,0506Cs1,242978956,Q954421,54.8569819,29.1598825
243,Kublichi,Vitebsk,Lepel',1,Lithuania,935,1291,mestechko,0,1,"","","","","Кублічы, Ушацкі раён, Віцебская вобласць, Беларусь",0506,0506Kb1,243023945,Q3925043,55.1574602,28.339433
244,Kamen',Vitebsk,Lepel',1,Lithuania,826,1056,mestechko,0,1,"","","","","Камень, Лепельскі раён, Віцебская вобласць, Беларусь",0506,0506Km1,243025071,Q20470286,55.0144547,28.8860752
245,Lepel',Vitebsk,Lepel',1,Lithuania,3379,6284,Uezdnyi gorod,0,1,"","","",לפל,"Лепель, Лепельскі раён, Віцебская вобласць, Беларусь",0506,0506Lp1,242978947,Q954132,54.8866187,28.6936245
246,Ulla,Vitebsk,Lepel',1,Lithuania,1539,2485,mestechko,0,1,"","","","","Ула, Бешанковіцкі раён, Віцебская вобласць, Беларусь",0506,0506Ul1,242979059,Q2376687,55.2243814,29.240568
247,Ushach,Vitebsk,Lepel',1,Lithuania,1129,1460,mestechko,0,1,"","","",אושאצ'י,"Ушачы, Ушацкі раён, Віцебская вобласць, Беларусь",0506,0506Us1,242978948,Q2987234,55.1790267,28.617221
248,Korsovka,Vitebsk,Liutsin,1,Lithuania,609,1313,mestechko,0,1,"","",Name of district as it mentioned in census,קרסאווה,"Kārsava, Latvija",0507,0507Kr1,157344234,Q849147,56.7874531,27.6733754
249,Liutsin,Vitebsk,Liutsin,1,Lithuania,2803,5140,Uezdnyi gorod,0,1,"","","",לודזה,"Ludza, Latvija",0507,0507Lt1,27083904,Q744259,56.5477177,27.7242092
250,Polishcheno,Vitebsk,Liutsin,1,Lithuania,144,599,selo,0,1,"","","","","Šķaune, Šķaunes pagasts, Krāslavas novads, Latvija",0507,0507Pl1,148140778,Q15220212,56.1326728,28.0016098
251,Nevel',Vitebsk,Nevel',1,Lithuania,5836,9349,Uezdnyi gorod,0,1,"","","",נוול,"Невель, Невельский муниципальный округ, Псковская область, Северо-Западный федеральный округ, Россия",0508,0508Nv1,26163795,Q165773,56.017616,29.917128
252,Polotsk,Vitebsk,Polotsk,1,Lithuania,12481,20294,Uezdnyi gorod,0,1,"","","",פולאצק,"Полацк, Полацкі раён, Віцебская вобласць, Беларусь",0509,0509Pl1,119310785,Q200797,55.4854656,28.7682339
253,Sirotino,Vitebsk,Polotsk,1,Lithuania,1766,1998,mestechko,0,1,"","","","","Сіроцінскі сельскі Савет, Шумілінскі раён, Віцебская вобласць, Беларусь",0509,0509Sr1,243038718,Q13134177,55.3718746,29.6257143
254,Rybinishki,Vitebsk,Riezhitsa,1,Lithuania,533,584,mestechko,0,1,"","","","","Riebiņi, Latvija",0510,0510Ry1,290688769,Q942401,56.3378625,26.800997
255,Riezhitsa,Vitebsk,Riezhitsa,1,Lithuania,6478,10795,Uezdnyi gorod,0,1,"","","",רזקנה,"Rēzekne, Latvija",0510,0510Rz1,58422785,Q180379,56.506281,27.3306623
256,Veleny,Vitebsk,Riezhitsa,1,Lithuania,321,774,mestechko,0,1,"","","","","Viļāni, Latvija",0510,0510Vl1,59772550,Q836513,56.5549602,26.9288591
257,Varkliany,Vitebsk,Riezhitsa,1,Lithuania,1365,1810,mestechko,0,1,"","",Name of district as it mentioned in census,ורקליאני,"Varakļāni, Latvija",0510,0510Vr1,157088773,Q849141,56.6088743,26.7539093
258,Sebezh,Vitebsk,Sebezh,1,Lithuania,2561,4326,Uezdnyi gorod,0,1,"","","",סבז',"Себеж, городское поселение Себеж, Себежский район, Псковская область, Северо-Западный федеральный округ, Россия",0511,0511Sb1,27084320,Q193641,56.2774187,28.4848862
259,Andrushovka,Volhinia,Zhitomir,1,South-West,430,2682,mestechko,0,1,"","","","","Андрушівка, Андрушівська міська громада, Бердичівський район, Житомирська область, 13400-13405, Україна",0801,0801An1,337536703,Q148909,50.0301392,29.0222111
260,Barashi,Volhinia,Zhitomir,1,South-West,338,2170,selo,0,1,"","","","","Бараші, Барашівська сільська громада, Звягельський район, Житомирська область, 11255, Україна",0801,0801Br1,337517468,Q4077969,50.712551,28.029209
261,Berezovka,Volhinia,Zhitomir,1,South-West,60,550,derevnia,0,1,"","","","","Березівка, Березівська міська громада, Березівський район, Одеська область, Україна",0801,0801Br2,193430239,Q819103,47.2016391,30.908595
262,Bykovka,Volhinia,Zhitomir,1,South-West,92,618,derevnia,0,1,"","","","","Биківка, Романівська селищна громада, Житомирський район, Житомирська область, 13012, Україна",0801,0801By1,337525071,Q2670499,50.2927853,27.9746606
263,Chudnov,Volhinia,Zhitomir,1,South-West,4491,5580,mestechko,0,1,"","","",צ'ודניב,"Чуднів, Житомирська область, Україна",0801,0801Cd1,337535925,Q149271,50.0524287,28.1153765
264,Cherniakhov,Volhinia,Zhitomir,1,South-West,1774,3878,mestechko,0,1,"","","","","Черняхів, Черняхівська селищна громада, Житомирський район, Житомирська область, 12301, Україна",0801,0801Cr1,143837898,Q872377,50.45299,28.66573
265,Chervonnoe,Volhinia,Zhitomir,1,South-West,711,2638,mestechko,0,1,"","","","","Малі Мошківці, Житомирська область, Україна",0801,0801Cr2,337539430,Q787722,49.9528344,28.87532
266,Goroshki,Volhinia,Zhitomir,1,South-West,2018,3228,mestechko,0,1,"","","","","Хорошів, Житомирська область, Україна",0801,0801Gr1,337519185,Q2993479,50.5959845,28.445337
267,Ianushpol',Volhinia,Zhitomir,1,South-West,1251,5085,mestechko,0,1,"","","","","Іванопіль, Краснопільська сільська громада, Бердичівський район, Житомирська область, 13255, Україна",0801,0801In1,337541893,Q2670459,49.8571284,28.2159062
268,Ivnitsa,Volhinia,Zhitomir,1,South-West,607,3095,mestechko,0,1,"","","","","Івниця, Волицька сільська громада, Житомирський район, Житомирська область, 13420, Україна",0801,0801Iv1,337528277,Q4197225,50.145935,29.04398
269,Kodnia,Volhinia,Zhitomir,1,South-West,688,2564,mestechko,0,1,"","","","","Кодня, Станишівська сільська громада, Житомирський район, Житомирська область, 12452, Україна",0801,0801Kd1,337534863,Q4226198,50.087009,28.693199
270,Krasnopol',Volhinia,Zhitomir,1,South-West,374,3344,selo,0,1,"","","","",Краснопіль,0801,0801Kr1,337514001,Q4238918,50.91991,28.49819
271,Leshchin,Volhinia,Zhitomir,1,South-West,337,1666,mestechko,0,1,"","","","","Ліщин, Житомирська область, Україна",0801,0801Ls1,337527844,Q4260583,50.159451,28.84495
272,Levkov,Volhinia,Zhitomir,1,South-West,541,3685,mestechko,1,1,"",at_most,No Jews mentioned at census year; calculated by subtraction from Total value any other groups mentioned in census for this place,"","Левків, Житомирська область, Україна",0801,0801Lv1,337526264,Q7243791,50.2370914,28.832007
273,Ol'shanka,Volhinia,Zhitomir,1,South-West,136,761,derevnia,0,1,"","","","","Вільшанка, Житомирська область, Україна",0801,0801Ol1,337537018,Q4334417,50.019379,28.14423
274,Puliny,Volhinia,Zhitomir,1,South-West,1168,2736,mestechko,0,1,"","","","","Пулини, Пулинська селищна громада, Житомирський район, Житомирська область, 12004, Україна",0801,0801Pl1,337521296,Q2641647,50.4690331,28.270617
275,Piatka,Volhinia,Zhitomir,1,South-West,836,2703,mestechko,0,1,"","","",פיאטקה,"П’ятка, Чуднівська міська громада, Житомирський район, Житомирська область, 13222, Україна",0801,0801Pt1,337537303,Q4385911,50.021179,28.366579
276,Raigorodok,Volhinia,Zhitomir,1,South-West,946,2058,mestechko,0,1,"","","","","Райгородок, Райгородоцька сільська громада, Бердичівський район, Житомирська область, 13363, Україна",0801,0801Rg1,337543715,Q4388925,49.826771,28.377001
277,Sosnovaia-Baliarka,Volhinia,Zhitomir,1,South-West,96,712,derevnia,0,1,"","",Now Radetskaia Boliarka : http://forum.vgd.ru/?o=1&t=3316&st=0&p=,"","Радецька Болярка, Житомирська область, Україна",0801,0801Ss1,7813595140,Q4387187,50.591386,28.2488489
278,Staraia Kotel'nia,Volhinia,Zhitomir,1,South-West,1345,3183,mestechko,0,1,"","","","",Стара Котельня,0801,0801St1,337534268,Q4439706,50.1007278,28.9531036
279,Troianov,Volhinia,Zhitomir,1,South-West,1469,7224,mestechko,0,1,"","","","","Троянів, Новогуйвинська селищна громада, Житомирський район, Житомирська область, 12460, Україна",0801,0801Tr1,337534078,Q4464054,50.1114033,28.5333286
280,Utomir,Volhinia,Zhitomir,1,South-West,1754,2381,mestechko,0,1,"","","","","Ушомир, Ушомирська сільська громада, Коростенський район, Житомирська область, 11571, Україна",0801,0801Ut1,337514850,Q239490,50.861889,28.469351
281,Zhitomir,Volhinia,Zhitomir,1,South-West,30748,65895,Gubernskii gorod,0,1,"","","",ז'יטומיר,"Житомир, Житомирська міська громада, Житомирський район, Житомирська область, 12440, Україна",0801,0801Zt1,252098339,Q156713,50.2601065,28.6696281
282,Dubechno,Volhinia,Vladimir-Volynskii,1,South-West,50,1364,selo,1,1,"",at_most,Calculated by subtraction from Total value any other groups mentioned in census for this place,"","Дубечне, Дубечненська сільська громада, Ковельський район, Волинська область, 44412, Україна",0802,0802Db1,337507107,Q4169120,51.5481067,24.3754757
283,Druzhkopol',Volhinia,Vladimir-Volynskii,1,South-West,870,1340,mestechko,0,1,"","","","","Журавники, Горохівська міська громада, Луцький район, Волинська область, Україна",0802,0802Dr1,314192631,Q4181826,50.426411,24.681585
284,Gorokhov,Volhinia,Vladimir-Volynskii,1,South-West,2571,4699,mestechko,0,1,"","","","","Горохів, Горохівська міська громада, Луцький район, Волинська область, 45701, Україна",0802,0802Gr1,337520718,Q148974,50.4986166,24.7600734
285,Kupichev,Volhinia,Vladimir-Volynskii,1,South-West,124,1698,selo,1,1,"",at_most,Calculated by subtraction from Total value any other groups mentioned in census for this place,"","Купичів, Турійська селищна громада, Ковельський район, Волинська область, 44852, Україна",0802,0802Kp1,1588719497,Q2065576,50.989227,24.713057
286,Kiselik,Volhinia,Vladimir-Volynskii,1,South-West,873,889,mestechko,0,1,"","",Different city is mentioned on site and link (same population),"","Кисилин, Затурцівська сільська громада, Володимирський район, Волинська область, Україна",0802,0802Ks1,30722046,Q2065713,50.851917,24.80002
287,Liuboml',Volhinia,Vladimir-Volynskii,1,South-West,3297,4470,mestechko,0,1,"","","","","Любомль, Любомльська міська громада, Ковельський район, Волинська область, 44301, Україна",0802,0802Lb1,260342645,Q974468,51.2234546,24.0315783
288,Lokachi,Volhinia,Vladimir-Volynskii,1,South-West,1730,2309,mestechko,0,1,"","","","","Локачі, Локачинська селищна громада, Володимирський район, Волинська область, 45500, Україна",0802,0802Lk1,337517065,Q1996325,50.738946,24.6482949
289,Opalin,Volhinia,Vladimir-Volynskii,1,South-West,769,1612,mestechko,0,1,"","","","","Вишнівка, Рівненська сільська громада, Ковельський район, Волинська область, Україна",0802,0802Op1,30717827,Q4112694,51.2857795,23.7170254
290,Ozdiutichi,Volhinia,Vladimir-Volynskii,1,South-West,701,701,mestechko,0,1,"","","",אוזדיוטיץ,"Озютичі, Волинська область, Україна",0802,0802Oz1,30721615,Q4332258,50.8505674,24.7103899
291,Ozeriany,Volhinia,Vladimir-Volynskii,1,South-West,40,759,selo,1,1,"",at_most,No Jews mentioned at census year; calculated by subtraction from Total value any other groups mentioned in census for this place,"","Озеряни, Турійська селищна громада, Ковельський район, Волинська область, 44860, Україна",0802,0802Oz2,337512633,Q4332196,51.023624,24.809338
292,Poritsk,Volhinia,Vladimir-Volynskii,1,South-West,1316,2264,mestechko,0,1,"","","","","Павлівка, Волинська область, Україна",0802,0802Pr1,337518709,Q2065690,50.627998,24.46138
293,Shatsk,Volhinia,Vladimir-Volynskii,1,South-West,122,2410,selo,1,1,"",at_most,No Jews mentioned at census year; calculated by subtraction from Total value any other groups mentioned in census for this place,שאצק,"Шацьк, Шацька селищна громада, Ковельський район, Волинська область, 44000, Україна",0802,0802St1,260893514,Q2638835,51.4909494,23.9219323
294,Sviniukhi,Volhinia,Vladimir-Volynskii,1,South-West,629,1780,mestechko,0,1,"","","","","Привітне, Локачинська селищна громада, Володимирський район, Волинська область, 45543, Україна",0802,0802Sv1,30736993,Q2065596,50.639229,24.748358
295,Ustilug,Volhinia,Vladimir-Volynskii,1,South-West,3212,3590,mestechko,0,1,"","","",אוסטילוג,"Устилуг, Устилузька міська громада, Володимирський район, Волинська область, 44731, Україна",0802,0802Us1,3308250,Q147292,50.8622192,24.1505139
296,Vladimir-Volynskii,Volhinia,Vladimir-Volynskii,1,South-West,5869,9883,Uezdnyi gorod,0,1,"","","",לודמיר,"Володимир, Володимирська міська громада, Володимирський район, Волинська область, 44751, Україна",0802,0802Vl1,259984311,Q33544,50.8474669,24.319319
297,Berestechko,Volhinia,Dubno,1,South-West,2251,4953,mestechko,0,1,"","","","","Берестечко, Берестечківська міська громада, Луцький район, Волинська область, 45765, Україна",0803,0803Br1,337523440,Q819126,50.3585756,25.1209852
298,Dubno,Volhinia,Dubno,1,South-West,7108,14257,Uezdnyi gorod,0,1,"","","",דובנו,"Дубно, Дубенська міська громада, Дубенський район, Рівненська область, 35627, Україна",0803,0803Db1,337522487,Q932184,50.4187918,25.7455972
299,Demidovka,Volhinia,Dubno,1,South-West,679,679,mestechko,0,1,"","","","","Демидівка, Демидівська селищна громада, Дубенський район, Рівненська область, 35200, Україна",0803,0803Dm1,79657640,Q2993536,50.4285969,25.3299118
300,Kozin,Volhinia,Dubno,1,South-West,972,1820,mestechko,0,1,"","","","","Козин, Козинська сільська громада, Дубенський район, Рівненська область, 35523, Україна",0803,0803Kz1,337525655,Q4226579,50.266911,25.465281
301,Lobachevka,Volhinia,Dubno,1,South-West,193,981,mestechko,0,1,"","","","","Лобачівка, Волинська область, Україна",0803,0803Lb1,30722636,Q547697,50.418919,24.976742
302,Mikhailovka,Volhinia,Dubno,1,South-West,1047,1197,mestechko,0,1,"","","","","Боремель, Боремельська сільська громада, Дубенський район, Рівненська область, 35210, Україна",0803,0803Mk1,337521109,Q4093558,50.4710604,25.1931736
303,Mlynov,Volhinia,Dubno,1,South-West,672,1105,mestechko,0,1,"","","","","Млинів, Млинівська селищна громада, Дубенський район, Рівненська область, 35100, Україна",0803,0803Ml1,337520527,Q2658207,50.5118774,25.6126259
304,Muravitsa,Volhinia,Dubno,1,South-West,757,958,mestechko,0,1,"","","","","Млинів, Рівненська область, Україна",0803,0803Mr1,3170604795,"",50.5210243,25.5902795
305,Mizoch',Volhinia,Dubno,1,South-West,1175,2667,mestechko,0,1,"","","","","Мізочок, Мізоцька селищна громада, Рівненський район, Рівненська область, 35740, Україна",0803,0803Mz1,337523044,Q4292921,50.3838453,26.1500123
306,Olyka,Volhinia,Dubno,1,South-West,2606,4210,mestechko,0,1,"","","","","Олика, Волинська область, Україна",0803,0803Ol1,337517247,Q1050383,50.7237994,25.8120572
307,Ostrozhets,Volhinia,Dubno,1,South-West,636,1464,mestechko,0,1,"","","",אוסטרוז'ץ,"Острожець, Острожецька сільська громада, Дубенський район, Рівненська область, 35113, Україна",0803,0803Os1,337518171,Q4339107,50.667568,25.53978
308,Ozerany,Volhinia,Dubno,1,South-West,1013,1111,derevnia,0,1,"","","","","Озеряни, Варковицька сільська громада, Дубенський район, Рівненська область, 35613, Україна",0803,0803Oz1,337521272,Q4332192,50.4683593,26.0294852
309,Torgovitsa,Volhinia,Dubno,1,South-West,891,907,mestechko,0,1,"","","","","Торговиця, Підлозцівська сільська громада, Дубенський район, Рівненська область, 35133, Україна",0803,0803Tr1,337519808,Q359380,50.5541235,25.3960949
310,Varkovichi,Volhinia,Dubno,1,South-West,1109,1925,mestechko,0,1,"","","","","Варковичі, Варковицька сільська громада, Дубенський район, Рівненська область, 35612, Україна",0803,0803Vr1,337521236,Q4103854,50.4709226,25.9708915
311,Verba,Volhinia,Dubno,1,South-West,452,1530,mestechko,0,1,"","","","","Верба, Вербська сільська громада, Дубенський район, Рівненська область, 35670, Україна",0803,0803Vr2,337525256,Q2599119,50.280323,25.590887
312,Antoniny,Volhinia,Zaslavl',1,South-West,25,1803,selo,1,1,"",at_most,No Jews mentioned at census year; calculated by subtraction from Total value any other groups mentioned in census for this place,"","Антоніни, Хмельницька область, Україна",0804,0804An1,337544206,Q599421,49.81029,26.86466
313,Bielogorodka,Volhinia,Zaslavl',1,South-West,1846,5438,mestechko,0,1,"","",Name of district as it mentioned in census,"","Білогородка, Ізяславська міська громада, Шепетівський район, Хмельницька область, 30343, Україна",0804,0804Bl1,337537394,Q1660287,50.007359,26.639441
314,Gritsev,Volhinia,Zaslavl',1,South-West,979,1011,mestechko,0,1,"","","","","Гриців, Хмельницька область, Україна",0804,0804Gr1,337538282,Q1973720,49.9726651,27.2175036
315,Kornitsa,Volhinia,Zaslavl',1,South-West,517,1251,mestechko,0,1,"","","","","Корниця, Хмельницька область, Україна",0804,0804Kr1,337535940,Q4233418,50.052333,26.5269027
316,Labun',Volhinia,Zaslavl',1,South-West,10,2317,mestechko,1,1,"",at_most,No Jews mentioned at census year; calculated by subtraction from Total value any other groups mentioned in census for this place; strange difference in populations-coordinates in the middle between 2 countries,"","Юровщина, Полонська міська громада, Шепетівський район, Хмельницька область, 30522, Україна",0804,0804Lb1,337536933,Q4535126,50.018445,27.367373
317,Mikhlia,Volhinia,Zaslavl',1,South-West,311,1438,selo,0,1,"","","","","Михля, Хмельницька область, Україна",0804,0804Mk1,337527874,Q4298176,50.1603563,26.8094319
318,Shchepetovka,Volhinia,Zaslavl',1,South-West,3880,8033,mestechko,0,1,"","","",שפטיבקה,"Шепетівка, Хмельницька область, Україна",0804,0804Sc1,313245343,Q161965,50.1809437,27.0651783
319,Sudilkov,Volhinia,Zaslavl',1,South-West,2712,5551,mestechko,0,1,"","","",סודילקוב,"Судилків, Судилківська сільська громада, Шепетівський район, Хмельницька область, 30430, Україна",0804,0804Sd1,337527665,Q4445436,50.166321,27.13142
320,Sluvuta,Volhinia,Zaslavl',1,South-West,4891,8454,mestechko,0,1,"","","",סלאוויטא,"Славута, Славутська міська громада, Шепетівський район, Хмельницька область, 30000, Україна",0804,0804Sl1,313243807,Q856018,50.2962398,26.8658254
321,Velikii Cherniatin,Volhinia,Zaslavl',1,South-West,254,1555,selo,0,1,"","","","","Великий Чернятин, Хмельницька область, Україна",0804,0804Vl1,337545099,Q967955,49.786949,27.071341
322,Zaslavl',Volhinia,Zaslavl',1,South-West,5998,12611,Uezdnyi gorod,0,1,"","","","","Ізяслав, Ізяславська міська громада, Шепетівський район, Хмельницька область, Україна",0804,0804Zs1,192675927,Q841029,50.1194691,26.8207625
323,Cheremoshno,Volhinia,Kovel',1,South-West,113,1144,selo,1,1,"",at_most,No Jews mentioned at census year; calculated by subtraction from Total value any other groups mentioned in census for this place,"","Черемошне, Волинська область, Україна",0805,0805Cr1,337509550,Q4512739,51.3233953,25.0232037
324,Dol'sk,Volhinia,Kovel',1,South-West,17,637,selo,1,1,"",at_most,No Jews mentioned at census year; calculated by subtraction from Total value any other groups mentioned in census for this place,"","Дольськ, Турійська селищна громада, Ковельський район, Волинська область, Україна",0805,0805Dl1,30722807,Q4165139,51.1079635,24.3728217
325,Datyn',Volhinia,Kovel',1,South-West,40,1520,selo,1,1,"",at_most,No Jews mentioned at census year; calculated by subtraction from Total value any other groups mentioned in census for this place,"","Датинь, Велимченська сільська громада, Ковельський район, Волинська область, 44165, Україна",0805,0805Dt1,337507282,Q4155220,51.525532,24.76009
326,Goloby,Volhinia,Kovel',1,South-West,108,1416,selo,1,1,"",at_most,No Jews mentioned at census year; calculated by subtraction from Total value any other groups mentioned in census for this place,"","Голоби, Голобська селищна громада, Ковельський район, Волинська область, 45070, Україна",0805,0805Gl1,337511906,Q2470639,51.0859784,25.015465
327,Kamen'-Kashirsk,Volhinia,Kovel',1,South-West,1189,1220,mestechko,0,1,"","","",קאמין-קושירסקי,"Камінь-Каширський, Камінь-Каширська міська громада, Камінь-Каширський район, Волинська область, 44501, Україна",0805,0805Km1,337506245,Q1000461,51.6271153,24.961357
328,Kortelisy,Volhinia,Kovel',1,South-West,141,1110,selo,0,1,"","","","","Кортеліси, Ратнівська селищна громада, Ковельський район, Волинська область, Україна",0805,0805Kr1,30723729,Q2621101,51.851753,24.42799
329,Kashovka,Volhinia,Kovel',1,South-West,445,1059,mestechko,0,1,"","","","","Кашівка, Волинська область, Україна",0805,0805Ks1,337511143,Q4218083,51.164021,25.313869
330,Kovel',Volhinia,Kovel',1,South-West,8521,17697,Uezdnyi gorod,0,1,"","","",קובל,"Ковель, Ковельська міська громада, Ковельський район, Волинська область, 45004, Україна",0805,0805Kv1,146651245,Q156704,51.2120807,24.7088806
331,Malaia Glusha,Volhinia,Kovel',1,South-West,55,1046,selo,1,1,"",at_most,No Jews mentioned at census year; calculated by subtraction from Total value any other groups mentioned in census for this place,"","Мала Глуша, Камінь-Каширська міська громада, Камінь-Каширський район, Волинська область, 44224, Україна",0805,0805Ml1,30723881,Q4276806,51.7866437,24.9807531
332,Mel'nitsa,Volhinia,Kovel',1,South-West,1599,2588,mestechko,0,1,"","","","","Мельниця, Велицька сільська громада, Ковельський район, Волинська область, 45080, Україна",0805,0805Ml2,337511239,Q2509678,51.15131,25.104099
333,Milianovichi,Volhinia,Kovel',1,South-West,100,755,mestechko,0,1,"","","","","Миляновичі, Луківська селищна громада, Ковельський район, Волинська область, 44820, Україна",0805,0805Ml3,337510829,Q4293895,51.189984,24.4479483
334,Matsiov,Volhinia,Kovel',1,South-West,2337,3897,mestechko,0,1,"","","","","Луків, Луківська селищна громада, Ковельський район, Волинська область, 44810, Україна",0805,0805Mt1,337510512,Q2027024,51.2297317,24.3420795
335,Nesukhoizhi,Volhinia,Kovel',1,South-West,814,1862,mestechko,0,1,"","","","","Воля, Ковельська міська громада, Ковельський район, Волинська область, 45021, Україна",0805,0805Ns1,337508873,Q2068366,51.3767408,24.833854
336,Povursk,Volhinia,Kovel',1,South-West,35,1328,selo,1,1,"",at_most,Calculated by subtraction from Total value any other groups mentioned in census for this place,"","Поворськ, Поворська сільська громада, Ковельський район, Волинська область, Україна",0805,0805Pv1,30723689,Q933619,51.261631,25.129389
337,Ratno,Volhinia,Kovel',1,South-West,2219,3089,mestechko,0,1,"","","",רטנה,"Ратне, Ратнівська селищна громада, Ковельський район, Волинська область, 44100, Україна",0805,0805Rt1,337505820,Q1385480,51.67145,24.52458
338,Stobykova,Volhinia,Kovel',1,South-West,492,1214,mestechko,0,1,"","","","","Стобихва, Камінь-Каширська міська громада, Камінь-Каширський район, Волинська область, Україна",0805,0805St1,30718739,Q4442690,51.3965,25.181232
339,Turiisk,Volhinia,Kovel',1,South-West,1713,2938,Zashtatnyi gorod,0,1,"","","","","Турійськ, Турійська селищна громада, Ковельський район, Волинська область, 44800, Україна",0805,0805Tr1,337511968,Q1996528,51.08299,24.52389
340,Velikaia Glusha,Volhinia,Kovel',1,South-West,182,1734,selo,0,1,"","","",גלוּשָׁה רבתי,"Велика Глуша, Камінь-Каширська міська громада, Камінь-Каширський район, Волинська область, 44221, Україна",0805,0805Vl1,30723727,Q2065654,51.817032,25.04236
341,Bielozorki,Volhinia,Kremenets,1,South-West,1070,2905,mestechko,0,1,"","","","","Білозірка, Тернопільська область, Україна",0806,0806Bl1,337545889,Q4082469,49.7642414,26.1814411
342,Bol'shie Fol'varki,Volhinia,Kremenets,1,South-West,,,selo,1,0,"","",It's not mentioned in census; http://fgurgia.ru/showObject.do?object=27413913,"",Bol'shie Fol'varki,0806,0806Bl2,,"",50.36666,28.13333
343,Berezhetsy,Volhinia,Kremenets,1,South-West,428,1252,mestechko,0,1,"","","","","Великі Бережці, Тернопільська область, Україна",0806,0806Br1,337534596,Q4106383,50.09663,25.60501
344,Iampol',Volhinia,Kremenets,1,South-West,1482,2564,mestechko,0,1,"","","",יאמפיל,"Ямпіль, Хмельницька область, Україна",0806,0806Im1,337538997,Q1681481,49.9562165,26.2274578
345,Kremenets,Volhinia,Kremenets,1,South-West,6539,17704,Uezdnyi gorod,0,1,"","","","","Кременець, Тернопільська область, Україна",0806,0806Kr1,312247291,Q849116,50.0960966,25.7260783
346,Katerburg,Volhinia,Kremenets,1,South-West,693,1035,mestechko,0,1,"","","","","Катеринівка, Тернопільська область, Україна",0806,0806Kt1,337537503,Q4217332,50.0053,25.88619
347,Lapovtsy,Volhinia,Kremenets,1,South-West,1174,2525,mestechko,0,1,"","",Different city is mentioned on site and link (same population),לאניבצי,"Ланівці, Лановецька міська громада, Кременецький район, Тернопільська область, 47400, Україна",0806,0806Lp1,312249487,Q591788,49.8734191,26.0780148
348,Novyi Aleksinets,Volhinia,Kremenets,1,South-West,342,1206,mestechko,0,1,"","","","","Новий Олексинець, Тернопільська область, Україна",0806,0806Nv1,337543349,Q4326561,49.838958,25.4945994
349,Novyi Pochaev,Volhinia,Kremenets,1,South-West,1377,1921,mestechko,0,1,"","",Different city is mentioned on site and link (same population),"","Почаїв, Тернопільська область, Україна",0806,0806Nv2,312253429,Q149060,50.0017638,25.5110926
350,Novyi Vishnevets,Volhinia,Kremenets,1,South-West,2980,4196,mestechko,0,1,"","","","","Вишнівець, Тернопільська область, Україна",0806,0806Nv3,337541242,Q2993487,49.9019379,25.7510822
351,Radzivilov,Volhinia,Kremenets,1,South-West,4322,7313,mestechko,0,1,"","","",ראדיביליב,"Радивилів, Рівненська область, Україна",0806,0806Rd1,337533363,Q1020069,50.1279775,25.2487069
352,Rokhmanovo,Volhinia,Kremenets,1,South-West,93,576,selo,0,1,"","","","","Рохманів, Тернопільська область, Україна",0806,0806Rk1,337533422,Q4398758,50.12821,26.08669
353,Shumsk,Volhinia,Kremenets,1,South-West,1962,2258,mestechko,0,1,"","","","","Шумськ, Тернопільська область, Україна",0806,0806Sm1,312259277,Q219601,50.1183638,26.1186214
354,Staryi Vishnevets,Volhinia,Kremenets,1,South-West,314,1651,mestechko,0,1,"","","","","Старий Вишнівець, Тернопільська область, Україна",0806,0806St1,3167522,Q4441028,49.8918086,25.7546001
355,Vyshgorodok,Volhinia,Kremenets,1,South-West,1078,2169,mestechko,0,1,"","","",וישגרודק,"Вишгородок, Лановецька міська громада, Кременецький район, Тернопільська область, 47432, Україна",0806,0806Vy1,337545647,Q4129953,49.76875,25.96859
356,Bol'shaia Volnianka,Volhinia,Lutsk,1,South-West,286,1305,koloniia,0,1,"","",Now part of Rozhishche: http://www.rujen.ru/index.php/%D0%92%D0%BE%D0%B2%D0%BD%D1%8F%D0%BD%D0%BA%D0%B0,רוז'ישצ'ה,"Рожище, Рожищенська міська громада, Луцький район, Волинська область, 45101, Україна",0807,0807Bl1,337514044,Q148896,50.916332,25.2712543
357,Bol'shoi Zheludsk,Volhinia,Lutsk,1,South-West,51,595,selo,1,1,"",at_most,Calculated by subtraction from Total value any other groups mentioned in census for this place,"","Малий Жолудськ, Рафалівська селищна громада, Вараський район, Рівненська область, 34364, Україна",0807,0807Bl2,337509636,Q4278868,51.303978,26.103418
358,Berezhnitsa,Volhinia,Lutsk,1,South-West,2160,2964,mestechko,0,1,"","","","","Бережниця, Дубровицька міська громада, Сарненський район, Рівненська область, 34164, Україна",0807,0807Br1,337508161,Q4084328,51.440048,26.46607
359,Chartoriisk,Volhinia,Lutsk,1,South-West,822,2776,mestechko,0,1,"","","","","Чарторийськ, Волинська область, Україна",0807,0807Cr1,30723699,Q1007758,51.226158,25.878981
360,Dradysk,Volhinia,Lutsk,1,South-West,18,579,selo,1,1,"",at_most,No Jews mentioned; calculated by subtraction from Total value any other groups mentioned in census for this place,"","Градиськ, Маневицька селищна громада, Камінь-Каширський район, Волинська область, 44621, Україна",0807,0807Dr1,337508775,Q4147398,51.382202,25.346375
361,Gulevichev,Volhinia,Lutsk,1,South-West,245,673,mestechko,0,1,"","","","","Гулівка, Поворська сільська громада, Ковельський район, Волинська область, Україна",0807,0807Gl1,30718912,Q2068330,51.259121,25.21946
362,Gorodets,Volhinia,Lutsk,1,South-West,113,1876,selo,1,1,"",at_most,Calculated by subtraction from Total value any other groups mentioned in census for this place,"","Городець, Сарненська міська громада, Сарненський район, Рівненська область, 34381, Україна",0807,0807Gr1,337509894,Q964803,51.2816709,26.3289655
363,Gorodok,Volhinia,Lutsk,1,South-West,188,1118,mestechko,0,1,"","","","",Городок,0807,0807Gr2,337517729,Q2065860,50.6964519,25.129314
364,Ignatovka,Volhinia,Lutsk,1,South-West,567,567,koloniia,0,1,"","","",לוז'ישט,"Ківерцівська міська громада, Волинська область, Україна",0807,0807Ig1,10738436126,Q2905629,50.9346675,25.6994506
365,Kolki,Volhinia,Lutsk,1,South-West,2537,4394,mestechko,0,1,"","","","","Колки, Колківська селищна громада, Луцький район, Волинська область, 44663, Україна",0807,0807Kl1,337511872,Q1010088,51.0962777,25.6676021
366,Kopachevka,Volhinia,Lutsk,1,South-West,226,648,poselok,0,1,"","","","","Копачівка, Копачівська сільська громада, Луцький район, Волинська область, 45150, Україна",0807,0807Kp1,337514623,Q4232263,50.8798116,25.2230391
367,Kivertsy,Volhinia,Lutsk,1,South-West,59,564,selo,1,1,"",at_most,No Jews mentioned at census year; calculated by subtraction from Total value any other groups mentioned in census for this place,קיברצי,"Ківерці, Ківерцівська міська громада, Луцький район, Волинська область, 45201, Україна",0807,0807Kv1,337515438,Q148890,50.8333448,25.4648622
368,Lishnevka,Volhinia,Lutsk,1,South-West,292,1354,mestechko,0,1,"","","","","Лишнівка, Волинська область, Україна",0807,0807Ls1,337507826,Q7238092,51.47575,25.40863
369,Lutsk,Volhinia,Lutsk,1,South-West,9468,15804,Uezdnyi gorod,0,1,"","","",לוצק,"Луцьк, Луцька міська громада, Луцький район, Волинська область, 45606, Україна",0807,0807Lt1,146570870,Q7550,50.7450733,25.320078
370,Manevichi,Volhinia,Lutsk,1,South-West,5,990,selo,1,1,"",at_most,No Jews mentioned at census year; calculated by subtraction from Total value any other groups mentioned in census for this place,"","Маневичі, Маневицька селищна громада, Камінь-Каширський район, Волинська область, 44600, Україна",0807,0807Mn1,337509799,Q1014310,51.2908106,25.537878
371,Olizarka,Volhinia,Lutsk,1,South-West,254,,koloniia,0,0,unknown,"",It's not mentioned in census but mentioned in Jewish Encyclopedy of Brokhaus&Efron,"","хутір Олізарка, Рафалівська селищна громада, Вараський район, Рівненська область, 34362, Україна",0807,0807Ol1,1782353075,"",51.3552476,25.9823543
372,Rafalovka,Volhinia,Lutsk,1,South-West,1054,2038,mestechko,0,1,"","","",רפליבקה,"Рафалівка, Рафалівська селищна громада, Вараський район, Рівненська область, 34371, Україна",0807,0807Rf1,337509652,Q2670231,51.30718,26.00018
373,Rozhishche,Volhinia,Lutsk,1,South-West,3169,3830,mestechko,0,1,"","","",רוז'ישצ'ה,Рожище,0807,0807Rz1,337514044,Q148896,50.916332,25.2712543
374,Sofievka,Volhinia,Lutsk,1,South-West,1580,1591,koloniia,0,1,"","","",טרוכנברוד,"Цуманська селищна громада, Волинська область, Україна",0807,0807Sf1,4295226540,Q702450,50.9143165,25.6951115
375,Sokul',Volhinia,Lutsk,1,South-West,490,1333,mestechko,0,1,"","","","","Сокіл, Рожищенська міська громада, Луцький район, Волинська область, 45113, Україна",0807,0807Sk1,30720258,Q762209,51.047291,25.34203
376,Torchin,Volhinia,Lutsk,1,South-West,2629,4507,mestechko,0,1,"","","","","Торчин, Торчинська селищна громада, Луцький район, Волинська область, 45612, Україна",0807,0807Tr1,30736942,Q2469901,50.769734,25.010768
377,Troianovka,Volhinia,Lutsk,1,South-West,314,1676,mestechko,0,1,"","","","","Троянівка, Маневицька селищна громада, Камінь-Каширський район, Волинська область, Україна",0807,0807Tr2,30723631,Q4464060,51.331558,25.28606
378,Vladimirets,Volhinia,Lutsk,1,South-West,1024,2074,mestechko,0,1,"","","",ולדימירץ,"Володимирець, Володимирецька селищна громада, Вараський район, Рівненська область, 34300, Україна",0807,0807Vl1,337508346,Q2658213,51.4197839,26.1392078
379,Zhalobov,Volhinia,Lutsk,1,South-West,261,1063,derevnia,0,1,"","",Now part of Rozhishche:http://www.rujen.ru/index.php/%D0%96%D0%90%D0%9B%D0%9E%D0%91%D0%9E%D0%92,"",Zhalobov,0807,0807Zl1,,"",50.9167,25.2667
380,Baranovka,Volhinia,Novograd-Volynskii,1,South-West,1990,2095,mestechko,0,1,"","","",ברניבקה,Баранівка,0808,0808Br1,337525063,Q148917,50.29369,27.66666
381,Berezdov,Volhinia,Novograd-Volynskii,1,South-West,1319,2687,mestechko,0,1,"","","","","Берездів, Берездівська сільська громада, Шепетівський район, Хмельницька область, 30053, Україна",0808,0808Br2,1489631662,Q2040277,50.460449,27.116673
382,Chizhovka,Volhinia,Novograd-Volynskii,1,South-West,91,635,derevnia,0,1,"","","","","Чижівка, Житомирська область, Україна",0808,0808Cz1,337518150,Q4515784,50.6675866,27.618603
383,Dolgosel'e,Volhinia,Novograd-Volynskii,1,South-West,120,820,derevnia,0,1,"","","","",Dolgosel'e (Kamenka),0808,0808Dl1,,"",51.15,27.5
384,Dovbysh,Volhinia,Novograd-Volynskii,1,South-West,92,872,derevnia,0,1,"","","","","Довбиш, Довбиська селищна громада, Звягельський район, Житомирська область, 12724, Україна",0808,0808Dv1,337523156,Q2993483,50.371498,27.985924
385,Emil'chik,Volhinia,Novograd-Volynskii,1,South-West,1049,2477,selo,0,1,"","","","","Ємільчине, Житомирська область, Україна",0808,0808Em1,337514704,Q2641633,50.872091,27.8047443
386,Gorodnitsa,Volhinia,Novograd-Volynskii,1,South-West,1310,2314,mestechko,0,1,"","","","","Городниця, Городницька селищна громада, Звягельський район, Житомирська область, 11714, Україна",0808,0808Gr1,337515899,Q2670476,50.80627,27.31407
387,Kamennyi Brod,Volhinia,Novograd-Volynskii,1,South-West,1147,1773,derevnia,0,1,"","","","","Жовте, Житомирська область, Україна",0808,0808Km1,337522370,Q2657922,50.4181836,27.8381143
388,Korets,Volhinia,Novograd-Volynskii,1,South-West,4608,6060,mestechko,0,1,"","","",קורץ,"Корець, Корецька міська громада, Рівненський район, Рівненська область, 34700, Україна",0808,0808Kr1,1489631667,Q997398,50.6194566,27.159712
389,Krasnostav,Volhinia,Novograd-Volynskii,1,South-West,1222,2194,mestechko,0,1,"","","","","Красностав, Берездівська сільська громада, Шепетівський район, Хмельницька область, 30085, Україна",0808,0808Kr2,337522431,Q4239088,50.4094642,27.1791527
390,Liubar,Volhinia,Novograd-Volynskii,1,South-West,5435,12507,mestechko,0,1,"","","",ליובר‎,"Любар, Любарська селищна громада, Житомирський район, Житомирська область, 13101, Україна",0808,0808Lb1,337540453,Q2652151,49.9231632,27.7487535
391,Mar'ianovka Guta,Volhinia,Novograd-Volynskii,1,South-West,106,710,derevnia,0,1,"","",http://rujen.ru/index.php/%D0%93%D0%A3%D0%A2%D0%90_%D0%9C%D0%90%D0%A0%D0%AC%D0%AF%D0%9D%D0%9E%D0%92%D0%9A%D0%90,"","Стара Гута, Житомирська область, Україна",0808,0808Mr1,337517857,Q4439656,50.686451,27.823219
392,Miropol',Volhinia,Novograd-Volynskii,1,South-West,1912,4914,mestechko,0,1,"","","","","Миропіль, Миропільська селищна громада, Житомирський район, Житомирська область, 13038, Україна",0808,0808Mr2,337534123,Q2980442,50.1099029,27.697456
393,Novaia Chartoriia,Volhinia,Novograd-Volynskii,1,South-West,502,1872,mestechko,0,1,"","","","","Нова Чортория, Любарська селищна громада, Житомирський район, Житомирська область, 13120, Україна",0808,0808Nv1,337536658,Q4322387,50.031738,27.70134
394,Novograd-Volynsk,Volhinia,Novograd-Volynskii,1,South-West,9378,16904,Uezdnyi gorod,0,1,"","","",זוויאהל,"Звягель, Житомирська область, Україна",0808,0808Nv2,146498192,Q149024,50.5917622,27.6066973
395,Novyi Korets,Volhinia,Novograd-Volynskii,1,South-West,951,2502,mestechko,0,1,"","","","","Новий Корець, Рівненська область, Україна",0808,0808Nv3,337518890,Q4326674,50.61264,27.138981
396,Ostropol',Volhinia,Novograd-Volynskii,1,South-West,2714,7505,mestechko,0,1,"","","","","Старий Остропіль, Староостропільська сільська громада, Хмельницький район, Хмельницька область, 31146, Україна",0808,0808Os1,337544267,Q1012604,49.807892,27.559225
397,Pogorieloe,Volhinia,Novograd-Volynskii,1,South-West,67,578,derevnia,0,1,"","","","","Скараднянскі сельскі Савет, Ельскі раён, Гомельская вобласць, Беларусь",0808,0808Pg1,243025303,Q4366712,51.61797,28.888008
398,Polonnoe,Volhinia,Novograd-Volynskii,1,South-West,7910,16288,mestechko,0,1,"","","",פולונה,"Полонне, Полонська міська громада, Шепетівський район, Хмельницька область, 30500-30509, Україна",0808,0808Pl1,664074031,Q997351,50.1193439,27.5089702
399,Paninka,Volhinia,Novograd-Volynskii,1,South-West,206,1025,derevnia,0,1,"","","","","Понінка, Хмельницька область, Україна",0808,0808Pn1,337527159,Q1973731,50.19138,27.56126
400,Rogachev,Volhinia,Novograd-Volynskii,1,South-West,1303,1381,mestechko,0,1,"","","",רוהאצ'יב,"Рогачів, Баранівська міська громада, Звягельський район, Житомирська область, 12722, Україна",0808,0808Rg1,337522262,Q4395415,50.4092607,27.7222824
401,Romanov,Volhinia,Novograd-Volynskii,1,South-West,2599,5645,mestechko,0,1,"","","","","Романів, Романівська селищна громада, Житомирський район, Житомирська область, 13002, Україна",0808,0808Rm1,337528233,Q2629338,50.1476608,27.9313692
402,Sokolov,Volhinia,Novograd-Volynskii,1,South-West,239,770,selo,0,1,"","","","","Соколів, Курненська сільська громада, Житомирський район, Житомирська область, 12021, Україна",0808,0808Sk1,337520816,Q4427266,50.496601,28.07007
403,Seredniaia,Volhinia,Novograd-Volynskii,1,South-West,104,674,derevnia,0,1,"","","","","Середня, Житомирська область, Україна",0808,0808Sr1,337524324,Q4417520,50.3365238,27.5596188
404,Varvarovka,Volhinia,Novograd-Volynskii,1,South-West,62,621,derevnia,0,1,"","","There are 2 countries with this name, was chosen by population and Emilchin history: http://www.jewishperson.org/emilchino/emilchino/","","Варварівка, Центральний район, Миколаїв, Миколаївська міська громада, Миколаївський район, Миколаївська область, 54000, Україна",0808,0808Vr1,2416748,Q4103639,46.99205,31.941372
405,Bogdanovka,Volhinia,Ovruch,1,South-West,59,583,derevnia,0,1,"","","","","Богданівка, Житомирська область, Україна",0809,0809Bg1,337509863,Q4089355,51.2869915,28.9702568
406,Bol'shie Kleshchi,Volhinia,Ovruch,1,South-West,103,959,selo,0,1,"","","","","Народицька селищна громада, Житомирська область, Україна",0809,0809Bl1,13161810109,Q12088488,51.0691842,29.1735728
407,Bazar,Volhinia,Ovruch,1,South-West,833,1976,mestechko,0,1,"","","","","Базар, Народицька селищна громада, Коростенський район, Житомирська область, 11452, Україна",0809,0809Bz1,1078451134,Q2022610,51.045311,29.29393
408,Didkovichi,Volhinia,Ovruch,1,South-West,276,2511,selo,0,1,"","","","","Дідковичі, Коростенська міська громада, Коростенський район, Житомирська область, 11534, Україна",0809,0809Dd1,337511774,Q4156713,51.101189,28.833281
409,Ignatpol',Volhinia,Ovruch,1,South-West,51,504,selo,0,1,"","","","","Ігнатпіль, Житомирська область, Україна",0809,0809Ig1,337511320,Q4197509,51.1425019,28.7161213
410,Iurovo,Volhinia,Ovruch,1,South-West,104,912,selo,0,1,"","","","","Юрове, Житомирська область, Україна",0809,0809Ir1,337509070,Q4535104,51.362796,27.8321764
411,Iskorost',Volhinia,Ovruch,1,South-West,1266,2626,mestechko,0,1,"","","",קורוסטן,"Коростень, Коростенська міська громада, Коростенський район, Житомирська область, 11512, Україна",0809,0809Is1,337513583,Q158904,50.9491068,28.6417552
412,Khochin,Volhinia,Ovruch,1,South-West,730,745,selo,0,1,"","","","","Хочино, Житомирська область, Україна",0809,0809Kc1,337508002,Q4500611,51.456562,27.88274
413,Khodaki,Volhinia,Ovruch,1,South-West,270,1280,selo,0,1,"","","","","Ходаки, Коростенська міська громада, Коростенський район, Житомирська область, 11540, Україна",0809,0809Kd1,337513215,Q2067925,50.9793203,28.8038345
414,Ksaverov,Volhinia,Ovruch,1,South-West,455,1241,mestechko,0,1,"","","","","Ксаверів, Малинська міська громада, Коростенський район, Житомирська область, 11612, Україна",0809,0809Ks1,337513359,Q4243282,50.962666,29.149296
415,Luchiny,Volhinia,Ovruch,1,South-West,1599,2535,mestechko,0,1,"","",Different city is mentioned on site and link (same population),"","Крупчатка, Житомирська область, Україна",0809,0809Lc1,337512029,Q2652141,51.07853,28.3976
416,Moshki,Volhinia,Ovruch,1,South-West,132,1116,selo,0,1,"","","","",Малі Мошки,0809,0809Ms1,337509975,Q4278666,51.2751284,28.8734615
417,Narodichi,Volhinia,Ovruch,1,South-West,2054,4576,mestechko,0,1,"","","","","Народичі, Житомирська область, Україна",0809,0809Nr1,337510727,Q2603008,51.2024469,29.0808107
418,Norinsk,Volhinia,Ovruch,1,South-West,584,1683,mestechko,0,1,"","","","","Норинськ, Овруцька міська громада, Коростенський район, Житомирська область, 11154, Україна",0809,0809Nr2,337510032,Q4327368,51.269333,28.578625
419,Olevsk,Volhinia,Ovruch,1,South-West,1187,2070,mestechko,0,1,"","","","","Олевськ, Житомирська область, Україна",0809,0809Ol1,337510555,Q913143,51.22272,27.64881
420,Ovruch,Volhinia,Ovruch,1,South-West,3445,7393,Uezdnyi gorod,0,1,"","","",אוברוץ',"Овруч, Овруцька міська громада, Коростенський район, Житомирська область, 11101, Україна",0809,0809Ov1,313426755,Q27039,51.3259771,28.8026718
421,Perga,Volhinia,Ovruch,1,South-West,65,485,derevnia,0,1,"","","","","Перга, Житомирська область, Україна",0809,0809Pr1,337508574,Q4349922,51.39748,27.893259
422,Pashiny,Volhinia,Ovruch,1,South-West,143,990,selo,0,1,"","",Now part of Korosten',"","Шатрище, Житомирська область, Україна",0809,0809Ps1,6420541740,"",50.9780061,28.6620343
423,Rokitno,Volhinia,Ovruch,1,South-West,163,1453,selo,0,1,"","","","","Рокитне, Рокитнівська селищна громада, Сарненський район, Рівненська область, 34200, Україна",0809,0809Rk1,1773508407,Q4389390,51.2856324,27.206254
424,Sobichin,Volhinia,Ovruch,1,South-West,83,703,selo,0,1,"","",Now Komsomol'skoe : http://rujen.ru/index.php/%D0%A0%D0%A3%D0%94%D0%9D%D0%AF_%D0%A1%D0%9E%D0%91%D0%98%D0%A7%D0%98%D0%9D%D0%A1%D0%9A%D0%90%D0%AF,"",Сновидовичі,0809,0809Sb1,337510266,Q4425629,51.248131,27.47646
425,Slovechno,Volhinia,Ovruch,1,South-West,885,1570,mestechko,0,1,"","","","","Словечне, Словечанська сільська громада, Коростенський район, Житомирська область, 11122, Україна",0809,0809Sl1,337508882,Q3878279,51.377941,28.358181
426,Tatarnovichi,Volhinia,Ovruch,1,South-West,42,1126,selo,1,1,"",at_most,No Jews mentioned; calculated by subtraction from Total value any other groups mentioned in census for this place; for original name: http://ru.wikipedia.org/wiki/%D0%91%D0%B5%D1%80%D0%B5%D1%81%D1%82%D0%BE%D0%B2%D0%B5%D1%86_(%D0%96%D0%B8%D1%82%,"","Берестовець, Головинська сільська громада, Рівненський район, Рівненська область, 35043, Україна",0809,0809Tt1,337514856,Q4084784,50.861549,26.303329
427,Veledniki,Volhinia,Ovruch,1,South-West,569,1143,mestechko,0,1,"","","","","Нові Велідники, Словечанська сільська громада, Коростенський район, Житомирська область, 11144, Україна",0809,0809Vl1,337509607,Q4326345,51.316415,28.4600082
428,Vas'kovichi,Volhinia,Ovruch,1,South-West,198,1877,selo,0,1,"","","","","Васьковичі, Житомирська область, Україна",0809,0809Vs1,337511946,Q4105133,51.084709,28.708309
429,Vystupovichi,Volhinia,Ovruch,1,South-West,109,1032,selo,0,1,"","","","","Виступовичі, Овруцька міська громада, Коростенський район, Житомирська область, 11110, Україна",0809,0809Vy1,337506959,Q4129663,51.562611,29.07909
430,Viazovka,Volhinia,Ovruch,1,South-West,239,1178,mestechko,0,1,"","","","","В’язівка, Народицька селищна громада, Коростенський район, Житомирська область, 11432, Україна",0809,0809Vz1,337511227,Q4130289,51.1526551,28.8732358
431,Zamyslovichi,Volhinia,Ovruch,1,South-West,59,598,selo,0,1,"","","","","Замисловичі, Житомирська область, Україна",0809,0809Zm1,337510144,Q4186029,51.2601128,27.9399898
432,Annopol',Volhinia,Ostrog,1,South-West,1812,2197,mestechko,0,1,"","","","","Ганнопіль, Ганнопільська сільська громада, Шепетівський район, Хмельницька область, 30030, Україна",0810,0810An1,360697478,Q4066768,50.4526337,26.8975265
433,Bielotin,Volhinia,Ostrog,1,South-West,56,527,derevnia,0,1,"","","","",Білотин,0810,0810Bl1,337526009,Q4082826,50.2453224,26.6664664
434,Goshcha,Volhinia,Ostrog,1,South-West,884,2091,mestechko,0,1,"","","","","Гоща, Гощанська селищна громада, Рівненський район, Рівненська область, 35400, Україна",0810,0810Gs1,3782165,Q786622,50.60466,26.6827977
435,Kilikiev,Volhinia,Ostrog,1,South-West,576,1928,mestechko,0,1,"","","","","Киликиїв, Ганнопільська сільська громада, Шепетівський район, Хмельницька область, 30042, Україна",0810,0810Kl1,1745650913,Q4220491,50.5322409,27.0532246
436,Kunev,Volhinia,Ostrog,1,South-West,1661,2935,mestechko,0,1,"","","","","Кунів, Плужненська сільська громада, Шепетівський район, Хмельницька область, 30310, Україна",0810,0810Kn1,337526136,Q4247198,50.2434839,26.3648377
437,Kisorichi,Volhinia,Ostrog,1,South-West,70,684,selo,0,1,"","","","","Кисоричі, Рівненська область, Україна",0810,0810Ks1,337510848,Q4222293,51.1992231,27.2584499
438,Liakhovtsy,Volhinia,Ostrog,1,South-West,1384,5401,mestechko,0,1,"","","","","Білогір’я, Хмельницька область, Україна",0810,0810Lk1,337537581,Q2630044,50.0019489,26.4166916
439,Ostrog,Volhinia,Ostrog,1,South-West,9208,14749,Uezdnyi gorod,0,1,"","","",אוסטרוה,"Острог, Острозька міська громада, Рівненський район, Рівненська область, 35800-35807, Україна",0810,0810Os1,337524419,Q140671,50.329021,26.5203627
440,Zdolbunovo,Volhinia,Ostrog,1,South-West,518,4692,derevnia,1,1,"",at_most,No Jews mentioned at census year; calculated by subtraction from Total value any other groups mentioned in census for this place,"","Здолбунів, Здолбунівська міська громада, Рівненський район, Рівненська область, 35707, Україна",0810,0810Zd1,337520759,Q148979,50.518994,26.2431096
441,Aleksandriia,Volhinia,Rovno,1,South-West,2154,3189,mestechko,0,1,"","",Name of district as it mentioned in census,"","Олександрія, Олександрійська сільська громада, Рівненський район, Рівненська область, 35320, Україна",0811,0811Al1,337517126,Q4061016,50.731873,26.3455835
442,Antonovka,Volhinia,Rovno,1,South-West,620,647,sloboda,0,1,"","","","","Малолюбашанська сільська громада, Рівненська область, Україна",0811,0811An1,4295225333,"",50.8058627,26.4758562
443,Berezno,Volhinia,Rovno,1,South-West,2765,4059,mestechko,0,1,"","","",ברזנה,"Березне, Березнівська міська громада, Рівненський район, Рівненська область, 34607, Україна",0811,0811Br1,1186506546,Q148910,51.0035653,26.7524487
444,Dombrovitsy,Volhinia,Rovno,1,South-West,2868,6007,mestechko,0,1,"","",Different Uezd of that mentioned on site,דומברוביץ,"Дубровиця, Дубровицька міська громада, Сарненський район, Рівненська область, 34100-34108, Україна",0811,0811Dm1,252154479,Q205765,51.5709462,26.5660889
445,Derazhno,Volhinia,Rovno,1,South-West,770,1497,mestechko,0,1,"","","",דרז'נה,"Деражне, Деражненська сільська громада, Рівненський район, Рівненська область, 35053, Україна",0811,0811Dr1,1156681572,Q658167,50.8624633,26.0492532
446,Glinki,Volhinia,Rovno,1,South-West,346,912,selo,0,1,"","","","","Глинки, Білокриницька сільська громада, Рівненський район, Рівненська область, 35342, Україна",0811,0811Gl1,337519511,Q7287119,50.575562,26.39912
447,Goringrod,Volhinia,Rovno,1,South-West,540,1936,mestechko,0,1,"","","","","Гориньград Перший, Білокриницька сільська громада, Рівненський район, Рівненська область, 35326, Україна",0811,0811Gr1,337518356,Q4146104,50.6593682,26.5077415
448,Klesov,Volhinia,Rovno,1,South-West,59,760,selo,1,1,"",at_most,No Jews mentioned at census year; calculated by subtraction from Total value any other groups mentioned in census for this place,"","Клесів, Клесівська селищна громада, Сарненський район, Рівненська область, 34550, Україна",0811,0811Kl1,337509403,Q4223426,51.331829,26.923662
449,Klevan',Volhinia,Rovno,1,South-West,2432,3739,mestechko,0,1,"","","","","Клевань, Клеванська селищна громада, Рівненський район, Рівненська область, 35312, Україна",0811,0811Kl2,337516783,Q250591,50.7464848,26.006327
450,Krichil'sk,Volhinia,Rovno,1,South-West,120,1486,selo,1,1,"",at_most,No Jews mentioned at census year; calculated by subtraction from Total value any other groups mentioned in census for this place,"","Кричильськ, Сарненська міська громада, Сарненський район, Рівненська область, 34530, Україна",0811,0811Kr1,337510369,Q4241420,51.239891,26.362379
451,Kostopol',Volhinia,Rovno,1,South-West,1101,1706,mestechko,0,1,"","","",קוסטופיל,"Костопіль, Костопільська міська громада, Рівненський район, Рівненська область, 35000-35001, Україна",0811,0811Ks1,337514561,Q148985,50.8792198,26.4533981
452,Liudvipol',Volhinia,Rovno,1,South-West,1210,1428,mestechko,0,1,"","","","","Соснове, Соснівська селищна громада, Рівненський район, Рівненська область, 34652, Україна",0811,0811Ld1,337515468,Q2993520,50.8266045,26.9950145
453,Machulki,Volhinia,Rovno,1,South-West,433,708,koloniia,0,1,"","","","","Мочулки, Рівненська область, Україна",0811,0811Mc1,337515540,Q4305237,50.8242149,25.9491223
454,Malyia Selishchi,Volhinia,Rovno,1,South-West,598,628,sloboda,0,1,"","","","","Селище, Рівненська область, Україна",0811,0811Ml1,337510795,Q4413877,51.196629,26.92062
455,Mezherich,Volhinia,Rovno,1,South-West,456,1518,mestechko,0,1,"","","","","Межиріч, Острозька міська громада, Рівненський район, Рівненська область, 35808, Україна",0811,0811Mz1,337524743,Q4288775,50.306084,26.480486
456,Mezhirich,Volhinia,Rovno,1,South-West,2107,3131,mestechko,0,1,"","","",מזריטש,"Великі Межирічі, Великомежиріцька сільська громада, Рівненський район, Рівненська область, 34725, Україна",0811,0811Mz2,1160207030,Q2580559,50.6597992,26.8631128
457,Osova,Volhinia,Rovno,1,South-West,107,724,sloboda,0,1,"","","",אוסובה,"Осова, Костопільська міська громада, Рівненський район, Рівненська область, 35011, Україна",0811,0811Os1,337511917,Q4338269,51.087448,25.97683
458,Rovno,Volhinia,Rovno,1,South-West,13780,24573,Uezdnyi gorod,0,1,"","","",רובנו,"Рівне, Рівненська міська громада, Рівненський район, Рівненська область, 35305, Україна",0811,0811Rv1,448930,Q156739,50.6196175,26.2513165
459,Sarny,Volhinia,Rovno,1,South-West,172,2146,selo,1,1,"",at_most,Calculated by subtraction from Total value any other groups mentioned in census for this place,סארני,"Сарни, Сарненська міська громада, Сарненський район, Рівненська область, 34508, Україна",0811,0811Sr1,337509542,Q997512,51.3350028,26.6171275
460,Stepan',Volhinia,Rovno,1,South-West,1854,5137,mestechko,0,1,"","","","","Степань, Степанська селищна громада, Сарненський район, Рівненська область, 34560, Україна",0811,0811St1,337511426,Q46511,51.1331321,26.3058758
461,Tuchin,Volhinia,Rovno,1,South-West,2535,3753,mestechko,0,1,"","","","","Тучин, Гощанська селищна громада, Рівненський район, Рівненська область, 35415, Україна",0811,0811Tc1,337517700,Q610779,50.700191,26.56872
462,Tomashgrod,Volhinia,Rovno,1,South-West,150,727,mestechko,0,1,"","","","","Томашгород, Рокитнівська селищна громада, Сарненський район, Рівненська область, 34240, Україна",0811,0811Tm1,337509005,Q4460209,51.367611,27.07855
463,V'iunki,Volhinia,Rovno,1,South-West,151,1084,derevnia,0,1,"","","","","В’юнки, Кіровоградська область, Україна",0811,0811Vn1,337604763,Q4130118,48.267059,31.886789
464,Vysotsk,Volhinia,Rovno,1,South-West,880,912,mestechko,0,1,"","","","","Висоцьк, Висоцька сільська громада, Сарненський район, Рівненська область, 34111, Україна",0811,0811Vy1,337505209,Q2599428,51.7236599,26.6602392
465,Bazaliia,Volhinia,Starokonstantinov,1,South-West,820,3362,mestechko,0,1,"","","","","Базалія, Хмельницька область, Україна",0812,0812Bz1,337548269,Q2629685,49.71382,26.47877
466,Kul'chiny,Volhinia,Starokonstantinov,1,South-West,2031,4335,mestechko,0,1,"","","","","Кульчини, Красилівська міська громада, Хмельницький район, Хмельницька область, 31040, Україна",0812,0812Kl1,337546010,Q4246767,49.75845,26.9014
467,Kupel',Volhinia,Starokonstantinov,1,South-West,2727,4333,mestechko,0,1,"","","","","Купіль, Війтовецька селищна громада, Хмельницький район, Хмельницька область, 31226, Україна",0812,0812Kp1,337552592,Q2090035,49.6132144,26.5130301
468,Krasilov,Volhinia,Starokonstantinov,1,South-West,2563,6994,mestechko,0,1,"","","","","Красилів, Красилівська міська громада, Хмельницький район, Хмельницька область, Україна",0812,0812Kr1,167953166,Q1020096,49.6544431,26.9709084
469,Kuz'min,Volhinia,Starokonstantinov,1,South-West,830,3368,mestechko,0,1,"","","","","Кузьмин, Щиборівська сільська громада, Хмельницький район, Хмельницька область, 31047, Україна",0812,0812Kz1,337548815,Q4245379,49.699059,27.073059
470,Ozhigovtsy,Volhinia,Starokonstantinov,1,South-West,154,1406,mestechko,0,1,"","","","","Ожигівці, Волочиська міська громада, Хмельницький район, Хмельницька область, 31214, Україна",0812,0812Oz1,337552163,Q4331876,49.6289583,26.2361473
471,Starokonstantinov,Volhinia,Starokonstantinov,1,South-West,9212,16377,Uezdnyi gorod,0,1,"","","","","Старокостянтинів, Хмельницька область, Україна",0812,0812St1,337546205,Q997429,49.756163,27.2087889
472,Teofipol',Volhinia,Starokonstantinov,1,South-West,2914,4484,mestechko,0,1,"","","","","Теофіполь, Хмельницька область, Україна",0812,0812Tf1,337543145,Q2637331,49.84463,26.41525
473,Volochisk,Volhinia,Starokonstantinov,1,South-West,3295,6716,mestechko,0,1,"","","","","Волочиськ, Хмельницька область, Україна",0812,0812Vl1,313201266,Q219762,49.5358446,26.2126215
474,Voronezh,Voronezh,Voronezh,0,Inner Russia,1708,80599,Gubernskii gorod,0,1,"","",.,וורונז',"Воронеж, городской округ Воронеж, Воронежская область, Центральный федеральный округ, 394068, Россия",0901,0901Vr1,27505044,Q3426,51.6605982,39.2005858
