id,name,name_he,viv,viv_code,powiat,sum_group,value,addition,addition_type,group,geocode,modern_name,lat,lon,galil,galil_id,wikidata,wikipedia,osm_id,text,is_child,parent_id
1,Babimost,באבימוסט,Poznan,PZN,,PZN_1,206,,,,PZN_BABIMOST,"Babimost, Lubusz Voivodeship, Poland",52.16469,15.8274998,Great Poland,3,Q797713,pl:Babimost,3008152,W mieście Babimost Synagogi,0,
2,Broiec,,Poznan,PZN,,PZN_1,55,,,,PZN_BROJEC,"Brójce, Lubusz Voivodeship, Poland",52.3167532,15.6742026,Great Poland,3,Q4981893,pl:Brójce (województwo lubuskie),3009730607,W mieście Broiec communittis do Babimostu,0,
3,Czarnkow,צ'ארנקוב,Poznan,PZN,,PZN_1,489,,,,PZN_CZARNKOW,"Czarnków, Greater Poland Voivodeship, Poland",52.90528,16.56567,Great Poland,3,Q51438,pl:Czarnków,2858993,W mieście Czarnkow z Ryczy wołem,0,
4,Czempin,צ'מפין,Poznan,PZN,,PZN_1,86,,,,PZN_CZEMPIN,"Czempiń, Greater Poland Voivodeship, Poland",52.1426031,16.7591522,Great Poland,3,,,,W mieście Czempin Sy.,0,
5,Człop,צ׳לופא,Poznan,PZN,,PZN_1,234,,,,PZN_CZLOPA,"Człopa, West Pomeranian Voivodeship, Poland",53.0885,16.12097,Great Poland,3,Q990841,pl:Człopa,3089947,W mieście Człop Sy.,0,
6,Freydlandek,,Poznan,PZN,,PZN_1,877,,,,PZN_FRYDLAD,"Debrzno, Pomeranian Voivodeship, Poland",53.15183017,16.7451248,Great Poland,3,,,957200,W mieście Freydlandek Sy.,0,
7,Grodzisko,גרודז'יסק ויילקופולסקי,Poznan,PZN,,PZN_1,812,,,,PZN_GRODZISKO,"Grodzisk Wielkopolski, Greater Poland Voivodeship, Poland",52.22553,16.36644,Great Poland,3,Q52829,pl:Grodzisk Wielkopolski,2859089,W mieście Grodzisko Sy.,0,
8,Iutrosin,יוטרושין,Poznan,PZN,,PZN_1,115,,,,PZN_JUTROSIN,"Jutrosin, Greater Poland Voivodeship, Poland",51.60230616,16.8489957,Great Poland,3,Q1005837,pl:Jutrosin,2688599,W mieście Iutrosin communittis z Dublin,0,
9,Kargowa,קרגובה,Poznan,PZN,,PZN_1,289,,,,PZN_KARGOWA,"Kargowa, Lubusz Voivodeship, Poland",52.0720997,15.8653468,Great Poland,3,Q280407,pl:Kargowa,3008153,W mieście Kargowa Sy.,0,
10,Leszno,לשנו,Poznan,PZN,,PZN_1,4743,,,,PZN_LESZNO,"Leszno, Greater Poland Voivodeship, Poland",51.8419861,16.5937545,Great Poland,3,Q52892,pl:Leszno,1122507,W mieście Leszno z Bojanowem Synagoga,0,
11,Lwowek,לבובק,Poznan,PZN,,PZN_1,336,,,,PZN_LWOWEK,"Lwówek, Greater Poland Voivodeship, Poland",52.4479565,16.1810373,Great Poland,3,Q1005905,pl:Lwówek,2859427,W mieście Lwowek Sy.,0,
12,Międzymchod,בירנבאום,Poznan,PZN,,PZN_1,236,,,,PZN_MIEDZYCHOD,"Międzychód, Greater Poland Voivodeship, Poland",52.59855,15.89254,Great Poland,3,Q556484,pl:Międzychód,2859158,W mieście Międzymchod Sy.,0,
13,Międzyrzec,מיינדזיז'ץ,Poznan,PZN,,PZN_1,1077,,,,PZN_MIEDZYRZEC,"Międzyrzecz, Lubusz Voivodeship, Poland",52.4444808,15.5779005,Great Poland,3,Q639241,pl:Międzyrzecz,31616362,W mieście Międzyrzec Synagogi z wsiami,0,
14,Murowana Goslina,מורובאנה גושלינה,Poznan,PZN,,PZN_1,111,,,,PZN_MUROWANAGOSLINA,"Murowana Goślina, Greater Poland Voivodeship, Poland",52.5735619,17.0090174,Great Poland,3,Q51003,pl:Murowana Goślina,2864244,W mieście mieście Murowana Goslina,0,
15,Oborniki,אובורניקי,Poznan,PZN,,PZN_1,231,,,,PZN_OBORNIKI,"Oborniki, Greater Poland Voivodeship, Poland",52.6448607,16.8141992,Great Poland,3,Q639212,pl:Oborniki,2698692,W mieście Oborniki Sy.,0,
16,Obrzysko,אוברזיצקו,Poznan,PZN,,PZN_1,195,,,,PZN_OBRZYCKO,"Obrzycko, Greater Poland Voivodeship, Poland",52.7029536,16.5270775,Great Poland,3,Q52894,pl:Obrzycko,2860514,W mieście Obrzysko Sy.,0,
17,Osieczna,,Poznan,PZN,,PZN_1,239,,,,PZN_OSIECZNA,"Osieczna, Greater Poland Voivodeship, Poland",51.9040626,16.6784503,Great Poland,3,Q28676913,pl:Osieczna (gromada w powiecie leszczyńskim),2715289,W mieście Osieczna Sy.,0,
18,Piła,פילה (פולין),Poznan,PZN,,PZN_1,,,,,PZN_PILA,"Piła, Greater Poland Voivodeship, Poland",53.1509671,16.7382266,Great Poland,3,Q556200,,946845,W mieście Piła Sy. z miastem,0,
19,Jastrow,יסטרוב,Poznan,PZN,,PZN_1,411,,,,PZN_JASTROW,"Jastrowie, gmina Jastrowie, powiat złotowski, województwo wielkopolskie, Polska",53.4205494,16.8150156,Great Poland,3,Q199970,pl:Jastrowie,2860713,W mieście Jastrow,0,
20,Pniewy,פינה,Poznan,PZN,,PZN_1,201,,,,PZN_PNIEWY,"Pniewy, District Szamotuły, Greater Poland Voivodeship, Poland",52.5089047,16.2567164,Great Poland,3,Q52896,pl:Pniewy,2103042,W mieście Pniewy Sy.,0,
21,Poznan,פוזנאן (פוזנו),Poznan,PZN,,PZN_1,1951,,,,PZN_POZNAN,"Poznań, Greater Poland Voivodeship, Poland",52.4056786,16.9312766,Great Poland,3,,,,W mieście Poznan Sy.,0,
22,Rawicz,ראביץ',Poznan,PZN,,PZN_1,563,,,,PZN_RAWICZ,"Rawicz, Greater Poland Voivodeship, Poland",51.60945,16.85863,Great Poland,3,Q52898,pl:Rawicz,2690055,W mieście Rawicz Sy.,0,
23,Restarzew,,Poznan,PZN,,PZN_1,52,,,,PZN_RESTARZEW,"Rostarzewo, Greater Poland Voivodeship, Poland",52.1330482,16.2016894,Great Poland,3,,,31612406,W mieście Restarzew communittis,0,
24,Rogozno,רוגזן,Poznan,PZN,,PZN_1,386,,,,PZN_ROGOZNO,"Rogoźno, Greater Poland Voivodeship, Poland",52.74965,17.00343,Great Poland,3,Q987193,pl:Rogoźno,2698549,W mieście Rogozno Sy.,0,
25,Sarnowa,סרנובה,Poznan,PZN,,PZN_1,79,,,,PZN_SAMOWA,,51.631,16.907,Great Poland,3,Q9333921,pl:Sarnowa_(Rawicz),,W mieście Samowa Sy.,0,
26,Sierakow,שיראקוב,Poznan,PZN,,PZN_1,119,,,,PZN_SIERAKOW,"Sieraków, Greater Poland Voivodeship, Poland",52.65088,16.07973,Great Poland,3,Q7511221,pl:Sieraków (województwo małopolskie),3553080,W mieście Sierakow Sy.,0,
27,Skwirzyna,סקווייז'ינה,Poznan,PZN,,PZN_1,492,,,,PZN_SKWIERZYNA,"Skwierzyna, Lubusz Voivodeship, Poland",52.5991741,15.5060653,Great Poland,3,Q994585,pl:Skwierzyna,2881706,W mieście Skwirzyna S.,0,
29,Szlichtyczkow,,Poznan,WSC,Wschowsa,PZN_2,80,,,,WSC_SZLISZKOWCE,"Szlichtyngowa, Wschowa County, Lubusz Voivodeship, Poland",51.7119647,16.2425128,Great Poland,3,,,2864891,W mieście Szlichtyczkow Sy.,0,
30,Szrem,שראם / שרם,Poznan,WSC,Wschowsa,PZN_2,327,,,,WSC_SREM,"Śrem, Śrem County, Greater Poland Voivodeship, Poland",52.0887,17.01506,Great Poland,3,Q387260,pl:Śrem,2611096,W mieście Szrem Sy.,0,
31,Stęszew,סטשב,Poznan,WSC,Wschowsa,PZN_2,55,,,,WSC_STESZEW,"Stęszew, Poznań County, Greater Poland Voivodeship, Poland",52.28375,16.70074,Great Poland,3,Q638725,pl:Stęszew,3008940,W mieście Stęszew communitt.,0,
32,Szwarzęc,שמוטולי,Poznan,WSC,Wschowsa,PZN_2,1024,,,,WSC_SWARZEC,"Swarzędz, gmina Swarzędz, Poznań County, Greater Poland Voivodeship, Poland",52.4103728,17.0771038,Great Poland,3,Q50991,pl:Swarzędz,289375,W mieście Szwarzęc Sy.,0,
33,Samotuły,שמוטולי,Poznan,WSC,Wschowsa,PZN_2,494,,,,WSC_SZAMOTULY,"Szamotuły, Szamotuły County, Greater Poland Voivodeship, Poland",52.6116547,16.5779047,Great Poland,3,Q51427,pl:Szamotuły,3009680382,W mieście Samotuły Sy.,0,
34,Trzcianka,שונלאנקה,Poznan,WSC,Wschowsa,PZN_2,338,,,,WSC_TRZCIANKA,"Trzcianka, Czarnków-Trzcianka County, Greater Poland Voivodeship, Poland",53.0418691,16.4616755,Great Poland,3,Q934785,,1139703164,W mieście Trzcianka Sy.,0,
35,Trzciel,טשצ'ל,Poznan,WSC,Wschowsa,PZN_2,223,,,,WSC_TRZCIEL,"Trzciel, Międzyrzecz County, Lubusz Voivodeship, Poland",52.3648785,15.8730086,Great Poland,3,Q523287,pl:Trzciel,2881707,W mieście Trzciel Sy.,0,
36,Tuczno,טוצ׳נו,Poznan,WSC,Wschowsa,PZN_2,215,,,,WSC_TUCZNO,"Tuczno, Wałcz County, West Pomeranian Voivodeship, Poland",53.19462,16.155899,Great Poland,3,Q989973,pl:Tuczno,3069344,W mieście Tuczno Sy.,0,
37,Wałecz,וולץ',Poznan,WSC,Wschowsa,PZN_2,642,,,,WSC_WALCZ,"Wałcz, Wałcz County, West Pomeranian Voivodeship, Poland",53.2734739,16.4752847,Great Poland,3,Q935744,pl:Wałcz,2887592,W mieście mieście Wałecz Sy. z wsiami,0,
38,Wieluń,ויילון,Poznan,WSC,Wschowsa,PZN_2,686,,,,WSC_WIELUN,"Wieluń, Wieluń County, Łódź Voivodeship, Poland",51.2186,18.56892,Great Poland,3,Q101530,pl:Wieluń,1903950,W mieście Wieluń Sy.,0,
39,Wolsztyn,וולשטין,Poznan,WSC,Wschowsa,PZN_2,371,,,,WSC_WOLSZTYN,"Wolsztyn, Wolsztyn County, Greater Poland Voivodeship, Poland",52.1177088,16.1123378,Great Poland,3,Q852363,pl:Wolsztyn,2718479,W mieście Wolsztyn Sy.,0,
40,Wronki,ורונקי,Poznan,WSC,Wschowsa,PZN_2,483,,,,WSC_WRONKI,"Wronki, Szamotuły County, Greater Poland Voivodeship, Poland",52.7103395,16.3803948,Great Poland,3,Q11739792,pl:Klasztor Franciszkanów we Wronkach,430767368,W mieście Wronki Sy. z wsiami,0,
41,Wschowa,פרויזן,Poznan,WSC,Wschowsa,PZN_2,301,,,,WSC_WSCHOWA,"Wschowa, Wschowa County, Lubusz Voivodeship, Poland",51.8071084,16.3164767,Great Poland,3,Q717938,pl:Wschowa,3007162,W mieście Wschowa Sy.,0,
42,Zbąszyn,זבונשין,Poznan,WSC,Wschowsa,PZN_2,89,,,,WSC_ZBASZYN,"Zbąszyń, Nowy Tomyśl County, Greater Poland Voivodeship, Poland",52.25053,15.92527,Great Poland,3,Q168905,pl:Zbąszyń,2859430,W mieście Zbąszyn Sy.,0,
44,Kalisz,קאליש,Kalisz,KLS,Kaliski,KLS_1,702,,,,KLS_KALISZ,"Kalisz, Greater Poland Voivodeship, Poland",51.7672799,18.0853462,Great Poland,3,Q52842,,1793531748,Miasto Kalisz z parafiami,0,
45,Kozmin,קוזמין,Kalisz,KLS,Kaliski,KLS_1,271,,,,KLS_KOZMIN,"Koźmin Wielkopolski, Greater Poland Voivodeship, Poland",51.82709,17.45392,Great Poland,3,Q679745,pl:Koźmin Wielkopolski,2705295,Miasto Kozmin,0,
46,Ostrow,אוסטרוב,Kalisz,KLS,Kaliski,KLS_1,266,,,,KLS_OSTROW,"Ostrów Wielkopolski, Greater Poland Voivodeship, Poland",51.6549856,17.8068258,Great Poland,3,Q9385578,pl:Zacharzew (Ostrów Wielkopolski),9504458676,Miasto Ostrow,0,
47,Zduny,זדוני,Kalisz,KLS,Kaliski,KLS_1,49,,,,KLS_ZDUNY,"Zduny, Krotoszyn County, Greater Poland Voivodeship, Poland",51.64683,17.37824,Great Poland,3,Q169224,pl:Zduny,2705303,Miasto Zduny,0,
48,Odolanow,אודולאנוב,Kalisz,KLS,Kaliski,KLS_1,18,,,,KLS_ODOLANOW,"Odolanów, Ostrów Wielkopolski County, Greater Poland Voivodeship, Poland",51.57429,17.67392,Great Poland,3,Q745567,pl:Odolanów,2705299,Miasto Odolanow,0,
49,Koźminek,קוז'מינק,Kalisz,KLS,Kaliski,KLS_1,225,,,,KLS_KOZMINEK,"Koźminek, Kalisz County, Greater Poland Voivodeship, Poland",51.7985691,18.338986,Great Poland,3,,,,Miasto Koźminek,0,
50,Karmin,,Kalisz,KLS,Kaliski,KLS_1,96,,,,KLS_KARMIN,"Karmin, Pleszew County, Greater Poland Voivodeship, Poland",51.8378989,17.6920495,Great Poland,3,,,31787495,Miasto Karmin,0,
51,Stawiszyn,סטאווישין,Kalisz,KLS,Kaliski,KLS_1,91,,,,KLS_STAWISZYN,"Stawiszyn, Kalisz County, Greater Poland Voivodeship, Poland",51.9177602,18.1117274,Great Poland,3,Q1002685,pl:Stawiszyn,2705482,Miasto Stawiszyn,0,
52,Raszkow,ראשקוב,Kalisz,KLS,Kaliski,KLS_1,8,,,,KLS_RASZKOW,"Raszków, Ostrów Wielkopolski County, Greater Poland Voivodeship, Poland",51.7181762,17.7257496,Great Poland,3,Q990795,pl:Raszków,1738211,Miasto Raszkow,0,
54,Konin,קונין,Kalisz,KLS,Koniński.,KLS_2,133,,,,KLS_KONIN,"Konin, Greater Poland Voivodeship, Poland",52.2230334,18.2510729,Great Poland,3,Q52845,pl:Konin,31626016,Miasto Konin,0,
55,Koło,קולו,Kalisz,KLS,Koniński.,KLS_2,256,,,,KLS_KOLO,"Koło, Greater Poland Voivodeship, Poland",52.19986,18.63847,Great Poland,3,Q52853,pl:Koło (miasto),2859100,Miasto Koło,0,
56,Russocice,רוסושיץ,Kalisz,KLS,Koniński.,KLS_2,57,,,,KLS_RUSSOCICE,"Russocice, Turek County, Greater Poland Voivodeship, Poland",52.1122418,18.4800277,Great Poland,3,Q9324143,pl:Russocice,31612080,Miasto Russocice,0,
57,Golina,גולינה,Kalisz,KLS,Koniński.,KLS_2,142,,,,KLS_GOLINA,"Golina, Konin County, Greater Poland Voivodeship, Poland",52.2429458,18.0927333,Great Poland,3,Q1192513,pl:Golina,2705473,Miasto Golina,0,
58,Kleczew,קלצ'ב,Kalisz,KLS,Koniński.,KLS_2,262,,,,KLS_KLECZEW,"Kleczew, Konin County, Greater Poland Voivodeship, Poland",52.37048,18.17716,Great Poland,3,,,,Miasto Kleczew,0,
59,Wilczyn,וילצ'ין,Kalisz,KLS,Koniński.,KLS_2,39,,,,KLS_WILCZYN,"Wilczyn, Konin County, Greater Poland Voivodeship, Poland",52.4881243,18.1611351,Great Poland,3,Q986743,,31621994,Miasto Wilczyn,0,
60,Rychwał,ריחוואל,Kalisz,KLS,Koniński.,KLS_2,102,,,,KLS_RYCHWAL,"Rychwał, Konin County, Greater Poland Voivodeship, Poland",52.0697452,18.1662713,Great Poland,3,Q259489,pl:Rychwał,2705480,Miasto Rychwał,0,
62,Pyzdry,פייזער,Kalisz,KLS,Pyzdrski.,KLS_3,452,,,,KLS_PYZDRY,"Pyzdry, Września County, Greater Poland Voivodeship, Poland",52.1705764,17.6900802,Great Poland,3,Q990779,pl:Pyzdry,2676510,Miasto Pyzdry z parafiami,0,
63,Jarocin,יארוצ'ין,Kalisz,KLS,Pyzdrski.,KLS_3,282,,,,KLS_JAROCIN,"Jarocin, Greater Poland Voivodeship, Poland",51.9724492,17.5019414,Great Poland,3,Q52840,pl:Jarocin,2670884,Miasto Jarocin,0,
64,Kobylin,קובילין,Kalisz,KLS,Pyzdrski.,KLS_3,139,,,,KLS_KOBYLIN,"Kobylin, Krotoszyn County, Greater Poland Voivodeship, Poland",51.7157581,17.2266796,Great Poland,3,Q990816,pl:Kobylin,2705294,Miasto Kobylin,0,
65,Nowe Miasto,נובה מיאסטו,Kalisz,KLS,Pyzdrski.,KLS_3,146,,,,KLS_NOWEMIASTO,"Nowe Miasto nad Wartą, Środa Wielkopolska County, Greater Poland Voivodeship, Poland",52.0899951,17.4110052,Great Poland,3,Q2003527,pl:Nowe Miasto nad Wartą,3009733848,Miasto Nowe Miasto,0,
66,Jaroczew,,Kalisz,KLS,Pyzdrski.,KLS_3,85,,,,KLS_JAROCZEW,"Jaraczewo, Jarocin County, Greater Poland Voivodeship, Poland",51.9688195,17.2971841,Great Poland,3,,,6061771,Miasto Jaroczew,0,
67,Pogorzel,,Kalisz,KLS,Pyzdrski.,KLS_3,32,,,,KLS_POGORZELA,"Pogorzela, Gostyń County, Greater Poland Voivodeship, Poland",51.8219084,17.2292971,Great Poland,3,,,2705478,Miasto Pogorzel,0,
68,Borek,בורק,Kalisz,KLS,Pyzdrski.,KLS_3,200,,,,KLS_BOREK,"Borek Wielkopolski, Gostyń County, Greater Poland Voivodeship, Poland",51.91673,17.24096,Great Poland,3,,,,Miasto Borek,0,
69,Kurnik,,Kalisz,KLS,Pyzdrski.,KLS_3,381,,,,KLS_KURNIK,"Kórnik, Poznań County, Greater Poland Voivodeship, Poland",52.2466273,17.0899202,Great Poland,3,,,2663487,Miasto Kurnik,0,
70,Zaniemiśle,זניימישל,Kalisz,KLS,Pyzdrski.,KLS_3,37,,,,KLS_ZANIEMYSL,"Zaniemyśl, Środa Wielkopolska County, Greater Poland Voivodeship, Poland",52.1567272,17.1602866,Great Poland,3,Q146933,pl:Zaniemyśl,3990113,Miasto Zaniemiśle,0,
71,Miłosław,מילוסלב,Kalisz,KLS,Pyzdrski.,KLS_3,136,,,,KLS_MILOSLAW,"Miłosław, Września County, Greater Poland Voivodeship, Poland",52.20307,17.48955,Great Poland,3,Q1025299,pl:Miłosław,2666257,Miasto Miłosław,0,
72,Krotoszyn,קרוטושין,Kalisz,KLS,Pyzdrski.,KLS_3,1524,,,,KLS_KROTOSZYN,"Krotoszyn, Greater Poland Voivodeship, Poland",51.6961912,17.4346413,Great Poland,3,Q984538,pl:Krotoszyn,2705296,Miasto Krotoszyn,0,
73,Żerkow,ז'רקוב,Kalisz,KLS,Pyzdrski.,KLS_3,76,,,,KLS_ZERKOW,"Żerków, Jarocin County, Greater Poland Voivodeship, Poland",52.0685167,17.5629153,Great Poland,3,Q393119,pl:Żerków,2670885,Miasto Żerkow,0,
75,Kcynia,קציניה,Kalisz,KLS,Kcyński.,KLS_4,361,,,,KLS_KCYNIA,"Kcynia, Nakło County, Kuyavian-Pomeranian Voivodeship, Poland",52.99166,17.48843,Great Poland,3,Q1003283,pl:Kcynia,2634361,Miasto Kcynia,0,
76,Chodzież,חודזיז,Kalisz,KLS,Kcyński.,KLS_4,644,,,,KLS_CHODZIEZ,"Chodzież, Greater Poland Voivodeship, Poland",52.995267,16.9198184,Great Poland,3,Q51434,pl:Chodzież,2858872,Miasto Chodzież,0,
77,Gołacza,גולנץ',Kalisz,KLS,Kcyński.,KLS_4,193,,,,KLS_GOLANCZ,"Gołańcz, Wągrowiec County, Greater Poland Voivodeship, Poland",52.9432129,17.2996897,Great Poland,3,Q52828,pl:Gołańcz,2716794,Miasto Gołacza,0,
78,Margonin,מרגונין,Kalisz,KLS,Kcyński.,KLS_4,316,,,,KLS_MARGONIN,"Margonin, Chodzież County, Greater Poland Voivodeship, Poland",52.9731367,17.0947488,Great Poland,3,Q990186,pl:Margonin,2718275,Miasto Margonin,0,
79,Łabiszyn,לבישין,Kalisz,KLS,Kcyński.,KLS_4,364,,,,KLS_LABISZYN,"Łabiszyn, Żnin County, Kuyavian-Pomeranian Voivodeship, Poland",52.36792201,18.17789848,Great Poland,3,,,,Miasto Łabiszyn,0,
80,Barcin,ברצ׳ין,Kalisz,KLS,Kcyński.,KLS_4,50,,,,KLS_BARCIN,"Barcin, Żnin County, Kuyavian-Pomeranian Voivodeship, Poland",52.8661061,17.9462615,Great Poland,3,Q1007355,pl:Barcin,2845822,Miasto Barcin,0,
82,Gniezno,גנייזנו,Kalisz,KLS,Gnieźnienski,KLS_5,251,,,,KLS_GNIEZNO,"Gniezno, Greater Poland Voivodeship, Poland",52.5349253,17.5826575,Great Poland,3,Q51432,,878834418,Miasto Gniezno,0,
83,Działyń,דז׳יאלין,Kalisz,KLS,Gnieźnienski,KLS_5,104,,,,KLS_DZIALYN,"Działyń, Gniezno County, Greater Poland Voivodeship, Poland",52.5938834,17.4981273,Great Poland,3,Q5319745,pl:Działyń (województwo wielkopolskie),692612111,Miasto Działyń,0,
84,Witkow,ויטקובו,Kalisz,KLS,Gnieźnienski,KLS_5,354,,,,KLS_WITKOW,"Witkowo, Gniezno County, Greater Poland Voivodeship, Poland",52.43843,17.77321,Great Poland,3,Q1122800,pl:Witkowo,2716714,Miasto Witkow,0,
85,Skoki,סקוקי,Kalisz,KLS,Gnieźnienski,KLS_5,372,,,,KLS_SKOKI,"Skoki, Wągrowiec County, Greater Poland Voivodeship, Poland",52.6723033,17.1606891,Great Poland,3,Q557306,pl:Skoki (miasto),2698550,Miasto Skoki,0,
86,Września,וורשנא,Kalisz,KLS,Gnieźnienski,KLS_5,436,,,,KLS_WRZESNIA,"Września, Greater Poland Voivodeship, Poland",52.32382,17.56654,Great Poland,3,Q52902,pl:Września,2676511,Miasto Września,0,
87,Czerniejow,צ'רנייוב,Kalisz,KLS,Gnieźnienski,KLS_5,20,,,,KLS_CZERNIEJOW,"Czerniejewo, Gniezno County, Greater Poland Voivodeship, Poland",52.4262274,17.4890829,Great Poland,3,Q1149495,pl:Czerniejewo,2698545,Miasto Czerniejow,0,
88,Żydów,,Kalisz,KLS,Gnieźnienski,KLS_5,33,,,,KLS_ZYDOW,"Żydowo, Gniezno County, Greater Poland Voivodeship, Poland",52.453899,17.590584,Great Poland,3,,,31604922,Miasto Żydów,0,
90,Mrocza,מרוצ'ה,Kalisz,KLS,Nakielski,KLS_6,105,,,,KLS_MROCZA,"Mrocza, Nakło County, Kuyavian-Pomeranian Voivodeship, Poland",53.242838,17.6040197,Great Poland,3,Q761508,pl:Mrocza,3093880,Miasto Mrocza,0,
91,Krajenka,קראז'נקה,Kalisz,KLS,Nakielski,KLS_6,254,,,,KLS_KRAJENKA,"Krajenka, Złotów County, Greater Poland Voivodeship, Poland",53.29667,16.99062,Great Poland,3,Q741667,pl:Krajenka,2860714,Miasto Krajenka,0,
92,Dębrzno,דברזנו,Kalisz,KLS,Nakielski,KLS_6,308,,,,KLS_DEBRZNO,"Debrzno, Człuchów County, Pomeranian Voivodeship, Poland",53.5380522,17.2364118,Great Poland,3,Q990837,pl:Debrzno,3090303,Miasto Dębrzno,0,
93,Granowo,,Kalisz,KLS,Nakielski,KLS_6,97,,,,KLS_GRANOWO,"Granowo, Grodzisk Wielkopolski County, Greater Poland Voivodeship, Poland",52.25,17.1,Great Poland,3,,,,Miasto Granowo,0,
94,Złotowo,זלוטוב,Kalisz,KLS,Nakielski,KLS_6,1027,,,,KLS_ZLOTOW,"Złotów, Greater Poland Voivodeship, Poland",53.36381,17.04046,Great Poland,3,Q249166,pl:Złotów,2860712,Miasto Złotowo,0,
95,Lendyczek,,Kalisz,KLS,Nakielski,KLS_6,52,,,,KLS_LEDYCZEK,"Lędyczek, Złotów County, Greater Poland Voivodeship, Poland",53.5374739,16.9647281,Great Poland,3,,,31587456,Miasto Lendyczek,0,
96,Łobzenica,לובזניצ'ה,Kalisz,KLS,Nakielski,KLS_6,572,,,,KLS_LOBZENICA,"Łobżenica, Piła County, Greater Poland Voivodeship, Poland",53.2622714,17.2557665,Great Poland,3,Q345386,pl:Łobżenica,2718414,Miasto Łobzenica,0,
97,Sempelborg,,Kalisz,KLS,Nakielski,KLS_6,553,,,,KLS_SEMPELBORG,"Sępólno Krajeńskie, Kuyavian-Pomeranian Voivodeship, Poland",53.4513,17.53162,Great Poland,3,,,3093884,Miasto Sempelborg,0,
98,Nakło,נקלו,Kalisz,KLS,Nakielski,KLS_6,56,,,,KLS_NAKLO,"Nakło nad Notecią, Kuyavian-Pomeranian Voivodeship, Poland",53.1417565,17.6018342,Great Poland,3,Q988576,pl:Nakło nad Notecią,2635001,Miasto Nakło,0,
100,Łask,לאסק,Sieradzkie,SRD,,SRD_1,1588,,,,SRD_LASK,"Łask, Łask County, Łódź Voivodeship, Poland",51.5906364,19.1327882,Great Poland,3,Q324897,pl:Łask,2919499,Synagoga Łaska z parafiami,0,
101,Warta,ורטה,Sieradzkie,SRD,,SRD_1,362,,,,SRD_WARTA,"Warta, Sieradz County, Łódź Voivodeship, Poland",51.7103227,18.6250691,Great Poland,3,Q1005472,pl:Warta (miasto),2911956,Synagoga Wartska z paraf.,0,
102,Dobra,דוברה,Sieradzkie,SRD,,SRD_1,380,,,,SRD_DOBRA,"Dobra, Turek County, Greater Poland Voivodeship, Poland",51.8804605,18.6371687,Great Poland,3,Q1827657,pl:Dobra (powiat sanocki),6968949,Synagoga Dobrska z paraf.,0,
103,Błaszki,בלאשקי,Sieradzkie,SRD,,SRD_1,310,,,,SRD_BLASZKI,"Błaszki, Sieradz County, Łódź Voivodeship, Poland",51.6515663,18.4344355,Great Poland,3,Q989423,pl:Błaszki,2911954,Synagoga Błaszkowska z paraf.,0,
104,Lutomiersk,לוטומיירסק,Sieradzkie,SRD,,SRD_1,445,,,,SRD_LUTOMIERSK,"Lutomiersk, Pabianice County, Łódź Voivodeship, Poland",51.7537563,19.2109304,Great Poland,3,Q1006764,pl:Lutomiersk,13623516,Synagoga Lutomirska z paraf.,0,
105,Piotrków,פיוטרקוב טריבונלסקי,Sieradzkie,SRD,,SRD_1,1107,,,,SRD_PIOTRKOW,"Piotrków Trybunalski, Piotrków County, Łódź Voivodeship, Poland",51.4051721,19.7030244,Great Poland,3,Q158004,pl:Piotrków Trybunalski,2414866,Synagoga Piotrkowska z paraf.,0,
106,Koniecpol,קונייצפול,Sieradzkie,SRD,,SRD_1,733,,,,SRD_KONIECPOL,"Koniecpol, Częstochowa County, Silesian Voivodeship, Poland",51.21666667,19.5,Little Poland,6,Q1003267,pl:Koniecpol,2831160,Synagoga Koniecpolska z paraf.,0,
107,Kaminsk,קאמיינסק,Sieradzkie,SRD,,SRD_1,25,,,,SRD_KAMINSKU,"Kamieńsk, Radomsko County, Łódź Voivodeship, Poland",51.2048619,19.4988658,Little Poland,6,Q991887,pl:Kamieńsk,2434304,Synagoga W mieście Kamińsku do Przedborza,0,
109,Działoszyn,דז'יאלושין,Sieradzkie,WLN,ziemi Wieluńskiey.,SRD_2,1956,,,,WLN_DZIALOSZYN,"Działoszyn, Pajęczno County, Łódź Voivodeship, Poland",51.1166563,18.8651227,Little Poland,6,Q1015152,pl:Działoszyn,2911373,Synagoga Działoszyńska z paraf.,0,
110,Kempno,קמפנו,Sieradzkie,WLN,ziemi Wieluńskiey.,SRD_2,879,,,,WLN_KEPNO,"Kępno, Kępno County, Greater Poland Voivodeship, Poland",51.2781356,17.9890591,Great Poland,3,Q640493,pl:Kępno,1982646,Synagoga Kempińska,0,
111,Bolesławiec,בולסלבייץ,Sieradzkie,WLN,ziemi Wieluńskiey.,SRD_2,141,45,Accedit starostwo Grabowskie ad mentem Dekretu wylikwidowane,,WLN_BOLESLAW,"Bolesławiec, Wieruszów County, Łódź Voivodeship, Poland",51.2216121,18.2029865,Great Poland,3,Q156828,pl:Bolesławiec,2708463,Synagoga Bolesławska z paraf.,0,
113,Kazimierz,קז'ימייז',Krakow,KRK,,KRK_1,3710,,,,KRK_KAZIMIERZ,"Kazimierz, Kraków, Lesser Poland Voivodeship, Poland",50.0485563,19.9447183,Little Poland,6,Q93706,pl:Kazimierz (Kraków),3228454,Miasto Kazimierz przy Krakowie z paraf.,0,
114,Olkusz,אולקוש,Krakow,KRK,,KRK_1,396,,,,KRK_OLKUSZ,"Olkusz, Lesser Poland Voivodeship, Poland",50.2813157,19.5656869,Little Poland,6,Q764943,pl:Olkusz,31900497,Miasta 2. Olkusz i Trzebina z paraf.,0,
115,Chrzanow,כשאנוב,Krakow,KRK,,KRK_1,327,,,,KRK_CHRZANOW,"Chrzanów, Lesser Poland Voivodeship, Poland",50.1354928,19.402071,Little Poland,6,Q93323,pl:Chrzanów,1981828,Miasto Chrzanow z paraf.,0,
116,Będzin,בנדין,Krakow,KRK,,KRK_1,515,,,,KRK_BEDZIN,"Będzin, Silesian Voivodeship, Poland",50.3255999,19.1254121,Little Poland,6,Q461513,pl:Będzin,2832469,Miasta Nr. 2. Będzin i Modrzejow z paraf.,0,
117,Działoszyce,דז'יאלושיצה,Krakow,KRK,,KRK_1,651,,,,KRK_DZIALOSZYCE,"Działoszyce, Świętokrzyskie Voivodeship, Poland",50.3651987,20.3520979,Little Poland,6,Q571185,pl:Działoszyce,2907558,Miasto Działoszyce z paraf.,0,
119,Żarnowiec,ז'רנובייץ,Krakow,KRK,Xięski,KRK_2,355,,,,KRK_ZARNOWIEC,"Żarnowiec, Zawiercie County, Silesian Voivodeship, Poland",50.4785469,19.8627098,Little Poland,6,Q2753688,,3009766977,Miasto Żarnowiec z paraf.,0,
120,Wodzisław,וודז'יסלאב,Krakow,KRK,Xięski,KRK_2,1638,,,,KRK_WODZISLAW,"Wodzisław, Jędrzejów County, Świętokrzyskie Voivodeship, Poland",50.5211274,20.1907986,Little Poland,6,Q2917229,pl:Wodzisław,6135043,"Miast Nr. 5. Wodzisław, Oksza, Siensko, Proszowice, Słomniki",0,
121,Wolbrom,וולברום,Krakow,KRK,Xięski,KRK_2,303,,,,KRK_WOLBROM,"Wolbrom, Lesser Poland Voivodeship, Poland",50.37939,19.7584,Little Poland,6,,,,Miasto Wolbrom,0,
123,Lelow,ללוב,Krakow,KRK,Lelowski.,KRK_3,475,7,Accessit Arendarz z Wygiełczowy,,KRK_LELOW,"Lelów, Częstochowa County, Silesian Voivodeship, Poland",50.6835923,19.6252779,Little Poland,6,Q2136259,pl:Lelów,3009744601,Miasta 2. Lelow i Kromołow,0,
124,Nakło,נאקל על הנצה,Krakow,KRK,Lelowski.,KRK_3,98,,,,KRK_NAKLO,"Nakło, Częstochowa County, Silesian Voivodeship, Poland",50.6552992,19.7255799,Little Poland,6,Q988576,pl:Nakło nad Notecią,2635001,Miasto Nakło,0,
125,Janow,יאנוב,Krakow,KRK,Lelowski.,KRK_3,623,,,,KRK_JANOW,"Częstochowa, Silesian Voivodeship, Poland",50.8118195,19.1203094,Little Poland,6,,,,Miasta 2. Janow y Częstochowa,0,
126,Pilca,פיליצה,Krakow,KRK,Lelowski.,KRK_3,606,,,,KRK_PILICA,"Pilica, Zawiercie County, Silesian Voivodeship, Poland",50.467465,19.6573856,Little Poland,6,Q555053,pl:Pilica (miasto),2838652,Miasta 2. Pilca y Ogrodzeniec,0,
127,Szczekociny,שצ'קוצ'יני,Krakow,KRK,Lelowski.,KRK_3,520,,,,KRK_SZCZEKOCINY,"Szczekociny, Silesian Voivodeship, Poland",50.62758,19.8255,Little Poland,6,Q305154,pl:Szczekociny,2838654,Miasto Szczekociny,0,
128,Żarki,ז'רקי,Krakow,KRK,Lelowski.,KRK_3,893,,,,KRK_ZARKI,"Żarki, Myszków County, Silesian Voivodeship, Poland",50.62508,19.36332,Little Poland,6,Q149411,,3009731271,"Miast 4. Żarki, Mrzygłód, Olszsztyn y Włodowice",0,
130,Zator,זאטור,Krakow,KRK,Xięstwo Zatorskie.,KRK_4,92,,,,KRK_ZATOR,"Zator, Oświęcim County, Lesser Poland Voivodeship, Poland",49.99621,19.43747,Little Poland,6,Q1281557,pl:Zator (miasto),2763176,Miasto Zator,0,
131,Oświecim,אושוויינצ'ים,Krakow,KRK,Xięstwo Oświecimskie.,KRK_4,765,,,,KRK_OSWIECIM,"Oświęcim, Lesser Poland Voivodeship, Poland",50.0348425,19.2102965,Little Poland,6,Q7342,pl:Oświęcim,1777546,Miasta 2. Oświecim y Biała,0,
132,Sącz,נובי סונץ',Krakow,KRK,Sandecki,KRK_4,1375,7,Accedit wieś Łosie,,KRK_SACZ,"Nowy Sącz, Lesser Poland Voivodeship, Poland",49.6174535,20.7153326,Little Poland,6,Q802,pl:Nowy Sącz,2668662,Kahał Sandecki z paraf.,0,
133,Wiśnicz,וישניצה,Krakow,KRK,Czczhowski y Szczerzecki.,KRK_4,2385,,,,KRK_WISNICZ,"Nowy Wiśnicz, Bochnia County, Lesser Poland Voivodeship, Poland",49.9158004,20.4612616,Little Poland,6,Q1011553,pl:Nowy Wiśnicz,2760233,Kahał Wiśnicki z paraf.,0,
134,Żmigród,נובי ז'מיגרוד,Krakow,KRK,Biecki,KRK_4,1926,,,,KRK_ZMIGROD,"Nowy Żmigród, Jasło County, Subcarpathian Voivodeship, Poland",49.6035205,21.5236701,Little Poland,6,Q4026813,pl:Nowy Żmigród,6926707,Kahał Żmigrodzki,0,
135,Dukla,דוקלה,Krakow,KRK,Biecki,KRK_4,806,,,,KRK_DUKLA,"Dukla, Subcarpathian Voivodeship, Poland",49.5555137,21.6832308,Little Poland,6,Q336386,pl:Dukla,2906799,Dukielski,0,
136,Bobowa,בובובה,Krakow,KRK,Biecki,KRK_4,218,,,,KRK_BOBOWA,"Bobowa, Gorlice County, Lesser Poland Voivodeship, Poland",49.7075887,20.9416501,Little Poland,6,Q2341034,pl:Bobowa,2889054,Bobowski,0,
138,Sandomierz,סנדומייז',Sandomirsz,SND,Sandomirski,SND_1,801,,,,SND_SANDOMIERZ,"Sandomierz, Świętokrzyskie Voivodeship, Poland",50.6822405,21.7501781,Little Poland,6,Q193177,pl:Sandomierz,2966766,Miasto Sandomierz z paraf.,0,
139,Staszów,סטשוב,Sandomirsz,SND,Sandomirski,SND_1,776,,,,SND_STASZOW,"Staszów, Świętokrzyskie Voivodeship, Poland",50.5629974,21.1659309,Little Poland,6,Q324892,pl:Staszów,2834665,Miasto Staszów z paraf.,0,
140,Opatow,אפטא,Sandomirsz,SND,Sandomirski,SND_1,2034,,,,SND_OPATOW,"Opatów, Świętokrzyskie Voivodeship, Poland",50.8018537,21.427194,Little Poland,6,Q275694,pl:Opatów,2966733,Miasto Opatow z paraf.,0,
141,Połaniec,פולנייץ,Sandomirsz,SND,Sandomirski,SND_1,648,,,,SND_POLANIEC,"Połaniec, Świętokrzyskie Voivodeship, Poland",50.43302,21.28065,Little Poland,6,Q988658,pl:Połaniec,2963633,Miasto Połaniec z paraf.,0,
142,Ostrowiec,אוסטרובייץ שוויינטוקז'יסקי,Sandomirsz,SND,Sandomirski,SND_1,904,,,,SND_OSTROWIEC,"Ostrowiec Świętokrzyski, Świętokrzyskie Voivodeship, Poland",50.9295234,21.3851915,Little Poland,6,Q730929,pl:Ostrowiec Świętokrzyski,2908854,Miasto Ostrowiec z paraf.,0,
143,Tarłow,טרלוב,Sandomirsz,SND,Sandomirski,SND_1,610,,,,SND_TARLOW,"Tarłów, Świętokrzyskie Voivodeship, Poland",51.0014013,21.7149036,Little Poland,6,Q2195315,pl:Tarłów,3009705950,Miasto Tarłow z paraf.,0,
144,Rozwadow,ראָזוועדאָוו,Sandomirsz,SND,Sandomirski,SND_1,368,,,,SND_ROZWADOW,"Rozwadów, Stalowa Wola, Subcarpathian Voivodeship, Poland",50.5895316,22.0503738,Little Poland,6,Q7375448,pl:Rozwadów (Stalowa Wola),646796575,Miasto Miasto Rozwadow z paraf.,0,
145,Baranow,ברנוב,Sandomirsz,SND,Sandomirski,SND_1,435,,,,SND_BARANOW,"Baranów Sandomierski, Subcarpathian Voivodeship, Poland",50.498985,21.5417402,Little Poland,6,Q807271,pl:Baranów Sandomierski,2970227,Miasto Baranow z paraf.,0,
146,Ulanow,אולנוב,Sandomirsz,SND,Sandomirski,SND_1,848,,,,SND_ULANOW,"Ulanów, Subcarpathian Voivodeship, Poland",50.4902323,22.2636037,Ordyancja Zamoyska,9,Q867437,pl:Ulanów,2092847,Miasto Ulanow z paraf.,0,
147,Dzikow,טרנובז'ג,Sandomirsz,SND,Sandomirski,SND_1,569,,,,SND_DZIKOW,"Dzików, Tarnobrzeg, Subcarpathian Voivodeship, Poland",50.599831,21.6838221,Little Poland,6,Q28516,,18861697,Miasto Dzikow z paraf.,0,
148,Ożarow,אוז'רוב,Sandomirsz,SND,Sandomirski,SND_1,1047,,,,SND_OZAROW,"Ożarów, Świętokrzyskie Voivodeship, Poland",50.88758,21.66654,Little Poland,6,Q1922317,pl:Ożarów,2966066,Miasto Ożarow z paraf.,0,
149,Klimontow,קלימונטוב,Sandomirsz,SND,Sandomirski,SND_1,858,,,,SND_KLIMONTOW,"Klimontów, Świętokrzyskie Voivodeship, Poland",50.6567655,21.4510357,Little Poland,6,Q6420933,pl:Klimontów (województwo małopolskie),6043331,Miasto Klimontow z paraf.,0,
150,Mielec,מיילץ,Sandomirsz,SND,Sandomirski,SND_1,914,,,,SND_MIELEC,"Mielec, Subcarpathian Voivodeship, Poland",50.287063,21.4238101,Little Poland,6,Q658861,pl:Mielec,3009732363,Miasto Mielec z paraf.,0,
151,Rudnik,רודניק על נהר סן,Sandomirsz,SND,Sandomirski,SND_1,196,,,,SND_RUDNIK,"Rudnik nad Sanem, Subcarpathian Voivodeship, Poland",50.44324,22.24879,Little Poland,6,Q1028027,pl:Rudnik nad Sanem,1826020,Miasto Rudnik z paraf.,0,
152,Iwaniska,איווניסקה,Sandomirsz,SND,Sandomirski,SND_1,398,,,,SND_IWANISKA,"Iwaniska, Świętokrzyskie Voivodeship, Poland",50.731486,21.2810828,Little Poland,6,Q2781592,pl:Iwaniska,6581186,Miasto Iwaniska z paraf.,0,
153,Bogurya,בוגוריה,Sandomirsz,SND,Sandomirski,SND_1,271,,,,SND_BOGORIA,"Bogoria, Świętokrzyskie Voivodeship, Poland",50.6514963,21.2602766,Little Poland,6,Q2141621,pl:Bogoria (miasto),6529504,Miasto Bogurya z paraf.,0,
155,Wiślica,ווישלצ'ה,Sandomirsz,SND,Wiślicki,SND_2,256,,,,SND_WISLICA,"Wiślica, Świętokrzyskie Voivodeship, Poland",50.3486474,20.674561,Little Poland,6,,,,Miasto Wiślica z paraf.,0,
156,Nowe Miasto Korczyn,נובי קורצ'ין,Sandomirsz,SND,Wiślicki,SND_2,1536,,,,SND_NOWEMIASTOKORCZYN,"Nowy Korczyn, Świętokrzyskie Voivodeship, Poland",50.3010266,20.8074789,Little Poland,6,Q1008390,pl:Nowy Korczyn,6488115,Miasto Nowe Miasto seu Korczyn z paraf.,0,
157,Pinczow,פינצ'וב,Sandomirsz,SND,Wiślicki,SND_2,2862,,,,SND_PINCZOW,"Pińczów, Świętokrzyskie Voivodeship, Poland",50.52034,20.5264571,Little Poland,6,Q275592,pl:Pińczów,2907559,Miasto Pinczow z paraf.,0,
158,Chmielnik,חמיילניק,Sandomirsz,SND,Wiślicki,SND_2,1467,,,,SND_CHMIELNIK,"Chmielnik, Świętokrzyskie Voivodeship, Poland",50.61415,20.75212,Little Poland,6,Q991973,pl:Chmielnik (województwo świętokrzyskie),2922544,Miasto Chmielnik z paraf.,0,
159,Stopnica,סטופניצה,Sandomirsz,SND,Wiślicki,SND_2,563,,,,SND_STOPNICA,"Stopnica, Świętokrzyskie Voivodeship, Poland",50.4406629,20.938154,Little Poland,6,Q986052,pl:Stopnica,6501187,Miasto Stopnica z paraf.,0,
160,Szydłow,שידלוב,Sandomirsz,SND,Wiślicki,SND_2,430,,,,SND_SZYDLOW,"Szydłów, Świętokrzyskie Voivodeship, Poland",50.591103,21.0073408,Little Poland,6,Q787968,pl:Szydłów,6517268,Miasto Szydłow z paraf.,0,
161,Zabno,ז'אבנו,Sandomirsz,SND,Wiślicki,SND_2,636,,,,SND_ZABNO,"Żabno, Lesser Poland Voivodeship, Poland",50.13334,20.88617,Little Poland,6,Q392988,pl:Żabno,2881621,Miasto Zabno z paraf.,0,
162,Oleśnica,אולשניצה,Sandomirsz,SND,Wiślicki,SND_2,91,,,,SND_OLESNICA,"Oleśnica, Staszów County, Świętokrzyskie Voivodeship, Poland",50.4531504,21.0642974,Little Poland,6,Q2532403,pl:Oleśnica (województwo świętokrzyskie),6519329,Miasto Oleśnica z paraf.,0,
163,Kurozwęki,קורוזואנקי,Sandomirsz,SND,Wiślicki,SND_2,75,,,,SND_KUROZWEKI,"Kurozwęki, Świętokrzyskie Voivodeship, Poland",50.5903872,21.1011884,Little Poland,6,Q1970432,pl:Kurozwęki,6526666,Miasto Kurozwęki z paraf.,0,
164,Rakow,רקוב,Sandomirsz,SND,Wiślicki,SND_2,437,,,,SND_RAKOW,"Raków, Kielce County, Świętokrzyskie Voivodeship, Poland",50.6735414,21.0463887,Little Poland,6,Q1013344,pl:Raków (powiat kielecki),6363160,Miasto Rakow z paraf.,0,
165,Pacanow,פצאנוב,Sandomirsz,SND,Wiślicki,SND_2,558,,,,SND_PACANOW,"Pacanów, Świętokrzyskie Voivodeship, Poland",50.400018,21.0416048,Little Poland,6,Q455701,pl:Pacanów,6492309,Miasto Pacanow z paraf.,0,
167,Tarnow,טרנוב,Sandomirsz,SND,Pilzniński,SND_3,2325,,,,SND_TARNOW,"Tarnów, Lesser Poland Voivodeship, Poland",50.0121011,20.9858407,Little Poland,6,Q106281,,13413167,Miasto Tarnow z paraf.,0,
168,Dąmbrowa,דומברובה טרנובסקה,Sandomirsz,SND,Pilzniński,SND_3,823,,,,SND_DABROWA,"Dąbrowa Tarnowska, Lesser Poland Voivodeship, Poland",50.17462,20.98638,Little Poland,6,Q324971,pl:Dąbrowa Tarnowska,2857276,Miasto Dąmbrowa z paraf.,0,
169,Kolbuszowa,קולבושובה,Sandomirsz,SND,Pilzniński,SND_3,677,,,,SND_KOLBUSZOWA,"Kolbuszowa, Subcarpathian Voivodeship, Poland",50.24417,21.77627,Little Poland,6,Q991797,pl:Kolbuszowa,3019602,Miasto Kolbuszowa z paraf.,0,
170,Głogow,גלוגוב מלופולסקי,Sandomirsz,SND,Pilzniński,SND_3,718,,,,SND_GLOGOW,"Głogów Małopolski, Subcarpathian Voivodeship, Poland",50.1512,21.96286,Rzeszow,13,Q1025309,pl:Głogów Małopolski,2432115,Miasto Głogow z paraf.,0,
171,Sędziszow,סנדז'ישוב מלופולסקי,Sandomirsz,SND,Pilzniński,SND_3,584,,,,SND_SEDZISZOW,"Sędziszów Małopolski, Subcarpathian Voivodeship, Poland",50.07097,21.70191,Rzeszow,13,Q867704,pl:Sędziszów Małopolski,9267024,Miasto Sędziszow z paraf.,0,
172,Stryzow,סצ'יז'וב - סטריז'וב,Sandomirsz,SND,Pilzniński,SND_3,979,,,,SND_STRZYZOW,"Strzyżów, Subcarpathian Voivodeship, Poland",49.87047,21.79386,Rzeszow,13,Q2047623,pl:Strzyżów (województwo lubelskie),2958525,Miasto Stryzow z paraf.,0,
173,Cudecz,צ'ודץ,Sandomirsz,SND,Pilzniński,SND_3,331,,,,SND_CZUDEC,"Czudec, Subcarpathian Voivodeship, Poland",49.9454719,21.8376406,Rzeszow,13,Q2124583,,3009704047,Miasto Cudecz z paraf.,0,
174,Frysztak,פרישטאק,Sandomirsz,SND,Pilzniński,SND_3,254,,,,SND_FRYSZTAK,"Frysztak, Subcarpathian Voivodeship, Poland",49.8409644,21.6104056,Rzeszow,13,Q498777,pl:Frysztak,3009743558,Miasto Frysztak z paraf.,0,
175,Robczyce,רופשיץ,Sandomirsz,SND,Pilzniński,SND_3,663,,,,SND_ROBCZYCE,"Ropczyce, Subcarpathian Voivodeship, Poland",50.05228,21.60887,Rzeszow,13,Q336375,pl:Ropczyce,3017213,Miasto Robczyce z paraf.,0,
176,Radomyśl,רדומישל ויילקי,Sandomirsz,SND,Pilzniński,SND_3,364,,,,SND_RADOMYSL,"Radomyśl Wielki, Subcarpathian Voivodeship, Poland",50.68900048047095,21.96361286846005,Lublin,7,Q867431,pl:Radomyśl Wielki,3020143,Miasto Radomyśl z paraf.,0,
177,Dębica,דמביצה,Sandomirsz,SND,Pilzniński,SND_3,911,,,,SND_DEMBICA,"Dębica, Subcarpathian Voivodeship, Poland",50.0516417,21.4116964,Debica,6,Q947404,,7487767,Miasto Dębica,0,
178,Wielopole,ויילופולה סקשינסקיה,Sandomirsz,SND,Pilzniński,SND_3,309,,,,SND_WIELPOLE,"Wielopole Skrzyńskie, Subcarpathian Voivodeship, Poland",49.9461042,21.6149951,Rzeszow,13,Q670095,pl:Wielopole Skrzyńskie,3009775570,Miasto Wielopole z paraf.,0,
179,Przecław,פצשלב,Sandomirsz,SND,Pilzniński,SND_3,129,,,,SND_PRZECLAW,"Przecław, Subcarpathian Voivodeship, Poland",50.1933744,21.4800673,Little Poland,6,Q2372031,pl:Przecław,3020146,Miasto Przecław z paraf.,0,
180,Żochow,,Sandomirsz,SND,Pilzniński,SND_3,94,,,,SND_ZOCHOW,"Żochów, Opatów County, Świętokrzyskie Voivodeship, Poland",50.7596348,21.3816143,Little Poland,6,,,3009687865,Miasto Żochow z paraf.,0,
182,Kozienice,קוז'יניצה,Sandomirsz,SND,Radomski,SND_4,1365,,,,SND_KOZIENICE,"Kozienice, Masovian Voivodeship, Poland",51.5855328,21.5511768,Lublin,7,Q990651,pl:Kozienice,2649921,Miasto Miasto Kozienice z paraf.,0,
183,Ulenice,,Sandomirsz,SND,Radomski,SND_4,3,,,,SND_ULENICE,"Uleńce, Grójec County, Masovian Voivodeship, Poland",51.46833333,20.90444444,Lublin,7,,,6630074,Miasto Ulenice,0,
184,Szydłowiec,שידלובייץ,Sandomirsz,SND,Radomski,SND_4,902,,,,SND_SZYDLOWIEC,"Szydłowiec, Masovian Voivodeship, Poland",51.2279908,20.8611466,Lublin,7,Q974977,pl:Szydłowiec,2963439,Miasto Szydłowiec z paraf.,0,
185,Przytyk,פשיטיק,Sandomirsz,SND,Radomski,SND_4,795,,,,SND_PRZYTYK,"Przytyk, Masovian Voivodeship, Poland",51.4639653,20.9133312,Lublin,7,Q600023,pl:Przytyk,3425850,Miasto Przytyk z paraf.,0,
186,Gniewoszow,גניבאשוב / גנייבושוב,Sandomirsz,SND,Radomski,SND_4,464,,,,SND_GNIEWOSZOW,"Gniewoszów, Kozienice County, Masovian Voivodeship, Poland",51.4742843,21.8118666,Lublin,7,,,,Miasto Gniewoszow z paraf.,0,
187,Kliwow,קלבוב,Sandomirsz,SND,Radomski,SND_4,34,,,,SND_KLWOW,"Klwów, Przysucha County, Masovian Voivodeship, Poland",51.5344639,20.6364509,Lublin,7,Q667620,,3009713793,Miasto Kliwow,0,
188,Janowiec,יאנוביאץ ./ ינובייץ,Sandomirsz,SND,Radomski,SND_4,341,,,,SND_JANOWIEC,"Janowiec, Puławy County, Lublin Voivodeship, Poland",51.3235142,21.890312,Lublin,7,Q2688480,pl:Janowiec (województwo lubelskie),3642106,Miasto Janowiec z paraf.,0,
189,Granica,,Sandomirsz,SND,Radomski,SND_4,325,,,,SND_GRANICA,"Granice, Chodel, Lublin Voivodeship, Poland",51.32281808,21.89614139,Lublin,7,,,,Miasto Granica z paraf.,0,
190,Lipsko,ליפסקו,Sandomirsz,SND,Radomski,SND_4,431,,,,SND_LIPSKO,"Lipsko, Masovian Voivodeship, Poland",51.159,21.64911,Lublin,7,Q2342620,pl:Lipsko,2693239,Miasto Lipsko z paraf.,0,
191,Ryczywoł,ריצ'יבול,Sandomirsz,SND,Radomski,SND_4,1116,,,,SND_RYCZYWOL,"Ryczywół, Kozienice County, Masovian Voivodeship, Poland",51.6910588,21.4210811,Lublin,7,Q984960,pl:Ryczywół (województwo wielkopolskie),19659251,Miasto Ryczywoł z paraf.,0,
192,Zwoleń,זבולן,Sandomirsz,SND,Radomski,SND_4,1168,,,,SND_ZWOLEN,"Zwoleń, Masovian Voivodeship, Poland",51.3553788,21.587725,Lublin,7,Q1897640,pl:Zwoleń,2639815,Miasto Zwoleń z paraf.,0,
193,Przysucha,פשיסחה,Sandomirsz,SND,Radomski,SND_4,528,,,,SND_PRZYSUCHA,"Przysucha, Masovian Voivodeship, Poland",51.3578773,20.6317958,Lublin,7,Q985528,pl:Przysucha,2920982,Miasto Przysucha z paraf.,0,
194,Radom,ראדום,Sandomirsz,SND,Radomski,SND_4,67,,,,SND_RADOM,"Radom, Masovian Voivodeship, Poland",51.4027236,21.1471333,Lublin,7,Q104740,pl:Radom,2420076,Miasto Radom z paraf.,0,
195,Sienno,סיינו,Sandomirsz,SND,Radomski,SND_4,182,,,,SND_SIENNO,"Sienno, Lipsko County, Masovian Voivodeship, Poland",51.0877207,21.4766292,Little Poland,6,Q954519,pl:Sienno (obwód witebski),3009748703,Miasto Sienno,0,
196,"Bałtawska Ruda, Sienno",סיינו,Sandomirsz,SND,Radomski,SND_4,6,,,,SND_BALTAWSKARUDA,"Sienno, gmina Sienno, powiat lipski, województwo mazowieckie, 27-350, Polska",51.08498,21.4734506,Little Poland,6,Q954519,,3009748703,Z Bałtawskiey Rudy do Sienna,0,
198,Żelechow,ז'לחוב,Sandomirsz,SND,Stęzycka,SND_5,1464,,,,SND_ZELECHOW,"Żelechów, Masovian Voivodeship, Poland",51.81054,21.89725,Lublin,7,Q393091,pl:Żelechów,2695085,Miasto Żelechow z paraf.,0,
199,Bobrowniki,בוברובניקי,Sandomirsz,SND,Stęzycka,SND_5,301,,,,SND_BOBROWNIKI,"Bobrowniki, Ryki County, Lublin Voivodeship, Poland",51.5485347,21.9334188,Lublin,7,Q4935969,pl:Bobrowniki (województwo lubelskie),3009692296,Miasto Bobrowniki z paraf.,0,
200,Łysobyki,ליסוביקי,Sandomirsz,SND,Stęzycka,SND_5,120,,,,SND_LYSOBOKI,"Jeziorzany, Lubartów County, Lublin Voivodeship, Poland",51.6018445,22.2767731,Lublin,7,,,,Miasto Łysobyki z paraf.,0,
202,Opoczno,אופוצ'נו,Sandomirsz,SND,Opoczyński.,SND_6,1349,,,,SND_OPOCZNO,"Opoczno, Łódź Voivodeship, Poland",51.3755633,20.2781935,Little Poland,6,Q994271,pl:Opoczno,2920981,Miasto Miasto Opoczno z paraf.,0,
203,Drzewica,דז'וויצה,Sandomirsz,SND,Opoczyński.,SND_6,51,,,,SND_DRZEWICA,"Drzewica, Opoczno County, Łódź Voivodeship, Poland",51.4506315,20.477146,Little Poland,6,Q1005409,pl:Drzewica (miasto),2920980,Miasto Drzewica,0,
204,Chęciny,חנטשין,Sandomirsz,SND,Opoczyński.,SND_6,912,,,,SND_CHECINY,"Chęciny, Świętokrzyskie Voivodeship, Poland",50.8050467,20.4762284,Little Poland,6,Q991924,pl:Chęciny,2908871,Miasto Chęciny z paraf.,0,
205,Przedborz,פשדבוז',Sandomirsz,SND,Opoczyński.,SND_6,665,,,,SND_PRZEDBORZ,"Przedbórz, Radomsko County, Łódź Voivodeship, Poland",51.0880091,19.8736304,Little Poland,6,Q737984,pl:Przedbórz,2434306,Miasto Przedborz z paraf.,0,
206,Sobkow,סובקוב,Sandomirsz,SND,Opoczyński.,SND_6,141,,,,SND_SOBKOW,"Sobków, Jędrzejów County, Świętokrzyskie Voivodeship, Poland",50.7001116,20.4513466,Little Poland,6,Q16601884,pl:Sobków-Nida,3009748916,Miasto Sobkow z paraf.,0,
207,Włoszczowa,ולושצ'ובה,Sandomirsz,SND,Opoczyński.,SND_6,282,,,,SND_WLOSZCZOWA,"Włoszczowa, Świętokrzyskie Voivodeship, Poland",50.85237,19.96772,Little Poland,6,Q611784,pl:Włoszczowa,2839153,Miasto Włoszczowa z paraf.,0,
208,Secemin,סאצאמין / סצמין,Sandomirsz,SND,Opoczyński.,SND_6,211,,,,SND_SECEMIN,"Secemin, Świętokrzyskie Voivodeship, Poland",50.7688059,19.8375058,Little Poland,6,Q2500158,,3009691631,Miasto Secemin z paraf.,0,
210,Brześć Kujawski,בז'שץ' קויאבסקי,Brześć Kujawski,BRZK,,BRZK_1,164,,,,BRZK_BRZESCKUJAWSKI,"Brześć Kujawski, Kuyavian-Pomeranian Voivodeship, Poland",52.60628,18.90129,Great Poland,3,Q985649,pl:Brześć Kujawski,3093873,Kachału Brzeskiego Kujawskiego,0,
211,Przedecz,פשדץ',Brześć Kujawski,BRZK,,BRZK_1,210,,,,BRZK_PRZEDECZ,"Przedecz, Greater Poland Voivodeship, Poland",52.3342682,18.8991063,Great Poland,3,Q986966,pl:Przedecz,2705479,Synagogi Przedeckiey,0,
212,Kowal,קובאל,Brześć Kujawski,BRZK,,BRZK_1,260,,,,BRZK_KOWAL,"Kowal, Kuyavian-Pomeranian Voivodeship, Poland",52.5480852,19.1938094,Great Poland,3,,,,Synagogi Kowalskiey,0,
213,Lubraniec,לובראנייץ,Brześć Kujawski,BRZK,,BRZK_1,249,,,,BRZK_LUBRANIEC,"Lubraniec, Kuyavian-Pomeranian Voivodeship, Poland",52.5413225,18.8315208,Great Poland,3,Q1007479,pl:Lubraniec,3093879,Synagogi Lubranieckiey,0,
214,Izbica,איזביצה קויאווסקה,Brześć Kujawski,BRZK,,BRZK_1,215,,,,BRZK_IZBICA,"Izbica Kujawska, Kuyavian-Pomeranian Voivodeship, Poland",52.4206613,18.7626608,Great Poland,3,Q1002533,pl:Izbica Kujawska,3093875,Synagogi Izbickiey,0,
215,Piotrków,פיוטרקוב קויאבסקי,Brześć Kujawski,BRZK,,BRZK_1,169,,,,BRZK_PIOTRKOW,"Piotrków Kujawski, Kuyavian-Pomeranian Voivodeship, Poland",52.55106,18.49897,Great Poland,3,Q999638,pl:Piotrków Kujawski,3093883,Synagogi Piotrkowskiey,0,
217,Inowrocław,אינוברוצלב,Inowrocław,INW,,INW_1,980,,,,INW_INOWROCLAW,"Inowrocław, Kuyavian-Pomeranian Voivodeship, Poland",52.7993317,18.2562032,Great Poland,3,Q378821,pl:Inowrocław,2616392,W mieście Inowrocławiu i wsiach,0,
218,Forduń,בידגושץ',Inowrocław,INW,,INW_1,385,,,,INW_FORDON,"Fordon, Bydgoszcz, Kuyavian-Pomeranian Voivodeship, Poland",53.1541695,18.1610604,Great Poland,3,Q1437058,pl:Fordon (Bydgoszcz),3009672930,W mieście Forduniu,0,
219,Zołędowo,,Inowrocław,INW,,INW_1,13,,,,INW_ZOLEDOWO,"Żołędowo, gmina Osielsko, Kuyavian-Pomeranian Voivodeship, Poland",53.2196871,18.0589646,Great Poland,3,,pl:Żołędowo (województwo kujawsko-pomorskie),31589685,W mieście Zołędowie,0,
220,Gozdynin,גוסטינין,Inowrocław,INW,,INW_1,44,,,,INW_GOZDYNIUIE,"Gozdanin, Mogilno County, Kuyavian-Pomeranian Voivodeship, Poland",52.9533,17.9147,Great Poland,3,,,,We wsi Gozdyninie J. MP$^{a}$. Zbyszewskiego,0,
222,Ostromęcko,,Chełmno,CHLMN,,CHLM_1,39,,,,CHLMN_OSTROMECKO,"Ostromecko, kujawsko-pomorskie, Poland",53.1460959,18.2092851,Great Poland,3,,pl:Ostromecko,31584881,W mieście Ostromęcku gdzie iest Synagoga,0,
223,Toruń,טורון,Chełmno,CHLMN,,CHLM_1,43,,,,CHLMN_TORUN,"Toruń, kujawsko-pomorskie, Poland",53.0137902,18.5984437,Great Poland,3,Q47554,,3009679040,W parafii Torunskiey,0,
224,Pokrzywno,,Chełmno,CHLMN,,CHLM_1,43,,,,CHLMN_POKRZYWNO,"Pokrzywno, Grudziądz county, kujawsko-pomorskie, Poland",53.4386933,18.84811,Great Poland,3,,,1867070380,W parafii Pokrzywińskiey,0,
225,Płowęz,,Chełmno,CHLMN,,CHLM_1,80,,,,CHLMN_PLOWEZ,"Płowęż, Brodnica county, kujawsko-pomorskie, Poland",53.436001,19.2194015,Great Poland,3,,pl:Płowęż (gromada),31584203,W parafii Płowęzkowskicy,0,
226,Filow,,Chełmno,CHLMN,,CHLM_1,172,,,,CHLMN_FILOW,"Fiałki, Brodnica county, kujawsko-pomorskie, Poland",53.2086333,19.6657295,Great Poland,3,,,6891900,W parafii Filowskiey,0,
227,Bratyan,,Chełmno,CHLMN,,CHLM_1,52,,,,CHLMN_BRATJAN,"Bratian, Nowe Miasto county, warmińsko-mazurskie, Poland",53.4566063,19.6039153,Great Poland,3,,,3009665652,W parafii Bratyańskiey,0,
228,Wlewsk,,Chełmno,CHLMN,,CHLM_1,34,,,,CHLMN_WLEWSK,"Wlewsk, Działdowo county, warmińsko-mazurskie, Poland",53.2705804,19.7708226,Great Poland,3,,pl:Wlewsk (osada),6891665,W parafii Wlewskiey pod Lidzbarkiem,0,
229,Szemruczek,,Chełmno,CHLMN,,CHLM_1,93,,,,CHLMN_SZEMBRUK,"Szembruk, Grudziądz county, kujawsko-pomorskie, Poland",53.5663128,19.0199395,Great Poland,3,,,1518703605,W parafii Szemruckiey w Ekonom. Rogozi.,0,
230,Cybórz,,Chełmno,CHLMN,,CHLM_1,21,,,,CHLMN_CIBORZ,"Cibórz, Lidzbark, Działdowo county, warmińsko-mazurskie, Poland",53.2555912,19.8704409,Great Poland,3,,pl:Cibórz (wieś w województwie warmińsko-mazurskim),6891681,W parafii Cyborskiey y Lidzbarskiey,0,
232,Brodzent,,Malborsk,MLB,,MLB_0,86,,,,MLB_BRODZENT,"Brodzięcin, Pomeranian Voivodeship, Sztum County, Poland",53.8977272,19.2164378,Great Poland,3,,,3009668311,We wsi Brodzent Starostwa Kiszporskiego,0,
233,Kolincz,,Pomorenia,PMR,,PMR_1,300,,,,PMR_KOLNICZ,"Kolincz, Owidz, Barchnowy, Pomeranian Voivodeship, Poland",53.9419901,18.5838717,Great Poland,3,,pl:Barchnowy,13686900,"Kolincz, Owidz y Barchnowy w powiecie Tczewskim",0,
234,Mosty,מוסטי,Pomorenia,PMR,,PMR_1,97,,,,PMR_MOSTY,"Mosty, Klonówka, Pomeranian Voivodeship, Poland",53.9741452,18.6400032,Great Poland,3,,,,Mosty do Klonowki w tymże powiecie,0,
235,Woytal,,Pomorenia,PMR,,PMR_1,35,,,,PMR_WOJTAL,"Wojtal, Odry, Pomeranian Voivodeship, Poland",53.890953,18.0192894,Great Poland,3,,,7623484,Woytal seu Odry w tymże powiecie,0,
236,Człuchow,צ׳לוחוב,Pomorenia,PMR,,PMR_1,419,,,,PMR_CZLUCHOWK,"Człuchów, Lędyczek, Poland",53.6671796,17.359013,Great Poland,3,Q640469,pl:Człuchów,3174470,Przedmieście Człuchowskie y wieś Lendyk,0,
237,Zarzece,זאז'צ'ה,Pomorenia,PMR,,PMR_1,37,,,,PMR_ZARZECZE,"Zarzecze, Człuchów County, Pomeranian Voivodeship, Poland",53.7680573,17.1749252,Great Poland,3,,,,Zarzece wieś w powiecie Człuchowskim,0,
238,Malechin,,Pomorenia,PMR,,PMR_1,11,,,,PMR_MALECHIN,"Malachin, Pomeranian Voivodeship, Poland",53.8138882,17.9563206,Great Poland,3,,pl:Malechin (gromada),3009662337,Malechin w powiecie Tucholskim,0,
239,Hoppembrug,,Pomorenia,PMR,,PMR_1,504,,,,PMR_HOPPENBRUG,"Chmielniki, Gdańsk County, Pomeranian Voivodeship, Poland",54.183493,18.5707092,Great Poland,3,,,31530271,Hoppembrug przy Gdańsku,0,
240,Chwarzcienko,,Pomorenia,PMR,,PMR_1,44,,,,PMR_CHWARZIENKO,"Chwarzenko, Pomeranian Voivodeship, Poland",54.0007078,18.1285909,Great Poland,3,,pl:Chwarzenko,3009667241,Chwarzcienko w pow. Tczewskim,0,
241,Grabowo,,Pomorenia,PMR,,PMR_1,95,,,,PMR_GRABOWO,"Grabowo, Bobolice, West Pomeranian Voivodeship, Poland",53.41011847574533,16.14142927046714,Great Poland,3,,,,Grabowo y ieden gospodarz w Stwie Białem,0,
242,Kościerzyna,קושצ'ינה,Pomorenia,PMR,,PMR_1,43,,,,PMR_KOSCIERZYNA,"Kościerzyna, Pomeranian Voivodeship, Poland",54.1222457,17.9812605,Great Poland,3,Q935784,pl:Kościerzyna,2629526,Podzamcze Kościerzyńskie,0,
243,Hamersztyn,המרשטיין,Pomorenia,PMR,,PMR_1,80,,,,PMR_HAMERSZTYN,"Czarne, Człuchów County, Pomeranian Voivodeship, Poland",53.6838177,16.9393484,Great Poland,3,,,,Podzamcze Hamersztyńskie,0,
244,Tuchola,טוכולה,Pomorenia,PMR,,PMR_1,64,,,,PMR_TUCHOLA,"Tuchola, Lińsk, Kuyavian-Pomeranian Voivodeship, Poland",53.6876038,18.1394545,Great Poland,3,Q325910,pl:Tuchola,3093885,Podzamcze Tucholskie y wieś Linsk,0,
245,Weinberg,,Pomorenia,PMR,,PMR_1,364,,,,PMR_WEINBERG,"Winnica, Gdańsk, Pomeranian Voivodeship, Poland",54.3592296,18.7205002,Great Poland,3,,,2642946,Weinberg przy Gdańsku,0,
246,Kosnica,,Pomorenia,PMR,,PMR_1,37,,,,PMR_KOSNICA,"Kożyczkowo, Kartuzy County, Pomeranian Voivodeship, Poland",54.3525651,18.0858741,Great Poland,3,,,2690284074,Kosnica wieś w powiecie Mirachow,0,
247,Langforty,,Pomorenia,PMR,,PMR_1,230,,,,PMR_LANGFORTY,"Wrzeszcz, Gdańsk, Pomeranian Voivodeship, Poland",54.3754013,18.6091245,Great Poland,3,Q1792,,2642964,"Langforty, Heiligenbrun, w powiecie Gdańskim",0,
248,Belnow,,Pomorenia,PMR,,PMR_1,51,,,,PMR_BELNOW,"Belno, Świecie County, Kuyavian-Pomeranian Voivodeship, Poland",53.4667332,18.4475239,Great Poland,3,,pl:Belno (województwo kujawsko-pomorskie),3009665731,Belnow w powiecie Swieckim,0,
249,Bukowiec,,Pomorenia,PMR,,PMR_1,140,,,,PMR_BUKOWIEC,"Bukowiec, Świecie County, Kuyavian-Pomeranian Voivodeship, Poland",53.4322372,18.243079,Great Poland,3,,,3009661924,Bukowiec w powiecie tymże,0,
250,Bolszewo,,Pomorenia,PMR,,PMR_1,85,,,,PMR_BOLSZEWO,"Bolszewo, Wejherowo County, Pomeranian Voivodeship, Poland",54.6166099,18.1763711,Great Poland,3,,pl:Bolszewo,3009664170,Bolszewo w powiecie Puckim,0,
251,Grupa,,Pomorenia,PMR,,PMR_1,23,,,,PMR_GRUPA,"Grupa, Świecie County, Kuyavian-Pomeranian Voivodeship, Poland",53.5056768,18.6252125,Great Poland,3,,pl:Grupa (osada),31590117,Grupa w powiecie Świeckim,0,
252,Bochlin,,Pomorenia,PMR,,PMR_1,43,,,,PMR_BOHLIN,"Bochlin, Nowe, Kuyavian-Pomeranian Voivodeship, Poland",53.6779399,18.7235747,Great Poland,3,,,692621313,Bochlin w powiecie Nowskim,0,
253,Osieczno,,Pomorenia,PMR,,PMR_1,5,,,,PMR_OSIEECZNIE,"Wielki Komorsk, Świecie County, Kuyavian-Pomeranian Voivodeship, Poland",53.586683,18.6711545,Great Poland,3,,pl:Wielki Komórsk (gromada),3009667359,W Osiecznie vel w Wielkim Komorze,0,
254,Krokow,,Pomorenia,PMR,,PMR_1,24,,,,PMR_KROKOW,"Krokowa, Puck County, Pomeranian Voivodeship, Poland",54.7790082,18.1636337,Great Poland,3,,,31531719,Wieś Krokow,0,
256,Dobrzyń,דובז'ין על נהר ויסלה,Inowrocław,DBR,Ziemia Dobrzyńska.,INW_2,757,,,,DBR_INTHEDOBRZYN,"Dobrzyń nad Wisłą, Kuyavian-Pomeranian Voivodeship, Poland",52.6375464,19.3182434,Great Poland,3,Q995806,pl:Dobrzyń nad Wisłą,2643779,W mieście Dobrzyniu Synagogi,0,
257,Lipno,ליפנו,Inowrocław,DBR,Ziemia Dobrzyńska.,INW_2,58,,,,DBR_LIPNO,"Lipno, Kuyavian-Pomeranian Voivodeship, Poland",52.844147,19.1784128,Great Poland,3,Q324922,pl:Lipno,2643776,W mieście Lipnie communittis,0,
258,Kikol,קיקול,Inowrocław,DBR,Ziemia Dobrzyńska.,INW_2,102,,,,DBR_KIKOL,"Kikół, Lipno County, Kuyavian-Pomeranian Voivodeship, Poland",52.9119516,19.1199145,Great Poland,3,Q984964,pl:Kikół,11022344,W mieście Kikolu communittis,0,
259,Radzikowo,,Inowrocław,DBR,Ziemia Dobrzyńska.,INW_2,165,,,,DBR_RADZIKI,"Radziki Duże, Golub-Dobrzyń County, Kuyavian-Pomeranian Voivodeship, Poland",53.1644049,19.2752376,Great Poland,3,,,3009675838,W mieście Radzikowskich Żydów,0,
261,Lwów,לבוב (למברג),Rus,RUS,Ziemia Lwowska.,RUS_1,6378,,,,RUS_LWOW,"Lviv, Lviv Oblast, Ukraine",49.839683,24.029717,Rus,14,Q4132542,uk:Галицький район (Львів),2123677,Miasto Lwów z parafią,0,
262,Janow,,Rus,RUS,Ziemia Lwowska.,RUS_1,244,,,,RUS_JANOWL,"Ivano-Frankove, Lviv Oblast, Ukraine",49.9202398,23.7240854,Rus,14,,,,Miasto Janow z p.,0,
263,Jaworow,יבוריב,Rus,RUS,Ziemia Lwowska.,RUS_1,1055,,,,RUS_JAWOROW,"Yavoriv, Lviv Oblast, Ukraine",49.9380885,23.3885219,Rus,14,Q997392,uk:Яворів,7992875,Miasto Jaworow z p.,0,
264,Złoczow,זלוצ'וב,Rus,RUS,Ziemia Lwowska.,RUS_1,1656,,,,RUS_ZLOCZOW,"Zolochiv, Lviv Oblast, Ukraine",49.80941,24.901371,Rus,14,Q2010577,uk:Золочів (смт),3546323,Miasto Złoczow z p.,0,
265,Zborow,זבורוב,Rus,RUS,Ziemia Lwowska.,RUS_1,800,,,,RUS_ZBOROW,"Zboriv, Ternopil Oblast, Ukraine",49.6651847,25.1385436,Rus,14,Q148928,uk:Зборів,3167000,Miasto Zborow z p.,0,
266,Gliniany,הליניאני,Rus,RUS,Ziemia Lwowska.,RUS_1,811,,,,RUS_GLINIANY,"Hlyniany, Lviv Oblast, Ukraine",49.8215682,24.5159494,Rus,14,Q997502,uk:Глиняни,16070448,Miasto Gliniany z p.,0,
267,Jaryczow,יריצ'וב נובי,Rus,RUS,Ziemia Lwowska.,RUS_1,764,,,,RUS_JARYCZOW,"Novyi Yarychiv, Lviv Oblast, Ukraine",49.9017811,24.3032205,Rus,14,,,,Miasto Jaryczow z p.,0,
268,Toporow,טופורוב,Rus,RUS,Ziemia Lwowska.,RUS_1,188,,,,RUS_TOPOROW,"Toporiv, Lviv Oblast, Ukraine",50.11666667,24.71666667,Chelm Belz,2,,,,Miasto Toporow z p.,0,
269,Sokołowka,סוקולובקה,Rus,RUS,Ziemia Lwowska.,RUS_1,159,,,,RUS_SOKOLOWKA,"Sokolivka, Busk Raion, Lviv Oblast, Ukraine",50.0463387,24.8480521,,14,Q4427312,uk:Соколівка (Золочівський район),337536589,Miasto Sokołowka z p.,0,
270,Brody,ברודי,Rus,RUS,Ziemia Lwowska.,RUS_1,6877,,,,RUS_BRODY,"Brody, Lviv Oblast, Ukraine",50.0788069,25.1478943,Rus,14,Q465104,uk:Броди,7283582,Miasto Brody z p.,0,
271,Olesko,אולסקו,Rus,RUS,Ziemia Lwowska.,RUS_1,771,,,,RUS_OLESKO,"Olesko, Lviv Oblast, Ukraine",49.9631967,24.8950221,Rus,14,Q2019437,uk:Олесько,4274889,Miasto Olesko z p.,0,
272,Sasow,סאסוב,Rus,RUS,Ziemia Lwowska.,RUS_1,230,,,,RUS_SASOW,"Sasiv, Lviv Oblast, Ukraine",49.8716574,24.9491175,Rus,14,,,,Miasto Sasow z p.,0,
273,Gołogury,גולוגורי,Rus,RUS,Ziemia Lwowska.,RUS_1,619,,,,RUS_GOLOGORY,"Holohory, Lviv Oblast, Ukraine",49.7547613,24.7213879,Rus,14,Q4142058,uk:Гологори (село),337546576,Miasto Gołogury z p.,0,
274,Białykamień,ביאלי קמיין,Rus,RUS,Ziemia Lwowska.,RUS_1,345,,,,RUS_BIALYKAMIEN,"Bilyi Kamin, Lviv Oblast, Ukraine",49.8962281,24.8506377,Rus,14,,,,Miasto Białykamień z p.,0,
275,Brzeżany,בז'ז'ני,Rus,RUS,Ziemia Lwowska.,RUS_1,1270,,,,RUS_BRZEZANY,"Berezhany, Ternopil Oblast, Ukraine",49.4438882,24.9361397,Rus,14,Q793424,uk:Бережани,3166665,Miasto Brzeżany z p.,0,
276,Przemyślany,פרמישלן,Rus,RUS,Ziemia Lwowska.,RUS_1,789,,,,RUS_PRZEMYSLANY,"Peremyshliany, Lviv Oblast, Ukraine",49.6692136,24.5593173,Rus,14,Q997462,uk:Перемишляни,7993004,Miasto Przemyślany z p.,0,
277,Narajow,נרייב,Rus,RUS,Ziemia Lwowska.,RUS_1,286,,,,RUS_NARAJOW,"Naraiv, Ternopil Oblast, Ukraine",49.5334995,24.775306,Rus,14,Q4313046,uk:Нараїв (Тернопільський район),18976470,Miasto Narajow z p.,0,
278,Kozowa,קוזובה,Rus,RUS,Ziemia Lwowska.,RUS_1,338,,,,RUS_KOZOWA,"Kozova, Ternopil Oblast, Ukraine",49.4311113,25.1456231,Rus,14,Q1475951,uk:Козова,3167054,Miasto Kozowa z p.,0,
279,Kniechynicze,קנייהניטש,Rus,RUS,Ziemia Lwowska.,RUS_1,250,,,,RUS_KNIHYNICZE,"Kniahynychi, Ivano-Frankivsk Oblast, Ukraine",49.3803079,24.4607076,Rus,14,Q4224811,uk:Княгиничі (Івано-Франківський район),940863622,Miasto Kniechynicze z p.,0,
280,Swierz,שוויז'ה,Rus,RUS,Ziemia Lwowska.,RUS_1,933,,,,RUS_SWIRZ,"Svirzh, Lviv Oblast, Ukraine",51.21694489,23.7329463,Chelm Belz,2,Q4410802,uk:Свірж (Львівський район),337551026,Miasto Swierz z p.,0,
281,Bubrka,בוברקה,Rus,RUS,Ziemia Lwowska.,RUS_1,840,,,,RUS_BOBRKA,"Bibrka, Lviv Oblast, Ukraine",49.6376889,24.2948622,Rus,14,Q156808,uk:Бібрка,3725875,Miasto Bubrka z p.,0,
282,Nawarya,נאווריה,Rus,RUS,Ziemia Lwowska.,RUS_1,140,,,,RUS_NAWARJA,"Navariia, Lviv Oblast, Ukraine",49.7479799,23.9240561,Rus,14,Q4311321,uk:Наварія (село),4238134,Miasto Nawarya z p.,0,
283,Grodek,הורודוק,Rus,RUS,Ziemia Lwowska.,RUS_1,995,,,,RUS_GRODEK,"Horodok, Lviv Oblast, Ukraine",49.7821352,23.6611306,Rus,14,Q930449,uk:Городок (Львівська область),8014864,Miasto Grodek z p.,0,
284,Szczyrzec,שצ'ז'ץ,Rus,RUS,Ziemia Lwowska.,RUS_1,545,,,,RUS_SZCZERZEC,"Shchyrets, Lviv Oblast, Ukraine",49.6473038,23.8566664,Rus,14,Q1020441,uk:Щирець,13616415,Miasto Szczyrzec z p.,0,
285,Komarno,קומארנו,Rus,RUS,Ziemia Lwowska.,RUS_1,1530,,,,RUS_KOMARNO,"Komarno, Lviv Oblast, Ukraine",49.6258399,23.69581,Rus,14,Q1004265,uk:Комарно,7992886,Miasto Komarno z p.,0,
286,Żółkiew,ז'ובקבה,Rus,RUS,Ziemia Lwowska.,RUS_1,2002,,,,RUS_ZOLKIEW,"Zhovkva, Lviv Oblast, Ukraine",50.0588756,23.9736471,Rus,14,Q864836,uk:Жовква,7992879,Miasto Żółkiew z p.,0,
287,Kulikow,קוליקיב,Rus,RUS,Ziemia Lwowska.,RUS_1,409,,,,RUS_KULIKOW,"Kulykiv, Lviv Oblast, Ukraine",49.980217,24.0778329,Rus,14,Q1020037,uk:Куликів (смт),3904898,Miasto Kulikow z p.,0,
288,Strumiłowa Kamionka,קאמיאנקה בוזקה,Rus,RUS,Ziemia Lwowska.,RUS_1,617,,,,RUS_STRUMILOWAKAMIONKA,"Kamianka-Buzka, Lviv Oblast, Ukraine",50.0994726,24.3454482,Rus,14,Q1020330,uk:Кам'янка-Бузька,4245558,Miasto Strumiłowa Kamionka z p.,0,
289,Podkamień,פידקאמין,Rus,RUS,Ziemia Lwowska.,RUS_1,985,,,,RUS_PODKAMIEN,"Pidkamin, Lviv Oblast, Ukraine",49.9424223,25.3225884,Rus,14,Q2509983,uk:Підкамінь,4172890,Miasto Podkamień z p.,0,
290,Wybranowka,ויבראנובקה,Rus,RUS,Ziemia Lwowska.,RUS_1,250,,,,RUS_WYBRANOWKA,"Vybranivka, Lviv Oblast, Ukraine",49.5564421,24.2131723,Rus,14,Q4128709,uk:Вибранівка,337554761,Miasto Wybranowka z p.,0,
291,Strzeliska,סצ'ליסקה נובה,Rus,RUS,Ziemia Lwowska.,RUS_1,553,,,,RUS_STRZELISKA,"Novi Strilyshcha, Lviv Oblast, Ukraine",49.5168567,24.4058088,Rus,14,,,,Miasto Strzeliska z p.,0,
292,Stanisławczyk,סטאניסלאבצ'יק / סטאניסלאוו קטן,Rus,RUS,Ziemia Lwowska.,RUS_1,126,,,,RUS_STANISLAWCZYK,"Stanislavchyk, Brody Urban Hromada, Zolochiv Raion, Lviv Oblast, 80622, Ukraine",49.68333333,23.15,Przemsyl,12,Q4439414,uk:Станіславчик (Бродівський район),7370863,Miasto Stanisławczyk z p.,0,
293,Pomorzany,פומוריאני,Rus,RUS,Ziemia Lwowska.,RUS_1,739,,,,RUS_POMORZANY,"Pomoriany, Lviv Oblast, Ukraine",49.6412567,24.9329181,Rus,14,Q4371769,uk:Поморяни,4274818,Miasto Pomorzany,0,
294,Kuliczkow,רובע האליצקי,Rus,RUS,Ziemia Lwowska.,RUS_1,55,,,,RUS_KULICZKOW,"Kulykiv, Kulykiv Settlement Hromada, Lviv Raion, Lviv Oblast, Ukraine",49.9802537,24.0770707,Rus,14,Q1020037,uk:Куликів (смт),3904898,Karaimów Kuliczkowskich,0,
295,Dunajow,דונאיוב,Rus,RUS,Ziemia Lwowska.,RUS_1,81,,,,RUS_DUNAJOW,"Dunayiv, Lviv Oblast, Ukraine",49.6174228,24.823481,Rus,14,Q4170692,uk:Дунаїв (Львівський район),337552219,Accedit miasteczko Dunajow,0,
297,Lezaysk,ליז'נסק,Rus,RUS,Ziemia Przemyska.,RUS_2,909,,,,RUS_LEZAJSK,"Leżajsk, Podkarpackie Voivodeship, Poland",50.2620534,22.4210807,Przemsyl,12,Q614145,pl:Leżajsk,904172,Kachał Lezayski z p.,0,
298,Sieniawa,שיניאווה,Rus,RUS,Ziemia Przemyska.,RUS_2,1145,,,,RUS_SIENIAWA,"Sieniawa, Podkarpackie Voivodeship, Poland",50.177791,22.6095389,Chelm Belz,2,Q377994,pl:Sieniawa,1757362,Kachał Sieniawski z p.,0,
299,Przeworsk,פשבורסק,Rus,RUS,Ziemia Przemyska.,RUS_2,969,,,,RUS_PRZEWORSK,"Przeworsk, Podkarpackie Voivodeship, Poland",50.0587,22.49377,Przemsyl,12,Q983875,pl:Przeworsk,2971215,Kachał Przeworski z p.,0,
300,Nowemiasto,נובמיאסטו,Rus,RUS,Ziemia Przemyska.,RUS_2,245,,,,RUS_NOWEMIASTO,"Nyzhankovychi, Lviv Oblast, Ukraine",49.6770742,22.8068436,Przemsyl,12,,,,Synagoga Nowomiescka z p.,0,
301,Łancut,לנצוט,Rus,RUS,Ziemia Przemyska.,RUS_2,829,,,,RUS_LANCUT,"Łańcut, Podkarpackie Voivodeship, Poland",50.06824,22.2298,Przemsyl,12,Q345331,pl:Łańcut,2975475,Kahał Łancucki z p.,0,
302,Lubomierz,לובומירז,Rus,RUS,Ziemia Przemyska.,RUS_2,446,,,,RUS_LUBOMIERZ,"Luboml, Volyn Oblast, Ukraine",50.19054248,23.03173797,Przemsyl,2,Q974468,uk:Любомль,3601597,Synagoga miasta Lubomierza z p.,0,
303,Krzeszow,קששוב,Rus,RUS,Ziemia Przemyska.,RUS_2,413,,,,RUS_KRZESZOWSKI,"Krzeszów, Nisko County, Poland",50.403539,22.3424857,Przemsyl,12,Q1809464,pl:Krzeszów (województwo podkarpackie),3856705,Kachał Krzeszowski z p.,0,
304,Tarnogrod,טארנוגרוד,Rus,RUS,Ziemia Przemyska.,RUS_2,1606,,,,RUS_TARNOBRZEG,"Tarnobrzeg, Podkarpackie Voivodeship, Poland",50.36312530191612,22.737415964652005,Ordyancja Zamoyska,9,,,,Kachał Tarnogrodzki z p.,0,
305,Drohobycz,דרוהוביץ',Rus,RUS,Ziemia Przemyska.,RUS_2,1923,,,,RUS_DROHOBYCZ,"Drohobych, Lviv Oblast, Ukraine",49.3580116,23.5123193,,12,Q158821,uk:Дрогобич,2122758,Kachał Drohobycki z p.,0,
306,Kanczuga,קנצ'וגה,Rus,RUS,Ziemia Przemyska.,RUS_2,247,,,,RUS_KANCZUGA,"Kańczuga, Podkarpackie Voivodeship, Poland",49.9833529,22.4116071,Przemsyl,12,Q653844,pl:Kańczuga,2971592,miasta Kanczugi z p.,0,
307,Grodzisko,גרודז'יסק דולנה,Rus,RUS,Ziemia Przemyska.,RUS_2,280,,,,RUS_GRODZISKO,"Grodzisko Dolne, Podkarpackie Voivodeship, Poland",50.1578027,22.4665644,Przemsyl,12,Q2706336,pl:Grodzisko Dolne,3009716770,Synagoga Grodziska z p.,0,
308,Chyrow,חירוב,Rus,RUS,Ziemia Przemyska.,RUS_2,455,,,,RUS_CHYROW,"Khyriv, Lviv Oblast, Ukraine",49.5346856,22.8526792,Przemsyl,12,Q1020128,uk:Хирів,6986647,Kachał Chyrowski z p.,0,
309,Hussakow,הוסאקוב,Rus,RUS,Ziemia Przemyska.,RUS_2,385,,,,RUS_HUSAKOW,"Husakiv, Lviv Oblast, Ukraine",49.7138712,22.9951543,Przemsyl,12,Q4152603,uk:Гусаків,337548259,Kachał Hussakowski z p.,0,
310,Tyczyn,טיצ'ין,Rus,RUS,Ziemia Przemyska.,RUS_2,586,,,,RUS_TYCZYN,"Tyczyn, Podkarpackie Voivodeship, Poland",49.9638636,22.0339385,Rzeszow,13,Q1946067,pl:Tyczyn,2389902,Kachał Tyczyński z p.,0,
311,Stary Sambor,סטארי סמביר,Rus,RUS,Ziemia Przemyska.,RUS_2,193,,,,RUS_STARYSAMBOR,"Staryi Sambir, Lviv Oblast, Ukraine",49.443994,23.0037506,Przemsyl,12,Q1025844,uk:Старий Самбір,6956616,Kachał Miasta Starego Sambora,0,
312,Pruchnik,פרוחניק,Rus,RUS,Ziemia Przemyska.,RUS_2,280,,,,RUS_PRUCHINICKI,"Pruchnik, Podkarpackie Voivodeship, Poland",49.9061322,22.5155104,Przemsyl,12,Q2114405,pl:Pruchnik,2504818,Kachał Pruchnicki z p.,0,
313,Krasiczyn,קרסיצ׳ין,Rus,RUS,Ziemia Przemyska.,RUS_2,159,,,,RUS_KRASICZINSKI,"Krasiczyn, Podkarpackie Voivodeship, Poland",49.7762204,22.6525426,Przemsyl,12,Q2753756,,3009691232,Kachał Krasiczyński z p.,0,
314,Ustrzygi,אוסצ'יקי דולנה,Rus,RUS,Ziemia Przemyska.,RUS_2,99,,,,RUS_USTRZYG,"Ustrzyki Dolne, Podkarpackie Voivodeship, Poland",49.4303242,22.5942366,Przemsyl,12,Q1906346,pl:Ustrzyki Dolne,1748165,Synagoga miasta Ustrzyg z p,0,
315,Łaszki,פלשטין,Rus,RUS,Ziemia Przemyska.,RUS_2,164,,,,RUS_LASZEK,"Skelivka, Lviv Oblast, Ukraine",49.5376067,22.9667529,Przemsyl,12,,,,Synagoga miasta Łaszek y Fulsztyna,0,
316,Biercza,בירצ'ה,Rus,RUS,Ziemia Przemyska.,RUS_2,214,,,,RUS_BIRCZA,"Bircza, Podkarpackie Voivodeship, Poland",49.6923166,22.4858847,Przemsyl,12,Q2481888,pl:Bircza,3009725512,Synagoga miasteczka Bierczy z p.,0,
317,Wiszenka,וישנקה,Rus,RUS,Ziemia Przemyska.,RUS_2,291,,,,RUS_WISZENKI,"Vyshnia, Sambir Raion, Ukraine",49.77786814,23.20023782,Przemsyl,12,,,,Synagoga Wiszenka z p.,0,
318,Rzeszow,ז'שוב (ראישה),Rus,RUS,Ziemia Przemyska.,RUS_2,1202,,,,RUS_RZESZOW,"Rzeszów, Podkarpackie Voivodeship, Poland",50.0411867,21.9991196,Rzeszow,13,,,,Synagoga Kachał Rzeszowski z p.,0,
319,Nowy Sambor,סמביר,Rus,RUS,Ziemia Przemyska.,RUS_2,513,,,,RUS_NOWYSAMBOR,"Sambir, Lviv Oblast, Ukraine",49.5207147,23.2065501,Przemsyl,12,Q156593,uk:Самбір,5680238,Synagoga Nowego Sambora,0,
320,Starosol,סטארה סול,Rus,RUS,Ziemia Przemyska.,RUS_2,229,,,,RUS_STARASOL,"Stara Sil, Lviv Oblast, Ukraine",49.4884443,22.9644053,Przemsyl,12,Q1019877,uk:Стара Сіль,4250170,Synagoga Starosolska z p.,0,
321,Krzywcza,קשיוצ'ה,Rus,RUS,Ziemia Przemyska.,RUS_2,98,,,,RUS_KRZYWCZA,"Krzywcza, Podkarpackie Voivodeship, Poland",49.7982591,22.5451123,Przemsyl,12,Q2106325,,3009771459,Synagoga miasteczka Krzywczy z p.,0,
322,Mosciska,מושצ'יסקה,Rus,RUS,Ziemia Przemyska.,RUS_2,912,,,,RUS_MOSCISKA,"Mostyska, Lviv Oblast, Ukraine",49.7921981,23.1515533,Przemsyl,12,Q1020108,uk:Мостиська,3629228,Kachał Moscicki z p.,0,
323,Dobromil,דוברומיל,Rus,RUS,Ziemia Przemyska.,RUS_2,1153,,,,RUS_DOBROMILSKI,"Dobromyl, Lviv Oblast, Ukraine",49.5739,22.7860759,Przemsyl,12,,,,Kachał Dobromilski z p.,0,
324,Krakowiec,קרקוביץ,Rus,RUS,Ziemia Przemyska.,RUS_2,462,,,,RUS_KRAKOWIECKI,"Krakovets, Lviv Oblast, Ukraine",49.958705,23.1569823,Przemsyl,12,Q1026933,uk:Краковець,4257608,Kachał Krakowiecki z p.,0,
325,Rybotycze,ריבטיטש,Rus,RUS,Ziemia Przemyska.,RUS_2,251,,,,RUS_RYBOTYCZE,"Rybotycze, Podkarpackie Voivodeship, Poland",49.6562107,22.6436591,Przemsyl,12,Q2625136,pl:Rybotycze,6854605,Synagoga Rybotycka z p.,0,
326,Sokołow,סוקולוב מאלופולסקי,Rus,RUS,Ziemia Przemyska.,RUS_2,754,,,,RUS_SOKOLOWM,"Sokołów Małopolski, Podkarpackie Voivodeship, Poland",50.22904,22.11964,Przemsyl,12,Q867039,pl:Sokołów Małopolski,2974106,Kachał Sokołowski z p.,0,
327,Turka,טורקה,Rus,RUS,Ziemia Przemyska.,RUS_2,1250,,,,RUS_TURKA,"Turka, Lviv Oblast, Ukraine",49.1547589,23.0312023,Przemsyl,12,Q7855014,pl:Turka (powiat chełmski),7144635,Kachał Turczeński z p.,0,
328,Stryi,סטרי,Rus,RUS,Ziemia Przemyska.,RUS_2,1727,,,,RUS_STRYJ,"Stryi, Lviv Oblast, Ukraine",49.2543344,23.8434611,,12,Q158923,uk:Стрий,7986302,Kachał Stryiski z p.,0,
329,Jarosław,ירוסלב,Rus,RUS,Ziemia Przemyska.,RUS_2,1884,,,,RUS_JAROSLAW,"Jarosław, Podkarpackie Voivodeship, Poland",50.0160977,22.6777391,Przemsyl,12,Q721928,pl:Jarosław (województwo podkarpackie),2647732,Kachał Jarosławski z p.,0,
330,Skole,סקולה,Rus,RUS,Ziemia Przemyska.,RUS_2,1063,,,,RUS_SKOLE,"Skole, Lviv Oblast, Ukraine",49.0401779,23.5129162,,12,Q913962,uk:Сколе,5902651,Kachał Skolski z p.,0,
331,Przemyśl,פשמישל,Rus,RUS,Ziemia Przemyska.,RUS_2,2418,,,,RUS_PRZEMYSL,"Przemyśl, Podkarpackie Voivodeship, Poland",49.7823132,22.7744294,Przemsyl City,12,Q208473,pl:Przemyśl,3009775224,Kachał Przemyski z p.,0,
333,Sanok,סאנוק,Rus,RUS,Ziemia Sanocka.,RUS_3,467,,,,RUS_SANOK,"Sanok, Podkarpackie Voivodeship, Poland",49.5550187,22.2060658,,14,Q201729,pl:Sanok,2906321,Kachał Sanocki z p.,0,
334,Lisko,לסקו,Rus,RUS,Ziemia Sanocka.,RUS_3,1656,,,,RUS_LISKO,"Lesko, Podkarpackie Voivodeship, Poland",49.4701205,22.3304324,,12,Q611086,pl:Lesko,1908752,Kachał Liski z p.,0,
335,Rymanow,רימאנוב,Rus,RUS,Ziemia Sanocka.,RUS_3,1015,,,,RUS_RYMANOW,"Rymanów, Podkarpackie Voivodeship, Poland",49.75,22.11666667,Little Poland,14,,,,Kachał Rymanowski z p.,0,
336,Baligrod,בליגרוד,Rus,RUS,Ziemia Sanocka.,RUS_3,144,,,,RUS_BALIGROD,"Baligród, gmina Baligród, powiat leski, województwo podkarpackie, 38-606, Polska",49.3367963,22.2866341,,14,Q3496277,pl:Baligród,6954582,Kachał Baligrodzki z p.,0,
337,Dubiecko,דובצק,Rus,RUS,Ziemia Sanocka.,RUS_3,136,,,,RUS_DUBIECKO,"Dubiecko, Podkarpackie Voivodeship, Poland",49.8277572,22.3927749,Przemsyl,12,Q2612477,pl:Dubiecko,6829839,Kachał Dubiecki z p.,0,
338,Dynow,דינוב,Rus,RUS,Ziemia Sanocka.,RUS_3,1228,,,,RUS_DYNOW,"Dynów, Podkarpackie Voivodeship, Poland",49.81506,22.23388,Przemsyl,12,Q910985,pl:Dynów,2975296,Kachał Dynowski z p.,0,
340,Żydaczew,ז'ידאצ'וב,Rus,RUS,Żydaczewski.,RUS_4,292,,,,RUS_ZYDACZOW,"Zhydachiv, Lviv Oblast, Ukraine",49.3853385,24.1421827,Rus,14,Q997359,uk:Жидачів,7100561,Miasto Żydaczew z parafią,0,
341,Żurawno,ז'וראבנו,Rus,RUS,Żydaczewski.,RUS_4,770,,,,RUS_ZURAWNO,"Zhuravno, Lviv Oblast, Ukraine",49.2634643,24.2787681,Rus,14,Q256801,uk:Журавно,30710507,Miasto Żurawno z p.,0,
342,Żurow,קהילת יהודי ז'ורוב,Rus,RUS,Żydaczewski.,RUS_4,74,,,,RUS_ZUROW,"Zhuriv, Ivano-Frankivsk Oblast, Ukraine",49.3081749,24.4457866,Rus,14,Q576990,uk:Журів,337563336,Miasto Żurow z p.,0,
343,Brozdowce,בריזדוביץ',Rus,RUS,Żydaczewski.,RUS_4,303,,,,RUS_BRZOZDOWCE,"Berezdivtsi, Lviv Oblast, Ukraine",49.4554487,24.1481217,Rus,14,,,,Miasto Brozdowce,0,
344,Chodorow,חודורוב,Rus,RUS,Żydaczewski.,RUS_4,852,,,,RUS_CHODOROW,"Khodoriv, Lviv Oblast, Ukraine",49.4077736,24.3079782,Rus,14,Q997404,uk:Ходорів,7986174,Miasto Chodorow z p.,0,
345,Ruzdoł,רוזדיל,Rus,RUS,Żydaczewski.,RUS_4,884,,,,RUS_ROZDOL,"Rozdil, Lviv Oblast, Ukraine",49.4622028,24.0687686,Rus,14,Q4396487,uk:Розділ,3969628,Miasto Ruzdoł z p.,0,
346,Dolina,דולינה,Rus,RUS,Żydaczewski.,RUS_4,714,,,,RUS_DOLINA,"Dolyna, Ivano-Frankivsk Oblast, Ukraine",48.9764573,23.9892458,Rus,14,,,,Miasto Dolina z p.,0,
347,Bolechowy,בולחוב,Rus,RUS,Żydaczewski.,RUS_4,883,,,,RUS_BOLECHOW,"Bolekhiv, Ivano-Frankivsk Oblast, Ukraine",49.0684752,23.85678,Rus,14,Q146595,uk:Болехів,8097681,Miasto Bolechowy z p.,0,
348,Sokołow,סוקולוב,Rus,RUS,Żydaczewski.,RUS_4,286,,,,RUS_SOKOLOWD,"Sokołów Dobromilski, powiat przemyski, województwo podkarpackie, Polska",49.6412235,22.7494148,Przemsyl,12,Q9257831,,3009751785,Miasto Sokołow z p.,0,
349,Rozniatow,רוז'ניאטיב,Rus,RUS,Żydaczewski.,RUS_4,478,,,,RUS_ROZNIATOW,"Rozhniativ, Ivano-Frankivsk Oblast, Ukraine",48.9411873,24.1570246,Rus,14,Q1899345,uk:Рожнятів,3579368,Miasto Rozniatow z p.,0,
351,Halicz,האליץ',Rus,RUS,Ziemia Halicka.,RUS_5,459,365,villages,,RUS_HALICZKARAITES,"Halych, Ivano-Frankivsk Oblast, Ukraine",49.1237705,24.7313165,Rus,14,Q146450,uk:Галич,3626207,Miasto Halicz Karaimow,0,
352,Monasterzyska,מונסטז'יסקה  / מאנאסטערישטש,Rus,RUS,Ziemia Halicka.,RUS_5,877,,,,RUS_MONASTERZYSKA,"Monastyryska, Ternopil Oblast, Ukraine",49.0890218,25.1628644,Rus,14,,,,Miasto Monasterzyska nowe i stare,0,
353,Jezupol,אוזיפולי,Rus,RUS,Ziemia Halicka.,RUS_5,133,,,,RUS_JEZUPOL,"Yezupil, Ivano-Frankivsk Oblast, Ukraine",49.0435841,24.776477,Rus,14,Q2371718,uk:Єзупіль,4596299,Miasto Jezupol z wsiami para fialnemi,0,
354,Maryampol,,Rus,RUS,Ziemia Halicka.,RUS_5,229,,,,RUS_MARIAMPOL,"Mariyanpil, Ivano-Frankivsk Oblast, Ukraine",48.922633,24.711117,Rus,14,,,,"Miasto Maryampol z w, p.",0,
355,Tłomacz,טלומאץ',Rus,RUS,Ziemia Halicka.,RUS_5,493,,,,RUS_TLUMACZ,"Tlumach, Ivano-Frankivsk Oblast, Ukraine",48.8526745,24.8480212,Rus,14,,,,Miasto Tłomacz z w. p.,0,
356,Bukaczowce,בוקאצ'יבצי,Rus,RUS,Ziemia Halicka.,RUS_5,338,,,,RUS_BUKACZOWCE,"Bukachivtsi, Ivano-Frankivsk Oblast, Ukraine",49.2518098,24.4987913,Rus,14,Q2603071,uk:Букачівці,4596388,Miasto Bukaczowce z w. p.,0,
357,Uście,אושצ'יה ז'יילונה,Rus,RUS,Ziemia Halicka.,RUS_5,451,,,,RUS_USCIE,"Ustia Zelene, Ternopil Oblast, Ukraine",49.0283643,24.9657407,Rus,14,,,,Miasto Uście z w. p.,0,
358,Tyśmienica,טישמייניצה,Rus,RUS,Ziemia Halicka.,RUS_5,908,,,,RUS_TYSMIENICA,"Tysmenytsia, Ivano-Frankivsk Oblast, Ukraine",48.9032889,24.8471005,Rus,14,Q156588,uk:Тисмениця,6748506,Miasto Tyśmienica z w. p.,0,
359,Kałusz,קאלוש,Rus,RUS,Ziemia Halicka.,RUS_5,1662,,,,RUS_KALUSZ,"Kalush, Ivano-Frankivsk Oblast, Ukraine",49.0414259,24.3950384,Rus,14,Q146453,uk:Калуш,2190422,Miasto Kałusz z w. p.,0,
360,Stanisławów,איוואנו-פרנקיבסק,Rus,RUS,Ziemia Halicka.,RUS_5,908,,,,RUS_STANISLAWOW,"Ivano-Frankivsk, Ukraine",48.9200616,24.7089157,Rus,14,,,,Miasto Stanisławów z w. p.,0,
361,Buczacz,בוצ'אץ',Rus,RUS,Ziemia Halicka.,RUS_5,1267,,,,RUS_BUCZACZ,"Buchach, Ternopil Oblast, Ukraine",49.064831,25.3817159,Rus,14,Q849109,uk:Бучач,2697563,"Miasto Buczacz z w, p.",0,
362,Zawołów,זאוואלוב,Rus,RUS,Ziemia Halicka.,RUS_5,204,,,,RUS_ZAWALOW,"Zavaliv, Ternopil Oblast, Ukraine",49.2072567,25.0277839,Rus,14,,,,Miasto Zawołów z w. p.,0,
363,Potok,זולוטי פוטיק,Rus,RUS,Ziemia Halicka.,RUS_5,417,,,,RUS_POTOK,"Zoloty Potik, Ternopil Oblast, Ukraine",48.9087059,25.3358799,Rus,14,Q2602963,uk:Золотий Потік,3167014,Miasto Potok z w. p.,0,
364,Martynow,מרטינוב,Rus,RUS,Ziemia Halicka.,RUS_5,75,,,,RUS_MARTYNOW,"Staryi Martyniv, Ivano-Frankivsk Oblast, Ukraine",49.2027781,24.5669615,Rus,14,Q4441099,uk:Старий Мартинів,11087617,Miasto Martynow z w. p.,0,
365,Rochatyn,רוהאטין,Rus,RUS,Ziemia Halicka.,RUS_5,1237,,,,RUS_ROHATYN,"Rohatyn, Ivano-Frankivsk Oblast, Ukraine",49.4099366,24.6106017,Rus,14,Q156821,uk:Рогатин,3382441,Miasto Rochatyn z w. p.,0,
366,Bursztyn,בורשטין,Rus,RUS,Ziemia Halicka.,RUS_5,481,,,,RUS_BURSZTYN,"Burshtyn, Ivano-Frankivsk Oblast, Ukraine",49.2605667,24.62688,Rus,14,Q146557,uk:Бурштин (місто),3626214,"Miasto Bursztyn z w, p.",0,
367,Podheyce,פודהייצה,Rus,RUS,Ziemia Halicka.,RUS_5,1290,,,,RUS_PODHAJCE,"Pidhaitsi, Ternopil Oblast, Ukraine",49.2683563,25.1365749,Rus,14,Q149170,uk:Підгайці,3167397,Miasto Podheyce z w. p.,0,
368,Bełszowiec,בילשיבצי,Rus,RUS,Ziemia Halicka.,RUS_5,226,,,,RUS_BOLSZOWCE,"Bilshivtsi, Ivano-Frankivsk Oblast, Ukraine",49.1835908,24.7462961,Rus,14,Q4092249,uk:Більшівці,4596376,Miasto Bełszowiec z w. p.,0,
369,Niźniow,ניז'ניוב  / ניזשנעווע,Rus,RUS,Ziemia Halicka.,RUS_5,154,,,,RUS_NIZNIOW,"Nyzhniv, Ivano-Frankivsk Oblast, Ukraine",48.9436356,25.0939642,Rus,14,,,,Miasto Niźniow z w. p.,0,
370,Woyniłow,וויניליב,Rus,RUS,Ziemia Halicka.,RUS_5,495,,,,RUS_WOJNILOW,"Voinyliv, Ivano-Frankivsk Oblast, Ukraine",49.1241888,24.4923324,Rus,14,Q550556,uk:Войнилів,4596367,Miasto Woyniłow z w. p.,0,
372,Trembowla,טרבובליה,Rus,RUS,Trembowolski.,RUS_6,617,,,,RUS_TREMBOWLA,"Terebovlya, Ternopil Oblast, Ukraine",49.3047733,25.7049422,Rus,14,Q1020091,uk:Теребовля,3167561,Miasto Trembowla z wsiami pa rafialnemi,0,
373,Mikulince,מיקולינצה,Rus,RUS,Trembowolski.,RUS_6,463,,,,RUS_MIKULINCE,"Mykulyntsi, Ternopil Oblast, Ukraine",49.3962315,25.605439,Rus,14,Q1956628,uk:Микулинці,3167221,Miasto Mikulince z w. p.,0,
374,Grzymałow,הרימאיליב,Rus,RUS,Trembowolski.,RUS_6,693,,,,RUS_GRZYMALOW,"Hrymailiv, Ternopil Oblast, Ukraine",49.328034,26.0044917,Rus,14,Q1632587,uk:Гримайлів,3166882,Miasto Grzymałow z w. p.,0,
375,Towste,טואוסטה,Rus,RUS,Trembowolski.,RUS_6,402,,,,RUS_TLUSTE,"Tovste, Ternopil Oblast, Ukraine",48.7433,25.5853,Rus,14,,,,Miasto Towste z w. p.,0,
376,Kopczyńce,קופיצ'ינצה,Rus,RUS,Trembowolski.,RUS_6,407,,,,RUS_KOPYCZYNCE,"Kopychyntsi, Ternopil Oblast, Ukraine",49.1037815,25.9110602,Rus,14,Q997381,uk:Копичинці,3167073,Miasto Kopczyńce z w. p.,0,
377,Suchostaw,סוחוסטאב,Rus,RUS,Trembowolski.,RUS_6,213,,,,RUS_SUCHOSTAW,"Sukhostav, Husiatyn Raion, Ukraine",49.1578905,25.8547701,Rus,14,Q4447423,uk:Сухостав,3167547,Miasto Suchostaw czyli Jabłonow z w. p.,0,
378,Czortkow,צ'ורטקוב,Rus,RUS,Trembowolski.,RUS_6,812,,,,RUS_CZORTKOW,"Chortkiv, Ternopil Oblast, Ukraine",49.0108843,25.8026512,Rus,14,Q148473,uk:Чортків,3167646,Miasto Czortkow z w. p.,0,
379,Skałat,סקאלאט,Rus,RUS,Trembowolski.,RUS_6,640,,,,RUS_SKALAT,"Skalat, Ternopil Oblast, Ukraine",49.4285053,25.9712877,Rus,14,Q149159,uk:Скалат,3167484,"Miasto Skałat z w. p,",0,
380,Janow,יאנוב,Rus,RUS,Trembowolski.,RUS_6,447,,,,RUS_JANOWT,"Ivanivka, Terebovlya Raion, Ukraine",49.2789804,25.824398,Rus,14,,,,Miasto Janow z w. p.,0,
381,Budzanow,בודאניב,Rus,RUS,Trembowolski.,RUS_6,400,,,,RUS_BUDZANOW,"Budaniv, Ternopil Oblast, Ukraine",49.1633838,25.7072078,Rus,14,Q1000641,uk:Буданів,3166702,Miasto Budzanow z w. p.,0,
382,Tarnopol,טרנופול,Rus,RUS,Trembowolski.,RUS_6,1680,,,,RUS_TARNOPOL,"Ternopil, Ukraine",49.5510444,25.5952184,Rus,14,Q156743,pl:Tarnopol,327955095,"Miasto Tarnopol, miasteczko Kozłow y Kopczyńce z w. p.",0,
383,Struszow,סטרוסוב,Rus,RUS,Trembowolski.,RUS_6,244,,,,RUS_STRUSOW,"Strusiv, Ternopil Oblast, Ukraine",49.3379202,25.6167597,Rus,14,Q4444399,uk:Струсів,3167538,Miasto Struszow z w. p.,0,
385,Kołomyia,קולומיאה,Rus,RUS,Kołomyski.,RUS_7,1059,,,,RUS_KOLOMYJA,"Kolomyia, Ivano-Frankivsk Oblast, Ukraine",48.5304917,25.0412054,Rus,14,Q52193,uk:Коломия,2697552,Miasto Kołomyia z wsiami parafialnemi,0,
386,Sołotwina,סולוטבין,Rus,RUS,Kołomyski.,RUS_7,471,,,,RUS_SOLOTWINA,"Solotvyn, Ivano-Frankivsk Oblast, Ukraine",48.7094882,24.4210479,Rus,14,Q1899334,uk:Солотвин (смт),11114940,Miasto Sołotwina z wsiami parafialnemi,0,
387,Pistynia,פיסטין,Rus,RUS,Kołomyski.,RUS_7,233,,,,RUS_PISTYN,"Pistyn, Ivano-Frankivsk Oblast, Ukraine",48.3589549,25.0236993,Rus,14,Q4363684,uk:Пістинь,337601092,Miasto Pistynia z w. p.,0,
388,Jabłonow,יאבלונוב,Rus,RUS,Kołomyski.,RUS_7,467,,,,RUS_JABLONOW,"Yabluniv, Ivano-Frankivsk Oblast, Ukraine",48.4018664,24.9415656,Rus,14,Q2619337,uk:Яблунів (смт),6077218,Miasto Jabłonow czyli Słupczate z w. p.,0,
389,Śniatyn,סניאטין,Rus,RUS,Kołomyski.,RUS_7,1123,,,,RUS_SNIATYN,"Sniatyn, Ivano-Frankivsk Oblast, Ukraine",48.4464244,25.5699108,Rus,14,Q156818,uk:Снятин,3626221,Miasto Śniatyn z w. p.,0,
390,Kuty,קוטי,Rus,RUS,Kołomyski.,RUS_7,1013,,,,RUS_KUTY,"Kuty, Ivano-Frankivsk Oblast, Ukraine",48.2638539,25.1816721,Rus,14,Q1794734,uk:Кути,8839102,Miasto Kuty z w. p.,0,
391,Gwozdzia,גוויזדץ,Rus,RUS,Kołomyski.,RUS_7,659,,,,RUS_GWOZDZIEC,"Hvizdets, Ivano-Frankivsk Oblast, Ukraine",48.5768669,25.2828981,Rus,14,Q1026927,uk:Гвіздець,4099075,Miasto Gwozdzia z w. p.,0,
392,Zabłatow,זבלוטוב,Rus,RUS,Kołomyski.,RUS_7,946,,,,RUS_ZABLOTOW,"Zabolotiv, Ivano-Frankivsk Oblast, Ukraine",48.4672394,25.2834861,Rus,14,Q520110,uk:Заболотів,30710076,Miasto Zabłatow z w. p.,0,
393,Pohorodczany,בוהורודצ'אני,Rus,RUS,Kołomyski.,RUS_7,646,,,,RUS_BOHORODCZANY,"Bohorodchany, Ivano-Frankivsk Oblast, Ukraine",48.8079915,24.537935,Rus,14,Q639830,uk:Богородчани,3626205,Miasto Pohorodczany z w. p.,0,
394,Kossow,קוסוב,Rus,RUS,Kołomyski.,RUS_7,225,,,,RUS_KOSOW,"Kosiv, Ivano-Frankivsk Oblast, Ukraine",48.3193393,25.0926501,Rus,14,Q157461,uk:Косів,3896884,Miasto Kossow z w. p.,0,
395,,,Rus,RUS,Kołomyski.,RUS_7,118,,,,RUS_SAMEALTERIUSDOMINIIV,"Staryy Kosiv, Ivano-Frankivsk Oblast, Ukraine",48.3193393,25.0926501,Rus,14,,,,Miasto Toż Alterius Dominii z w. p.,0,
396,Kamionki Wielkie,קמיונקי גדולות,Rus,RUS,Kołomyski.,RUS_7,56,,,,RUS_KAMIONKIWIELKIE,"Velyka Kamianka, Ivano-Frankivsk Oblast, Ukraine",48.640334,25.1081,Rus,14,,,,Miasto Kamionki Wielkie z w. p.,0,
397,Ottenia,אוטיניה,Rus,RUS,Kołomyski.,RUS_7,345,,,,RUS_OTTYNIA,"Otyniia, Ivano-Frankivsk Oblast, Ukraine",48.737533,24.8621418,Rus,14,Q641272,uk:Отинія,3353685,Miasto Ottenia z w. p.,0,
398,Lipiec,ליפייץ,Rus,RUS,Kołomyski.,RUS_7,171,,,,RUS_LYSIEC,"Lysets, Ivano-Frankivsk Oblast, Ukraine",48.8725755,24.6091815,Rus,14,,,,Miasto Lipiec z w. p.,0,
399,Nadworna,נדבורנה,Rus,RUS,Kołomyski.,RUS_7,1196,,,,RUS_NADWORNA,"Nadvirna, Ivano-Frankivsk Oblast, Ukraine",48.6211999,24.5759679,Rus,14,Q156820,uk:Надвірна,3704762,Miasto Nadworna z w. p.,0,
400,Obertyn,אוברטין,Rus,RUS,Kołomyski.,RUS_7,419,,,,RUS_OBERTYN,"Obertyn, Ivano-Frankivsk Oblast, Ukraine",48.6943534,25.1747279,Rus,14,Q1463643,uk:Обертин,4596372,Miasto Obertyn z w. p.,0,
401,Horodynka,הורודנקה,Rus,RUS,Kołomyski.,RUS_7,956,,,,RUS_HORODENKA,"Horodenka, Ivano-Frankivsk Oblast, Ukraine",48.6663438,25.5025408,Rus,14,Q157520,uk:Городенка,3626219,Miasto Horodynka z w. p.,0,
402,Kułaczkowce,קולאצ'קובצה,Rus,RUS,Kołomyski.,RUS_7,150,,,,RUS_KULACZKOWCE,"Kulachkivtsi, Ivano-Frankivsk Oblast, Ukraine",48.5579138,25.3010987,Rus,14,Q4246040,uk:Кулачківці,337594449,Miasto Kułaczkowce z w. p.,0,
404,Chełm,חלם,Rus,RUS,Ziemia Chełmska.,RUS_8,1418,,,,RUS_CHELM,"Chełm, województwo lubelskie, Polska",51.1339221,23.4711548,Chelm Belz,2,Q234184,,3009695532,Kachał Chełmski z parafiami,0,
405,Krośniczyn,גטו קרשניצ'ין,Rus,RUS,Ziemia Chełmska.,RUS_8,196,,,,RUS_KROSNICZYN,"Kraśniczyn, gmina Kraśniczyn, powiat krasnostawski, województwo lubelskie, 22-310, Polska",50.9329004,23.351823,Chelm Belz,2,Q30007325,,3009762738,Kachał Krośniczyński z p.,0,
406,Krasnobród,קראסנוברוד,Rus,RUS,Ziemia Chełmska.,RUS_8,245,,,,RUS_KRASNOBROD,"Krasnobród, gmina Krasnobród, powiat zamojski, województwo lubelskie, 22-440, Polska",50.5460046,23.2115593,Ordyancja Zamoyska,9,,,,Kachał Krasnobrodzki z p.,0,
407,Hrubieszew,הרוביישוב,Rus,RUS,Ziemia Chełmska.,RUS_8,1023,,,,RUS_HRUBIESZEW,"Hrubieszów, powiat hrubieszowski, województwo lubelskie, Polska",50.8047363,23.8873816,Chelm Belz,2,Q924103,pl:Hrubieszów,2690109,Kachał Hrubieszewski z p.,0,
408,Kryłow,קרילוב,Rus,RUS,Ziemia Chełmska.,RUS_8,470,,,,RUS_KRYLOW,"Kryłów, gmina Mircze, powiat hrubieszowski, województwo lubelskie, Polska",50.6830416,24.0552801,Chelm Belz,2,Q2743964,pl:Kryłów,7116740,Kachał Kryłowski z p.,0,
409,Uchanie,אוחניה,Rus,RUS,Ziemia Chełmska.,RUS_8,175,,,,RUS_UCHANIE,"Uchanie, gmina Uchanie, powiat hrubieszowski, województwo lubelskie, Polska",50.9079164,23.6471712,Chelm Belz,2,Q2433817,pl:Uchanie,7082223,Kachał Uchanski z p.,0,
410,Rejowiec,ריובייץ,Rus,RUS,Ziemia Chełmska.,RUS_8,437,,,,RUS_REJOWIEC,"Rejowiec, gmina Rejowiec, powiat chełmski, województwo lubelskie, 22-360, Polska",51.0945453,23.2832851,Chelm Belz,2,Q3912975,pl:Rejowiec,2712027,Kachał Rejowiecki z p.,0,
411,Luboml,לובומל,Rus,RUS,Ziemia Chełmska.,RUS_8,1226,,,,RUS_LUBOML,"Liuboml, Liuboml Urban Hromada, Kovel Raion, Volyn Oblast, 44301, Ukraine",51.2234546,24.0315783,Chelm Belz,2,Q974468,uk:Любомль,3601597,Kachał Lubomlski z p.,0,
412,Turobin,טורובין,Rus,RUS,Ziemia Chełmska.,RUS_8,985,,,,RUS_TUROBIN,"Turobin, gmina Turobin, powiat biłgorajski, województwo lubelskie, Polska",50.8218458,22.7448995,Ordyancja Zamoyska,9,Q2595900,pl:Turobin,7429500,Kachał Turobiński z p.,0,
413,Szczębrzeszyn,שצ'בז'שין,Rus,RUS,Ziemia Chełmska.,RUS_8,444,,,,RUS_SZCZEBRZESZYN,"Szczebrzeszyn, gmina Szczebrzeszyn, powiat zamojski, województwo lubelskie, Polska",50.6946972,22.9786754,Ordyancja Zamoyska,9,,,,Kachał Szczębrzeszyński z p.,0,
414,Krasnystaw,קרסניסטב,Rus,RUS,Ziemia Chełmska.,RUS_8,86,,,,RUS_KRASNYSTAW,"Krasnystaw, powiat krasnostawski, województwo lubelskie, Polska",50.982996,23.1697933,Chelm Belz,2,Q155088,pl:Krasnystaw,2690975,Kachał alias Przedmieście Krasnostawskie,0,
415,Żułkiewka,ז'ולקייבקה-אוסאדה,Rus,RUS,Ziemia Chełmska.,RUS_8,98,,,,RUS_ZULKIEWKA,"Żółkiewka, gmina Żółkiewka, powiat krasnostawski, województwo lubelskie, Polska",50.9096686,22.8346715,Ordyancja Zamoyska,9,Q1873726,pl:Żółkiewka-Osada,7433516,Miasteczko Żułkiewka,0,
416,Tarnogura,טארנוגורה,Rus,RUS,Ziemia Chełmska.,RUS_8,204,,,,RUS_TARNOGURA,"Tarnogóra, gmina Izbica, powiat krasnostawski, województwo lubelskie, Polska",50.8951503,23.1368386,Chelm Belz,2,Q2976352,pl:Tarnogóra (województwo lubelskie),6868749,Kachał Tarnogurski,0,
417,Zamość,זאמושץ',Rus,RUS,Ziemia Chełmska.,RUS_8,1905,,,,RUS_ZAMOSC,"Zamość, województwo lubelskie, 22-400, Polska",50.7170854,23.2525711,Ordyancja Zamoyska,9,,,,Kachał Zamoyski z p.,0,
418,Opalin,רודה-אופלין,Rus,RUS,Ziemia Chełmska.,RUS_8,139,,,,RUS_OPALIN,"Ruda-Opalin, gmina Ruda-Huta, powiat chełmski, województwo lubelskie, 22-110, Polska",51.2480655,23.599505,Chelm Belz,2,Q1447768,,3009709144,Kachał Opaliński z p.,0,
419,Swierz,שוויירז'ה,Rus,RUS,Ziemia Chełmska.,RUS_8,158,,,,RUS_SWIERZCH,"Świerże, gmina Dorohusk, powiat chełmski, województwo lubelskie, Polska",51.2173194,23.7353656,Chelm Belz,2,Q8082197,pl:Świerże (powiat chełmski),3009716021,Kachał Swierzowski z p.,0,
420,Siedliszcze,שדלישצ'ה,Rus,RUS,Ziemia Chełmska.,RUS_8,25,,,,RUS_SIEDLISZCZE,"Siedliszcze, gmina Dubienka, powiat chełmski, województwo lubelskie, 22-145, Polska",51.0202175,23.8155378,Chelm Belz,2,Q251234,pl:Siedliszcze (gmina Dubienka),7094908,Miasto Siedliszcze nowey lokacyi,0,
421,Ratno,רטנה,Rus,RUS,Ziemia Chełmska.,RUS_8,210,,,,RUS_RATNO,"Ratne, Ratne Settlement Hromada, Kovel Raion, Volyn Oblast, 44100, Ukraine",51.67145,24.52458,Chelm Belz,2,Q1385480,uk:Ратне,4075820,Miasto Ratno z p.,0,
422,Maciejów,לוקיב,Rus,RUS,Ziemia Chełmska.,RUS_8,343,,,,RUS_MACIEJOW,"Lukiv, Lukiv Settlement Hromada, Kovel Raion, Volyn Oblast, Ukraine",51.2297317,24.3420795,Chelm Belz,2,,,,Miasto Maciejów z p.,0,
424,Biskupice,ביסקופיצה,Lublin,LBL,,LBL_1,60,,,,LBL_BISKUPICE,"Biskupice, Trawniki, Lublin Voivodeship, Poland",51.1529545,22.9449985,Lublin,7,Q4918214,pl:Biskupice (województwo lubelskie),5403814,Miasto Biskupice,0,
425,Baranow,באראנוב,Lublin,LBL,,LBL_1,513,,,,LBL_BARANOW,"Baranów, Puławy County, Lublin Voivodeship, Poland",51.5575797,22.1351905,Lublin,7,Q2184154,pl:Baranów (gmina w województwie mazowieckim),336413,Miasto Baranow,0,
426,Bełżyce,בלז'יצה,Lublin,LBL,,LBL_1,946,,,,LBL_BELZYCE,"Bełżyce, Lublin County, Lublin Voivodeship, Poland",51.17404,22.28024,Lublin,7,Q854624,pl:Bełżyce,2470074,Miasto Bełżyce,0,
427,Bychawa,ביחאווה,Lublin,LBL,,LBL_1,413,,,,LBL_BYCHAWA,"Bychawa, Lublin County, Lublin Voivodeship, Poland",51.0149143,22.5351454,Lublin,7,Q995820,pl:Bychawa,2626972,Miasto Bychawa,0,
428,Biłgoray,בילגוראי,Lublin,LBL,,LBL_1,661,,,,LBL_BILGORAJ,"Biłgoraj, Biłgoraj County, Lublin Voivodeship, Poland",50.54099,22.72198,Ordyancja Zamoyska,9,,,,Miasto Biłgoray,0,
429,Czemierniki,צ'מיירניקי,Lublin,LBL,,LBL_1,325,,,,LBL_CZEMIERNIKI,"Czemierniki, Radzyń County, Lublin Voivodeship, Poland",51.6726476,22.6385451,Lublin,7,Q2557505,pl:Czemierniki,6854278,Miasto Czemierniki,0,
430,Frannopol,פראמפול,Lublin,LBL,,LBL_1,191,,,,LBL_FRAMPOL,"Frampol, Biłgoraj County, Lublin Voivodeship, Poland",50.6715465,22.6706518,Ordyancja Zamoyska,9,,,,Miasto Frannopol,0,
431,Głusko,גלוסק,Lublin,LBL,,LBL_1,333,,,,LBL_GLUSKO,"Głusk, Lublin, Lublin Voivodeship, Poland",51.1900776,22.5965248,Lublin City,7,Q9284340,pl:Głusk (Lublin),6096715,Miasto Głusko,0,
432,Goray,גוראי,Lublin,LBL,,LBL_1,332,,,,LBL_GORAJ,"Goraj, Biłgoraj County, Lublin Voivodeship, Poland",50.7212521,22.6671287,Ordyancja Zamoyska,9,Q9283580,,3009746576,Miasto Goray,0,
433,Janow,יאנוב לובלסקי,Lublin,LBL,,LBL_1,461,,,,LBL_JANOW,"Janów Lubelski, Janów Lubelski County, Lublin Voivodeship, Poland",51.387778,22.364577649620184,Lublin,7,Q6156283,pl:Janów (powiat lubelski),1954682,Miasto Janow,0,
434,Jozefow,יוזפוב (נפת בילגוראי),Lublin,LBL,,LBL_1,924,,,,LBL_JOZEFOW,"Józefów, Biłgoraj County, Lublin Voivodeship, Poland",50.53333333,22.73333333,Lublin City,9,,,,Miasto Jozefow,0,
435,Kazimierz,קז'ימייז' דולני,Lublin,LBL,,LBL_1,415,,,,LBL_KAZIMIERZ,"Kazimierz Dolny, Puławy County, Lublin Voivodeship, Poland",51.3180409,21.9542483,Lublin,7,Q774098,pl:Kazimierz Dolny,2962269,Miasto Kazimierz,0,
436,Kalinowszczyzna,קלינובשצ׳יזנה,Lublin,LBL,,LBL_1,325,,,,LBL_KALINOWSZCZYZNA,"Kalinowszczyzna, Lublin, Lublin Voivodeship, Poland",51.253715,22.5831614,Lublin,7,Q11733802,pl:Kalinowszczyzna,6096717,Miasto Kalinowszczyzna,0,
437,Końska Wola,קונסקובולה,Lublin,LBL,,LBL_1,569,,,,LBL_KONSKAWOLA,"Końskowola, Puławy County, Lublin Voivodeship, Poland",51.4090959,22.051777,Lublin,7,Q1959,pl:Końskowola,7769769,Miasto Końska Wola,0,
438,Kurow,קורוב,Lublin,LBL,,LBL_1,1092,,,,LBL_KUROW,"Kurów, Puławy County, Lublin Voivodeship, Poland",51.3895069,22.1851172,Lublin,7,Q2316,pl:Kurów,7767448,Miasto Kurow,0,
439,Krasnik,קרשניק,Lublin,LBL,,LBL_1,1343,,,,LBL_KRASNIK,"Kraśnik, Kraśnik County, Lublin Voivodeship, Poland",50.9232831,22.226957,Lublin,7,Q983723,pl:Kraśnik,3009770065,Miasto Krasnik,0,
440,Kock,קוצק,Lublin,LBL,,LBL_1,793,,,,LBL_KOCK,"Kock, Lubartów County, Lublin Voivodeship, Poland",51.64122,22.44796,Lublin,7,Q991819,pl:Kock,3128125,Miasto Kock,0,
441,Lubartow,לוברטוב,Lublin,LBL,,LBL_1,1018,,,,LBL_LUBARTOW,"Lubartów, Lubartów County, Lublin Voivodeship, Poland",51.4598694,22.6094606,Lublin,7,Q283885,pl:Lubartów,3126722,Miasto Lubartow,0,
442,Lublin,לובלין,Lublin,LBL,,LBL_1,1634,,,,LBL_LUBLIN,"Lublin, Lublin Voivodeship, Poland",51.2509458,22.5747275,Lublin City,7,,,,Miasto Lublin,0,
443,Łęczna,לנצ'נה,Lublin,LBL,,LBL_1,724,,,,LBL_LECZNA,"Łęczna, Łęczna County, Lublin Voivodeship, Poland",51.3009,22.88211,Lublin,7,Q325727,pl:Łęczyca,3107056,Miasto Łęczna,0,
444,Łukow,לוקוב,Lublin,LBL,,LBL_1,1563,,,,LBL_LUKOW,"Łuków, Łuków County, Lublin Voivodeship, Poland",51.927158,22.3830241,Lublin,7,Q384244,pl:Łuków,3101311,Miasto Łukow,0,
445,Modliborzyce,מודליבוז'יץ / מודליבוז'יצה,Lublin,LBL,,LBL_1,350,,,,LBL_MODLIBORZYCE,"Modliborzyce, Janów Lubelski County, Lublin Voivodeship, Poland",50.7541638,22.3294471,Ordyancja Zamoyska,9,Q2135041,pl:Modliborzyce,5313888,Miasto Modliborzyce,0,
446,Markuszew,מרקושוב,Lublin,LBL,,LBL_1,356,,,,LBL_MARKUSZOW,"Markuszów, Puławy County, Lublin Voivodeship, Poland",51.3745015,22.2581847,Lublin,7,Q2380331,pl:Markuszów,7767145,Miasto Markuszew,0,
447,Ostrow,אוסטרוב לובלסקי,Lublin,LBL,,LBL_1,344,,,,LBL_OSTROW,"Ostrów Lubelski, Lubartów County, Lublin Voivodeship, Poland",51.4938767,22.8528813,Lublin,7,Q1946017,pl:Ostrów Lubelski,3126730,Miasto Ostrow,0,
448,Opole,אופולה לובלסקיה,Lublin,LBL,,LBL_1,487,,,,LBL_OPOLE,"Opole Lubelskie, Opole Lubelskie County, Lublin Voivodeship, Poland",51.14738,21.96914,Lublin,7,Q1906256,pl:Opole Lubelskie,2793919,Miasto Opole,0,
449,Piaski,פיאסקי,Lublin,LBL,,LBL_1,602,,,,LBL_PIASKI,"Piaski, Świdnik County, Lublin Voivodeship, Poland",51.1388053,22.8485363,Lublin,7,Q1008761,pl:Piaski (powiat świdnicki),3107069,Miasto Piaski mil 3 od Lublina,0,
450,Piaski,פיאסקי,Lublin,LBL,,LBL_1,104,,,,LBL_PIASKIB,"Piaski, Świdnik County, Lublin Voivodeship, Poland",51.1388053,22.8485363,Lublin,7,Q1008761,pl:Piaski (powiat świdnicki),3107069,Miasto Piaski pod Lublinem,0,
451,Parczew,פרצ'ב,Lublin,LBL,,LBL_1,454,,,,LBL_PARCZEW,"Parczew, Parczew County, Lublin Voivodeship, Poland",51.64027,22.90032,Lublin,7,Q2343396,pl:Parczew,3103744,Miasto Parczew,0,
452,Rachow,,Lublin,LBL,,LBL_1,173,,,,LBL_RACHOW,"Annopol, Kraśnik County, Lublin Voivodeship, Poland",50.8853797,21.8569157,Lublin,7,,,,Miasto Miasto Rachow,0,
453,Radzyn,רדזין פודלסקי,Lublin,LBL,,LBL_1,797,,,,LBL_RADZYN,"Radzyń Podlaski, Radzyń Podlaski County, Lublin Voivodeship, Poland",51.7832025,22.6218532,Lublin,7,Q983866,pl:Radzyń Podlaski,2805585,Miasto Radzyn,0,
454,Siedlce,שדליץ,Lublin,LBL,,LBL_1,531,,,,LBL_SIEDLCE,"Siedlce, Masovian Voivodeship, Poland",52.1676031,22.2901645,Lublin,7,Q319813,pl:Siedlce,1386747,Miasto Siedlce,0,
455,Wieniawa,ויניאווה,Lublin,LBL,,LBL_1,403,,,,LBL_WIENIAWA,"Wieniawa, Lublin, Lublin Voivodeship, Poland",51.2518564,22.5379477,Lublin,7,Q9373180,pl:Wieniawa (Lublin),6096726,Miasto Wieniawa,0,
456,Włostowice,ולוסטוביצה,Lublin,LBL,,LBL_1,146,,,,LBL_WLOSTOWICE,"Włostowice, Puławy, Lublin Voivodeship, Poland",51.4038818,21.9747237,Lublin,7,Q8041372,pl:Włostowice (Puławy),31864199,Miasto Włostowice,0,
457,Wysokie,ויסוקייה,Lublin,LBL,,LBL_1,123,,,,LBL_WYSOKIE,"Wysokie, Lublin County, Lublin Voivodeship, Poland",50.9122993,22.6659667,Ordyancja Zamoyska,9,Q615400,pl:Wysokie (gmina Wysokie),7566464,Miasto Miasto Wysokie,0,
458,Zbuczyn,זבוצ'ין,Lublin,LBL,,LBL_1,122,,,,LBL_ZBUCZYN,"Zbuczyn, Siedlce County, Masovian Voivodeship, Poland",52.0893393,22.438503,Lublin,7,Q2188646,pl:Zbuczyn,31683814,Miasto Zbuczyn,0,
459,Zaklikow,זקליקוב,Lublin,LBL,,LBL_1,480,,,,LBL_ZAKLIKOW,"Zaklików, Stalowa Wola County, Subcarpathian Voivodeship, Poland",50.7577772,22.102174,Lublin,7,Q2319835,pl:Zaklików,4729321,Miasto Zaklikow,0,
461,Łuck,לוצק,Wolyn,WLN,Łucki,WLN_1,1845,,,,WLN_LUCK,"Lutsk, Volyn Oblast, Ukraine",50.7518548,25.3299206,Luck,8,Q7550,uk:Луцьк,1951964,Miasto Łuck z parafiami,0,
462,Targowica,טרוביץ,Wolyn,WLN,Łucki,WLN_1,410,,,,WLN_TARGOWICA,"Torhovytsia, Mlyniv Raion, Rivne Oblast, Ukraine",50.5560539,25.3988978,Luck,8,Q359380,uk:Торговиця (Млинівський район),13766512,Miasto Targowica z p.,0,
463,Morowica,,Wolyn,WLN,Łucki,WLN_1,349,,,,WLN_MOROWICA,"Muravytsia, Mlyniv, Rivne Oblast, Ukraine",50.5103016,25.6169153,Luck,8,,,,Miasto Morowica z p.,0,
464,Dubno,דובנו,Wolyn,WLN,Łucki,WLN_1,2492,,,,WLN_DUBNO,"Dubno, Rivne Oblast, Ukraine",50.4009139,25.7590673,Dubno,8,Q932184,uk:Дубно,2318282,Miasto Dubno z p.,0,
465,Ostrozec,אוסטרוז'ץ,Wolyn,WLN,Łucki,WLN_1,130,,,,WLN_OSTROZEC,"Ostrozhets, Ostrozhets Rural Hromada, Dubno Raion, Rivne Oblast, 35113, Ukraine",50.667568,25.53978,Luck,8,Q4339107,uk:Острожець (Дубенський район),13715407,Miasto Ostrozec z p.,0,
466,Dereszna,דרז'נה,Wolyn,WLN,Łucki,WLN_1,290,,,,WLN_DERAZNE,"Derazhne, Kostopil Raion, Rivne Oblast, Ukraine",50.8611788,26.0419287,Ostrog,10,Q658167,uk:Деражне,1156681572,Miasto Dereszna z p.,0,
467,Kaszowka,קשיבקה,Wolyn,WLN,Łucki,WLN_1,162,,,,WLN_KASZOWKA,"Kashivka, Kovel Raion, Volyn Oblast, Ukraine",51.1665614,25.3188702,Luck,8,Q4218083,uk:Кашівка,30719583,Miasto Kaszowka z p.,0,
468,Mielnica,מלניצה,Wolyn,WLN,Łucki,WLN_1,226,,,,WLN_MIELNICA,"Melnitsa, Kovel Raion, Volyn Oblast, Ukraine",51.1533609,25.103292,Luck,8,Q2509678,uk:Мельниця (Ковельський район),337511239,Miasto Mielnica z p.,0,
469,Huszcza,הושץ',Wolyn,WLN,Łucki,WLN_1,283,,,,WLN_HOSZCZA,"Hoshcha, Rivne Oblast, Ukraine",50.6062674,26.6847282,Ostrog,10,Q786622,uk:Гоща,3782165,Miasto Huszcza z p.,0,
470,Zwiachel,זוויאהל,Wolyn,WLN,Łucki,WLN_1,577,,,,WLN_ZWIAHEL,"Zviahel, Zhytomyr Oblast, Ukraine",50.5860203,27.6363775,Ostrog,10,Q149024,uk:Звягель,2313420,Miasto Zwiachel z p.,0,
471,Warkowicze,ורקוביץ',Wolyn,WLN,Łucki,WLN_1,359,,,,WLN_WARKOWICZE,"Varkovychi, Dubno Raion, Rivne Oblast, Ukraine",50.4681947,25.9589199,Dubno,8,Q4103854,uk:Варковичі,13286386,Miasto Warkowicze z p.,0,
472,Korzec,קורץ,Wolyn,WLN,Łucki,WLN_1,937,,,,WLN_KORZEC,"Korets, Rivne Oblast, Ukraine",50.6227649,27.1614453,Ostrog,10,Q997398,uk:Корець,2697625,Miasto Korzec z p.,0,
473,Rowno,רובנו,Wolyn,WLN,Łucki,WLN_1,1422,,,,WLN_ROWNO,"Rivne, Rivne Oblast, Ukraine",50.6190674,26.2521127,Ostrog,10,,,,Miasto Rowno z p.,0,
474,Krupa,קרופא,Wolyn,WLN,Łucki,WLN_1,232,,,,WLN_KRUPA,"Krupa, Lutsk Raion, Volyn Oblast, Ukraine",50.65169827,26.50027581,Ostrog,10,Q4242161,uk:Крупа (Україна),337517822,Miasto Krupa z p.,0,
475,Sokoł,סוקול,Wolyn,WLN,Łucki,WLN_1,292,,,,WLN_SOKOL,"Sokil, Rozhyshche Raion, Volyn Oblast, Ukraine",51.0449845,25.3379618,Wlodzimierz,8,Q762209,uk:Сокіл (Луцький район),30720258,Miasto Sokoł z p.,0,
476,Janowka,ינובקה,Wolyn,WLN,Łucki,WLN_1,52,,,,WLN_JANOWKA,"Ivanivka, Korets Raion, Rivne Oblast, Ukraine",51.11542931618657,25.264125202333762,Luck,8,,,,Miasto Janowka z Wielickiem miasteczka,0,
477,Hulewiczow,הולביצ׳וב,Wolyn,WLN,Łucki,WLN_1,151,,,,WLN_HULEWICZE,"Hulevychi, Kovel Raion, Volyn Oblast, Ukraine",51.2589866,25.2208645,Luck,8,,,,Miasteczko Hulewiczow z p.,0,
478,Tuczyn,טוצ'ין,Wolyn,WLN,Łucki,WLN_1,514,,,,WLN_TUCZYN,"Tuchyn, Rivne Oblast, Ukraine",50.7044223,26.5739782,Ostrog,10,Q610779,uk:Тучин,337517700,Miasto Tuczyn z p.,0,
479,Stepan,סטפאן (יישוב),Wolyn,WLN,Łucki,WLN_1,1138,,,,WLN_STEPAN,"Stepan, Sarny Raion, Rivne Oblast, Ukraine",51.1333765,26.3062356,Ostrog,10,Q46511,uk:Степань,4559317,Miasto Stepan z p.,0,
480,Międzyrzec Korzecki,מזריטש,Wolyn,WLN,Łucki,WLN_1,996,,,,WLN_MIEDZYRZECKORECKI,"Velyki Mezhyrichi, Korets Raion, Rivne Oblast, Ukraine",50.6548909,26.8652272,Ostrog,10,,,,Miasto Międzyrzec Korzecki z p.,0,
481,Klewań,קלוואן,Wolyn,WLN,Łucki,WLN_1,973,,,,WLN_KIEW,"Klevan, Klevan Settlement Hromada, Rivne Raion, Rivne Oblast, Ukraine",50.7464848,26.006327,Luck,8,Q250591,uk:Клевань,12219468,Miasto Klewań z p.,0,
482,"Ostrog, Międzyrzec",אוסטרוג (אוסטראה),Wolyn,WLN,Łucki,WLN_1,2429,,,,WLN_OSTROGMIEDZYRZEC,"Mezhyrich, Ostroh Raion, Rivne Oblast, Ukraine",50.2988723,26.475667,Ostrog,10,,,,Miasto Ostrog z Międzyrzecem y parafiami,0,
483,Bereszno,ברזנה,Wolyn,WLN,Łucki,WLN_1,391,,,,WLN_BEREZNO,"Berezne, Rivne Oblast, Ukraine",50.9996233,26.750679,Ostrog,10,Q148910,uk:Березне,5644067,Miasto Bereszno z p.,0,
484,Stobychwa,סטוביחבה,Wolyn,WLN,Łucki,WLN_1,227,,,,WLN_STOBYCHWA,"Stobychva, Kamin-Kashyrskyi Raion, Volyn Oblast, Ukraine",51.4,25.18333333,Kowel,8,,,,Miasto Stobychwa z p.,0,
485,Łobaczowka,לובצ׳ובקא,Wolyn,WLN,Łucki,WLN_1,68,,,,WLN_LOBACZOWKA,"Lobachivka, Horokhiv Raion, Volyn Oblast, Ukraine",50.4190914,24.9700526,Wlodzimierz,17,Q547697,uk:Лобачівка,30722636,Miasto Łobaczowka z p.,0,
486,Torczyn,טורצ'ין,Wolyn,WLN,Łucki,WLN_1,640,,,,WLN_TORCZYN,"Torchyn, Lutsk Raion, Volyn Oblast, Ukraine",50.7649202,25.0034405,Wlodzimierz,17,Q2469901,uk:Торчин (смт),30736942,Miasto Torczyn z p.,0,
487,Horochow,הורוכוב,Wolyn,WLN,Łucki,WLN_1,1023,,,,WLN_HOROCHOW,"Horokhiv, Volyn Oblast, Ukraine",50.4965033,24.7629614,Wlodzimierz,17,Q148974,uk:Горохів,3590711,Miasto Horochow z p.,0,
488,Beresteczko,ברסטצ'קה,Wolyn,WLN,Łucki,WLN_1,872,,,,WLN_BERESTECZKO,"Berestechko, Volyn Oblast, Ukraine",50.3633974,25.1107868,Wlodzimierz,17,Q819126,uk:Берестечко,2681721,Miasto Beresteczko z p.,0,
489,Milatyn,מילטין,Wolyn,WLN,Łucki,WLN_1,345,,,,WLN_MIASTYN,"Myastyn, Volyn Oblast, Ukraine",50.55914991,24.54061198,Wlodzimierz,17,Q919821,uk:Милятин (Володимирський район),30722176,Miasto Milatyn z p.,0,
490,Druszkopol,דרוז'קופול,Wolyn,WLN,Łucki,WLN_1,195,,,,WLN_DRUZKOPL,"Druzhkopil, Horokhiv Raion, Volyn Oblast, Ukraine",50.4670241,24.8685716,Wlodzimierz,17,,,,Miasto Druszkopol z p.,0,
491,Annopol,האנופיל,Wolyn,WLN,Łucki,WLN_1,807,,,,WLN_ANNOPOL,"Hannopil, Slavuta Raion, Khmelnytskyi Oblast, Ukraine",50.4520296,26.8959388,Ostrog,10,,,,Miasto Annopol z p.,0,
492,Łęczna,לנצ'נה,Wolyn,WLN,Łucki,WLN_1,82,,,,WLN_LECZNA,"Lichne, Kivertsi Raion, Volyn Oblast, Ukraine",50.8923325,25.7111426,Ostrog,8,,,,Miasto Łęczna z p.,0,
493,Michołowka,מיכולובקא,Wolyn,WLN,Łucki,WLN_1,59,,,,WLN_MICHALOWKA,"Mykhailivka, Rivne Oblast, Ukraine",50.51180443,25.18035988,Wlodzimierz,17,,,,Miasto Michołowka z p.,0,
494,Beresznica,ברז'ניצה,Wolyn,WLN,Łucki,WLN_1,385,,,,WLN_BEREZSZNICA,"Berezhnytsia, Sarny Raion, Rivne Oblast, Ukraine",51.2828982,26.6970732,Ostrog,10,,,,Miasto Beresznica z p.,0,
495,Włodzimirzec,ולדימירץ,Wolyn,WLN,Łucki,WLN_1,159,,,,WLN_WLODZIMIERZEC,"Volodymyrets, Volodymyrets Settlement Hromada, Varash Raion, Rivne Oblast, 34300, Ukraine",51.4197839,26.1392078,Ostrog,10,Q2658213,uk:Володимирець,3075884,Miasto Włodzimirzec z p.,0,
496,Ołyka,אוליקה,Wolyn,WLN,Łucki,WLN_1,646,,,,WLN_OLYKA,"Olyka, Kivertsi Raion, Volyn Oblast, Ukraine",50.7113724,25.8291867,Luck,8,Q1050383,uk:Олика,2441768,Miasto Ołyka z p.,0,
497,Berezdow,ברזדיו,Wolyn,WLN,Łucki,WLN_1,380,,,,WLN_BEREZDOW,"Berezdiv, Slavuta Raion, Khmelnytskyi Oblast, Ukraine",50.4559949,27.1194895,Ostrog,10,Q2040277,uk:Берездів,14636124,Miasto Berezdow z p.,0,
498,Kołki,קולקי,Wolyn,WLN,Łucki,WLN_1,271,,,,WLN_KOLKI,"Kolky, Manevychi Raion, Volyn Oblast, Ukraine",51.099558,25.6723777,Luck,8,Q1010088,uk:Колки (смт),3806281,Miasto Kołki z p.,0,
499,Czartorysk,סטארי צ'ורטוריסק,Wolyn,WLN,Łucki,WLN_1,473,,,,WLN_CZARTORYSK,"Staryi Chortoryisk, Manevychi Raion, Volyn Oblast, Ukraine",51.2261947,25.8712138,Luck,8,Q1007758,uk:Чарторийськ,30723699,Miasto Czartorysk z p.,0,
501,Włodzimierz,לודמיר,Wolyn,WLN,Włodzimirski.,WLN_2,1733,,,,WLN_WLODZIMIERZ,"Volodymyr, Volyn Oblast, Ukraine",50.8481952,24.3256569,Wlodzimierz,17,Q33544,uk:Володимир-Волинський,2000000,Miasto Włodzimierz z parafiami,0,
502,Kiszelin,קיסיילין,Wolyn,WLN,Włodzimirski.,WLN_2,293,,,,WLN_KISIELIN,"Kysylyn, Lokachi Raion, Volyn Oblast, Ukraine",50.8573227,24.810282,Wlodzimierz,17,Q2065713,uk:Кисилин,30722046,Miasto Kiszelin z p.,0,
503,Kowel,קובל,Wolyn,WLN,Włodzimirski.,WLN_2,1516,,,,WLN_KOWEL,"Kovel, Volyn Oblast, Ukraine",51.209018,24.6980251,Kowel,4,Q156704,uk:Ковель,2814537,Miasto Kowel z p.,0,
504,Ozdiutycze,אוזדזיוטיצה /אוזדיוטיץ,Wolyn,WLN,Włodzimirski.,WLN_2,145,,,,WLN_OZDZIUTYCZE,"Ozdychi, Lokachi Raion, Volyn Oblast, Ukraine",50.7653066,24.7213626,Wlodzimierz,17,,,,Miasto Ozdiutycze z p.,0,
505,Jeziorzany,יזייז'אני (אוז'יראן),Wolyn,WLN,Włodzimirski.,WLN_2,84,,,,WLN_JEZIORZANY,"Ozeryany, Turiisk Raion, Volyn Oblast, Ukraine",51.0191396,24.8124263,Wlodzimierz,17,,,,Miasto Jeziorzany z p.,0,
506,Niesuchocze,נסכיז',Wolyn,WLN,Włodzimirski.,WLN_2,470,,,,WLN_NIESUCHOIZE,"Volia, Kovel Raion, Volyn Oblast, Ukraine",51.3780967,24.8329046,Kowel,4,,,,Miasto Niesuchocze z p.,0,
507,Kamień Koszyrski,קאמין-קושירסקי,Wolyn,WLN,Włodzimirski.,WLN_2,440,,,,WLN_KAMIENKOSZYRSKI,"Kamin-Kashyrskyi, Volyn Oblast, Ukraine",51.6288118,24.9688475,Kowel,4,Q1000461,uk:Камінь-Каширський,2608002,Miasto Kamień Koszyrski z p.,0,
508,Łokacze,לוקאצ'י,Wolyn,WLN,Włodzimirski.,WLN_2,907,,,,WLN_LOKACZE,"Lokachi, Volyn Oblast, Ukraine",50.7402117,24.6486753,Wlodzimierz,17,Q1996325,uk:Локачі,3680809,Miasto Łokacze z p.,0,
509,Uściłuk,אוסטילוג,Wolyn,WLN,Włodzimirski.,WLN_2,358,,,,WLN_USTILUG,"Ustyluh, Volyn Oblast, Ukraine",50.8609275,24.1551215,Wlodzimierz,17,Q147292,uk:Устилуг,3308250,Miasto Uściłuk z p.,0,
510,Turzysk,טוריסק,Wolyn,WLN,Włodzimirski.,WLN_2,874,,,,WLN_TURZYSK,"Turiisk, Volyn Oblast, Ukraine",51.0888325,24.5270695,Wlodzimierz,17,Q1996528,uk:Турійськ,3665312,Miasto Turzysk z p.,0,
511,Swiniuchy,סוויניוחי,Wolyn,WLN,Włodzimirski.,WLN_2,234,,,,WLN_SWINIUCHY,"Pryvitne, Lokachi Raion, Volyn Oblast, Ukraine",50.6391354,24.7479057,Wlodzimierz,17,Q2065596,uk:Привітне (Володимир-Волинський район),30736993,Miasto Swiniuchy z p.,0,
512,Poryck,פבליבקה,Wolyn,WLN,Włodzimirski.,WLN_2,367,,,,WLN_PORYCK,"Pavlivka, Ivanychi Raion, Volyn Oblast, Ukraine",50.6211008,24.4598077,Wlodzimierz,17,Q2065690,uk:Павлівка (Володимирський район),3448077,Miasto Poryck z p.,0,
514,Konstantynow,סטרוקונסטנטינוב,Wolyn,WLN,Krzemieniecki.,WLN_3,1801,,,,WLN_KONSTANTYNOW,"Starokostiantyniv, Khmelnytskyi Oblast, Ukraine",49.7546828,27.2121595,Ostrog,10,Q997429,uk:Старокостянтинів,3353648,Miasto Konstantynow Stary i nowy z parafiami,0,
515,Wiśniowiec,וישנייווייץ,Wolyn,WLN,Krzemieniecki.,WLN_3,664,,,,WLN_WISNOWIEC,"Vyshnivets, Ternopil Oblast, Ukraine",49.906138,25.7444554,Krzemieniec,5,Q2993487,uk:Вишнівець,3166784,Miasto Wiśniowiec Stary i nowy z p.,0,
516,Werba,ורבה,Wolyn,WLN,Krzemieniecki.,WLN_3,181,,,,WLN_WERBA,"Verba, Dubno Raion, Rivne Oblast, Ukraine",50.2715882,25.6055107,Krzemieniec,5,Q2599119,uk:Верба (Дубенський район),337525256,Miasto Werba z p.,0,
517,Ptycza,פטיץ',Wolyn,WLN,Krzemieniecki.,WLN_3,112,,,,WLN_PLYCZA,"Ptycha, Dubno Raion, Rivne Oblast, Ukraine",50.3019263,25.6171548,Krzemieniec,5,Q4383141,uk:Птича,3936072,Miasto Ptycza z p.,0,
518,Połonne,פולין,Wolyn,WLN,Krzemieniecki.,WLN_3,653,72,villages,Połonne stare Breakdown,WLN_POLONNE,"Polonne, Khmelnytskyi Oblast, Ukraine",50.1224689,27.506767,Ostrog,10,,,,Miasto Połonne stare z Wolą y Przed. Wol.,0,
519,"Maryan, Tarnow",,Wolyn,WLN,Krzemieniecki.,WLN_3,94,,,Połonne stare Breakdown,WLN_MARJANTARNOW,"Marianivka, Baranivka Raion, Zhytomyr Oblast, Ukraine",50.58673377,27.61083872,Ostrog,10,,,,Miasto Maryanz Tarnowem,0,
520,Kamienczyc,קמיינצ׳יק,Wolyn,WLN,Krzemieniecki.,WLN_3,150,,,Połonne stare Breakdown,WLN_KAMIENCZYK,"Kamianky, Pidvolochysk Raion, Ternopil Oblast, Ukraine",49.77603889,25.97227193,Ostrog,5,,,,Miasto Kamienczyc,0,
521,Połonne,פולין,Wolyn,WLN,Krzemieniecki.,WLN_3,344,,,,WLN_POLONNE,"Polonne, Khmelnytskyi Oblast, Ukraine",50.1224689,27.506767,Ostrog,10,,,,Miasto Połonne nowe,0,
522,Baranowka,ברניבקה,Wolyn,WLN,Krzemieniecki.,WLN_3,142,,,,WLN_BARANOWKA,"Baranivka, Zhytomyr Oblast, Ukraine",50.11749489,27.51959694,Ostrog,10,Q148917,uk:Баранівка,289807278,Miasto Baranowka z wsiami,0,
523,Ostropol,אוסטרופולי,Wolyn,WLN,Krzemieniecki.,WLN_3,58,,,,WLN_OSTROPOL,"Staryi Ostropil, Starokostiantyniv Raion, Khmelnytskyi Oblast, Ukraine",49.8077202,27.5558184,Ostrog,10,Q1012604,uk:Старий Остропіль,337544267,Miasto Ostropol,0,
524,Sudyłkow,סודילקוב,Wolyn,WLN,Krzemieniecki.,WLN_3,397,,,,WLN_SUDYLKOW,"Sudylkiv, Shepetivka Raion, Khmelnytskyi Oblast, Ukraine",50.1724534,27.1352444,Ostrog,10,Q4445436,uk:Судилків,14697728,Miasto Sudyłkow z p.,0,
