line_id,name,enc_name,modern_name,dist,olat,olon,lat,lon,display_name,osm_id,wikidata_id,name_he,name_sim,match_status
1,Pytalovo,ABRENE,Pytalovo,Ostrov,57.06666667,27.9,57.062908,27.921061,"Пыталово, Пыталовский муниципальный округ, Псковская область, Северо-Западный федеральный округ, 181410, Россия",769891862.0,Q184361,,1.0,matched_nominatim
2,Adamów,ADAMOW,Adamów,Lukow,51.73333333,22.26666667,51.7436921,22.2623567,"Adamów, gmina Adamów, powiat łukowski, województwo lubelskie, 21-412, Polska",362658040.0,Q2035593,,1.0,matched_nominatim
3,Gazenpot,AIZPUTE,Aizpute,Gazenpot,56.71666667,21.6,56.7226275,21.6067429,"Aizpute, Latvija",29488931.0,Q411723,אייזפוטה,0.875,matched_db_api
4,Akhtyrka,AKHTYRKA,Okhtyrka,Akhtyrka,50.31666667,34.9,50.3115386,34.8868923,"Охтирка, Охтирська міська громада, Охтирський район, Сумська область, 42700, Україна",337524775.0,Q1013471,אוחטירקה,1.0,matched_nominatim
5,Oknista,AKNISTE,Jēkabpils novads,Novoaleksandrovsk,56.16666667,25.75,56.1614742,25.7483539,"Aknīste, Latvija",360624803.0,Q420333,,1.0,matched_db_api
6,Aleksandriia,ALEKSANDRIA,Oleksandriia,Rovno,50.73333333,26.35,50.731873,26.3455835,"Олександрія, Олександрійська сільська громада, Рівненський район, Рівненська область, 35320, Україна",337517126.0,Q4061016,,1.0,matched_nominatim
7,Aleskandrów,ALEKSANDROW,Aleksandrów Łódzki,Lodz,51.81666667,19.3,51.8196533,19.3035375,"Aleksandrów Łódzki, powiat zgierski, województwo łódzkie, Polska",31881622.0,Q664371,,1.0,matched_refined
8,Aleksandrów,ALEKSANDROW-KUJAWSKI,Aleksandrów Kujawski,Nieszawa,52.86666667,18.7,52.8672734,18.6987741,"Aleksandrów Kujawski, powiat aleksandrowski, województwo kujawsko-pomorskie, Polska",3009676685.0,Q118596535,,0.917,matched_db_api
9,Aleksandreny,ALEXANDRENI,Alexăndreni,Bieltsy,47.8,28.06666667,47.8103129,28.0837775,"Alexăndreni, Moldova",281161097.0,Q2448236,,1.0,matched_db_api
10,Aleksandriia,ALEXANDRIA,Oleksandriia,Aleksandriia,48.66666667,33.11666667,48.670609,33.1169742,"Олександрія, Олександрійська міська громада, Олександрійський район, Кіровоградська область, Україна",337589760.0,Q156734,אולקסנדריה,1.0,matched_nominatim
11,Aleksandrovka,ALEXANDROVKA,Oleksandrivka,Chigirin,48.96666667,32.23333333,48.9658966,32.2336364,"Олександрівка, Олександрівська селищна громада, Кропивницький район, Кіровоградська область, 27314, Україна",337578545.0,Q1999866,,1.0,matched_nominatim
12,Allenstein,ALLENSTEIN,Olsztyn,Olsztyn,53.78333333,20.48333333,53.7766839,20.476507,"Olsztyn, województwo warmińsko-mazurskie, Polska",32566103.0,Q82765,אולשטין,1.0,matched_db_api
13,Olava,ALOVE,Slabadėlė,Troki,54.35,24.2,54.3501313,24.1734127,"Alovė, Alovės seniūnija, Alytaus apskritis, Lietuva",944007716.0,Q7297277,,0.8,matched_db_api
14,Olsiady,ALSEDZIAI,Alsėdžiai,Telshi,56.03333333,22.05,56.0288687,22.048205,"Alsėdžiai, Alsėdžių seniūnija, Telšių apskritis, Lietuva",1550846401.0,Q4735905,אלסיאד,1.0,matched_db_api
15,Altdamm,ALTDAMM,Szczecin,Pommern,53.4,14.66666667,53.4005206,14.6718496,"Szczecin, województwo zachodniopomorskie, Polska",252419296.0,Q878458,,1.0,matched_db_api
16,Altynovka,ALTINOVKA,Altynivka,Krolevets,51.45,33.18333333,51.4534194,33.1894527,"Алтинівка, Кролевецька міська громада, Конотопський район, Сумська область, 41346, Україна",209397250.0,Q4063057,,1.0,matched_nominatim
17,Aluksna,ALUKSNE,Alūksne,Valk,57.41666667,27.05,57.4204759,27.0505075,"Alūksne, Alūksnes novads, LV-4301, Latvija",180310845.0,Q291333,אלוקסנה,0.857,matched_nominatim
18,Ovanta,ALUNTA,Duobytė,Vilkomir,55.35,25.3,55.3512359,25.293029,"Duobytė, Alantos seniūnija, Utenos apskritis, Lietuva",436965091.0,Q4708295,,0.833,matched_db_api
19,Ananev,ANANEV,Ananiv,Ananev,47.71666667,29.96666667,47.7161562,29.9634987,"Ананьїв, Ананьївська міська громада, Подільський район, Одеська область, 66422, Україна",337671196.0,Q485891,אננייב,1.0,matched_nominatim
20,Andrushovka,ANDRUSHEVKA,Andrushivka,Zhitomir,50.01666667,29.01666667,50.0301392,29.0222111,"Андрушівка, Андрушівська міська громада, Бердичівський район, Житомирська область, 13400-13405, Україна",337536703.0,Q148909,,0.957,matched_nominatim
21,Andrychów,ANDRYCHOW,Andrychów,Wadowice,49.85,19.35,49.8555791,19.3436756,"Andrychów, gmina Andrychów, powiat wadowicki, województwo małopolskie, Polska",2691012.0,Q984857,,1.0,matched_refined
22,Andruseevo,ANDRZEJEWO,Ruskołęka-Parcele,Ostrov,52.85,22.16666667,52.8305612,22.2006931,"Andrzejewo, gmina Andrzejewo, powiat ostrowski, województwo mazowieckie, 07-305, Polska",692602144.0,Q2265672,,1.0,matched_refined
23,Andrzejów,ANDRZEJOW,Janówka,Brzeziny,51.73333333,19.68333333,51.7435866,19.6194327,"Andrzejów, Łódź-Widzew, Łódź, województwo łódzkie, Polska",17607431.0,,,1.0,matched_refined
24,Angerburg,ANGERBURG,Węgorzewo,Wegorzewo,54.21666667,21.73333333,54.2138162,21.7416569,"Węgorzewo, powiat węgorzewski, województwo warmińsko-mazurskie, Polska",31518767.0,Q751153,,1.0,matched_db_api
25,Anklam,ANKLAM,Anklam,Pommern,53.86666667,13.7,53.8560526,13.688091,"Anklam, Vorpommern-Greifswald, Mecklenburg-Vorpommern, Deutschland",89777851.0,Q488513,,1.0,matched_db_api
26,Annopol,ANNOPOL,Hannopil,Ostrog,50.45,26.9,50.4526337,26.8975265,"Ганнопіль, Ганнопільська сільська громада, Шепетівський район, Хмельницька область, 30030, Україна",360697478.0,Q4066768,,1.0,matched_nominatim
27,Annopol,ANNOPOL-RACHOW,Opoczka Mała,Janow,50.88333333,21.85,50.8851655,21.8550836,"Annopol, powiat kraśnicki, województwo lubelskie, Polska",371978037.0,Q567332,,1.0,matched_db_api
28,Antanava,ANTANAVAS,Užpilviai,Mariampol,54.71666667,23.28333333,54.7044383,23.3072325,"Antanavas, Antanavo seniūnija, Marijampolės apskritis, Lietuva",762788548.0,Q5576448,,0.941,matched_db_api
29,Antoniny,ANTONINY,Antoniny,Zaslavl,49.8,26.86666667,49.81029,26.86466,"Антоніни, Хмельницька область, Україна",337544206.0,Q599421,,1.0,matched_db_api
30,Antonovka,ANTONOVKA,Malyatsitski selski Savet,Cherikov,53.85,31.51666667,,,,,,,,not_found
31,Antonovka,ANTONOWKA,Mala Liubasha Rural Hromada,Rovno,50.8,26.5,50.8058627,26.4758562,"Малолюбашанська сільська громада, Рівненська область, Україна",4295225333.0,,,0.889,matched_db_api
32,Onikshty,ANYKSCIAI,Anykščiai,Vilkomir,55.53333333,25.1,55.5257935,25.1061247,"Pašventupys, Anykščių seniūnija, Utenos apskritis, Lietuva",251280020.0,Q505416,,0.875,matched_db_api
33,Appengof,APE,Smiltenes novads,Valk,57.53333333,26.66666667,57.5404485,26.6904607,"Ape, Latvija",560248969.0,Q618119,,1.0,matched_refined
34,Pokrovskoe,APOSTOLOVO,Apostolove,Kherson,47.66666667,33.73333333,47.6617478,33.7180001,"Апостолове, Апостолівська міська громада, Криворізький район, Дніпропетровська область, 53800-53804, Україна",337672588.0,Q475572,,1.0,matched_refined
35,Staro-Artsiz,ARCIZ,Artsyzka miska hromada,Akkerman,45.98333333,29.41666667,45.9962017,29.431517,"Арциз, Арцизька міська громада, Болградський район, Одеська область, Україна",191255341.0,Q719051,,1.0,matched_refined
36,Eirogola,ARIOGALA,Ariogala,Kovno,55.26666667,23.46666667,55.2626507,23.4828053,"Ariogala, Ariogalos miesto seniūnija, Kauno apskritis, Lietuva",1874890686.0,Q1004320,אירגולה,1.0,matched_refined
37,Armianskii bazar,ARMYIANSK,Armyansk,Perekop,46.1,33.7,46.1039146,33.690787,"Армянск, Перекопський район, Республика Крым, 296012, Україна",30716086.0,Q688716,,1.0,matched_refined
38,Bakhmut,ARTIOMOVSK,Bakhmut,Bakhmut,48.58333333,38.0,48.5894123,38.0020994,"Бахмут, Донецька область, Україна",256613679.0,Q706857,באחמוט,1.0,matched_db_api
39,Autse,AUCE,Dobeles novads,Tukkum,56.46666667,22.88333333,56.4652968,22.8960281,"Auce, Latvija",278826695.0,Q758578,,1.0,matched_db_api
40,Avgustov,AUGUSTOW,Augustów,Avgustov,53.85,23.0,53.8437331,22.9802357,"Augustów, powiat augustowski, województwo podlaskie, Polska",1755364645.0,Q464763,אוגוסטוב,1.0,matched_db_api
41,Vysokii dvor,AUKSTADVARIS,Aukštadvaris,Troki,54.58333333,24.53333333,54.5804193,24.5279233,"Aukštadvaris, Aukštadvario seniūnija, Vilniaus apskritis, Lietuva",80031267.0,Q2667459,,1.0,matched_refined
42,Poniemov,AUKSTOJI-PANEMUNE,Kaunas,Mariampol,54.85,23.96666667,54.861111,23.963889,"Kaunas, Kauno miesto savivaldybė, Kauno apskritis, Lietuva",504533209.0,Q7130845,,0.875,matched_db_api
43,Aurelów,AURELOW,Kłomnice,Noworadomsk,50.91666667,19.35,50.9183784,19.3382171,"Aurelów, Kłomnice, gmina Kłomnice, powiat częstochowski, województwo śląskie, 42-270, Polska",31903005.0,,,1.0,matched_nominatim
44,Debova Buda,AZUOLU BUDA,Ąžuolų Būda,Mariampol,54.7,23.51666667,54.7056225,23.5268884,"Ąžuolų Būda, Kazlų Rūdos seniūnija, Kazlų Rūdos savivaldybė, Marijampolės apskritis, Lietuva",1666720577.0,Q12679079,,0.909,matched_nominatim
45,Babanka,BABENKA,Svynarka,Uman,48.7,30.45,48.7070412,30.4507396,"Бабанка, Бабанська селищна громада, Уманський район, Черкаська область, 20351, Україна",337588320.0,Q74487,,1.0,matched_nominatim
46,Babiak,BABIAK,Ozorzyn,Kolo,52.35,18.66666667,52.344523,18.6667068,"Babiak, gmina Babiak, powiat kolski, województwo wielkopolskie, 62-620, Polska",31628019.0,Q797673,,1.0,matched_nominatim
47,Babinovichi,BABINOVICHI,Babinavitski selski Savet,Orsha,54.83333333,30.58333333,54.8327502,30.5761621,"Бабінавічы, Лёзненскі раён, Віцебская вобласць, Беларусь",243042608.0,Q1066728,,1.0,matched_db_api
48,Bobty,BABTAI,Babtai,Kovno,55.1,23.8,55.0951974,23.8116598,"Babtai, Babtų seniūnija, Kauno rajono savivaldybė, Kauno apskritis, Lietuva",2346484077.0,Q10954990,,1.0,matched_nominatim
49,Baczki,BACZKI,Baczki,Wegrow,52.53333333,21.78333333,52.5356999,21.7739969,"Baczki, gmina Łochów, powiat węgrowski, województwo mazowieckie, 07-130, Polska",692617388.0,Q4840119,,1.0,matched_nominatim
50,Polzin,BAD POLZIN,Połczyn-Zdrój,Pommern,53.75,16.08333333,53.7648981,16.0952705,"Połczyn-Zdrój, powiat świdwiński, województwo zachodniopomorskie, Polska",1758659758.0,Q772458,,1.0,matched_refined
51,Baevo,BAEVO,Zarubski selski Savet,Gorki,54.48333333,31.11666667,54.4874149,31.1081293,"Зарубскі сельскі Савет, Дубровенскі раён, Віцебская вобласць, Беларусь",243044603.0,Q6466447,,1.0,matched_db_api
52,Beisagola,BAISOGALA,Baisogala,Shavli,55.63333333,23.71666667,55.6389254,23.7231195,"Baisogala, Baisogalos seniūnija, Šiaulių apskritis, Lietuva",863077307.0,Q2317525,,0.889,matched_db_api
53,Bakalarzhevo,BAKALARZEWO,Bakałarzewo,Suvalki,54.1,22.65,54.0937511,22.6516364,"Bakałarzewo, powiat suwalski, województwo podlaskie, Polska",1860825685.0,Q804268,,0.87,matched_db_api
54,Bakhchisarai,BAKHCHISARAY,Bakhchysarai,Simferopol,44.75,33.86666667,44.7451986,33.848728,"Бахчисарай, городское поселение Бахчисарай, Бахчисарайский район, Республика Крым, 98400-98408, Україна",292995540.0,Q158604,,1.0,matched_nominatim
55,Bakhmach,BAKHMACH,Bakhmach,Konotop,51.21666667,32.76666667,51.194908,32.76054,"Бахмач, Бахмацька міська громада, Ніжинський район, Чернігівська область, 16503, Україна",337510816.0,Q4079833,,1.0,matched_nominatim
56,Bakshty,BAKSZTY,Bakshtauski selski Savet,Oshmiany,53.93333333,26.18333333,53.9374669,26.1849282,"Бакшты, Іўеўскі раён, Гродзенская вобласць, Беларусь",242994884.0,Q18755585,,1.0,matched_db_api
57,Balabanovka,BALABANOVKA,Balabanivka,Lipovets,49.11666667,29.61666667,49.112659,29.613649,"Балабанівка, Оратівська селищна громада, Вінницький район, Вінницька область, 22653, Україна",337571558.0,Q4076208,,1.0,matched_nominatim
58,Balaklava,BALAKLAVA,Balaklava,Sevastopol,44.5,33.6,44.5121316,33.5990374,"Балаклава, Балаклавский округ, Балаклавский район, Севастополь, Україна",266318137.0,Q748363,בלקלאווה,1.0,matched_nominatim
59,Balverzhishki,BALBIERISKIS,Pabrasčiai,Mariampol,54.53333333,23.88333333,54.5149138,23.8908596,"Geruliai, Balbieriškio seniūnija, Kauno apskritis, Lietuva",1154579904.0,Q2845251,,0.8,matched_db_api
60,Baligród,BALIGROD,Baligród,Lisko,49.33333333,22.28333333,49.3367963,22.2866341,"Baligród, powiat leski, województwo podkarpackie, Polska",692614011.0,Q3496277,,1.0,matched_db_api
61,Balin,BALLIN,Balyn,Kamenets-Podolsk,48.86666667,26.68333333,48.877831,26.67721,"Балин, Смотрицька селищна громада, Кам’янець-Подільський район, Хмельницька область, 32440, Україна",337581898.0,Q4076614,,1.0,matched_nominatim
62,Bolniki,BALNINKAI,Balninkai,Vilkomir,55.3,25.13333333,55.2944132,25.121159,"Balninkai, Balninkų seniūnija, Utenos apskritis, Lietuva",418339772.0,Q2126478,,1.0,matched_db_api
63,Balta,BALTA,Balta,Balta,47.93333333,29.61666667,47.9363162,29.6225979,"Балта, Балтська міська громада, Подільський район, Одеська область, 66100-66105, Україна",304715783.0,Q805554,,1.0,matched_nominatim
64,Beltsy,BALTI,Bălți,Bieltsy,47.76666667,27.93333333,47.7623952,27.9286022,"Bălți, Moldova",266185307.0,Q37801,בלץ,1.0,matched_db_api
65,Bar,BAR,Bar,Mogilev,49.06666667,27.66666667,49.077621,27.6813781,"Бар, Вінницька область, Україна",337573492.0,Q737925,,1.0,matched_db_api
66,Baran,BARAN,Baran,Orsha,54.48333333,30.31666667,54.4791845,30.315932,"Барань, Аршанскі раён, Віцебская вобласць, Беларусь",242979085.0,Q286964,,1.0,matched_db_api
67,Baranów,BARANOW (I),Baranów Sandomierski,Tarnobrzeg,50.48333333,21.53333333,50.4994982,21.5417887,"Baranów Sandomierski, powiat tarnobrzeski, województwo podkarpackie, Polska",31899479.0,Q807271,,1.0,matched_refined
68,Baranów,BARANOW (II),Baranów,Pulawy,51.56666667,22.15,51.5575254,22.1358528,"Baranów, powiat puławski, województwo lubelskie, Polska",1911965509.0,Q2147121,,1.0,matched_db_api
69,Baranovichi,BARANOWICZE,Baranavichy,Novogrudok,53.13333333,26.03333333,53.1322925,26.0184156,"Баранавічы, Брэсцкая вобласць, Беларусь",242978911.0,Q237655,ברנוביץ',1.0,matched_db_api
70,Barashi,BARASHI,Barashi,Zhitomir,50.71666667,28.01666667,50.712551,28.029209,"Бараші, Барашівська сільська громада, Звягельський район, Житомирська область, 11255, Україна",337517468.0,Q4077969,,1.0,matched_nominatim
71,Barstichai,BARSTYCIAI,Barstyčiai,Telshi,56.16666667,21.86666667,56.1608372,21.8730004,"Barstyčiai, Barstyčių seniūnija, Klaipėdos apskritis, Lietuva",751829269.0,Q1810033,,0.952,matched_db_api
72,Bartenstein,BARTENSTEIN,Bartoszyce,Frydlad,54.25,20.81666667,54.2523708,20.8143702,"Bartoszyce, powiat bartoszycki, województwo warmińsko-mazurskie, Polska",31527468.0,Q809585,,1.0,matched_db_api
73,Bartniki,BARTININKAI,Bartninkai,Volkovyshki,54.5,23.05,54.5030915,23.0271762,"Bartninkai, Bartninkų seniūnija, Marijampolės apskritis, Lietuva",823452210.0,Q2048260,,1.0,matched_db_api
74,Barysz,BARYSZ,Barysh,Buczacz,49.03333333,25.26666667,49.03129,25.27062,"Бариш, Тернопільська область, Україна",337575334.0,Q736537,,1.0,matched_db_api
75,Baryshevka,BARYSZEVKA,Baryshivka,Pereiaslav,50.36666667,31.33333333,50.3645295,31.3256722,"Баришівка, Київська область, Україна",337523450.0,Q763787,,1.0,matched_db_api
76,Botoki,BATAKIAI,Batakiai,Rossieny,55.35,22.51666667,55.3511799,22.5147203,"Batakiai, Batakių seniūnija, Tauragės apskritis, Lietuva",766719259.0,Q2692069,,1.0,matched_db_api
77,Batiatycze,BATIATYCZE,Batiatychi,Kamionka,50.1,24.26666667,50.1068908,24.2701156,"Батятичі, Кам'янка-Бузька міська громада, Львівський район, Львівська область, 80423, Україна",337534251.0,Q4079665,,1.0,matched_nominatim
78,Bausk,BAUSKA,Bauska,Bausk,56.4,24.18333333,56.4082863,24.1876674,"Bauska, Latvija",343697069.0,Q498256,,0.909,matched_db_api
79,Bazaliia,BAZALIYA,Bazaliia,Starokonstantinov,49.71666667,26.46666667,49.71382,26.47877,"Базалія, Хмельницька область, Україна",337548269.0,Q2629685,,1.0,matched_db_api
80,Bazar,BAZAR,Narodychi Urbad Hromada,Ovruch,51.05,29.3,51.045311,29.29393,"Базар, Народицька селищна громада, Коростенський район, Житомирська область, 11452, Україна",1078451134.0,Q2022610,,1.0,matched_nominatim
81,Podubis,BAZILIONAI,Didlaukė,Shavli,55.8,23.13333333,55.7954629,23.1414592,"Bazilionai, Bubių seniūnija, Šiaulių rajono savivaldybė, Šiaulių apskritis, Lietuva",712628343.0,Q2486533,,1.0,matched_refined
82,Begoml,BEGOML,Byahoml,Borisov,54.73333333,28.06666667,54.7327468,28.060805,"Бягомль, Докшыцкі раён, Віцебская вобласць, Беларусь",344174228.0,Q2987876,,1.0,matched_db_api
83,Bielaia Tserkov,BELAYA TSERKOW,Bila Tserkva,Vasilkov,49.78333333,30.11666667,49.7969703,30.1158069,"Біла Церква, Київська область, Україна",255259998.0,Q33342,בילה צרקווה,0.966,matched_db_api
84,Bielev,BELEV,Belyov,Bielev,53.81666667,36.13333333,53.811798,36.137001,"Белёв, городское поселение Белёв, Белёвский район, Тульская область, Центральный федеральный округ, 301532, Россия",49293649.0,Q104707,,0.909,matched_nominatim
85,Belgard,BELGARD,Białogard,Pommern,54.0,16.0,54.0064367,15.9870974,"Białogard, powiat białogardzki, województwo zachodniopomorskie, Polska",31347663.0,Q161919,,1.0,matched_db_api
86,Bielilovka,BELILOVKA,Bilylivka,Berdichev,49.68333333,29.03333333,49.680519,29.03446,"Білилівка, Ружинська селищна громада, Бердичівський район, Житомирська область, 13642, Україна",337549544.0,Q1994731,,0.947,matched_nominatim
87,Bełchatów,BELKHATOW,Bełchatów,Piotrkow,51.36666667,19.38333333,51.3667319,19.3694645,"Bełchatów, powiat bełchatowski, województwo łódzkie, Polska",1758913960.0,Q157992,,1.0,matched_db_api
88,Bielogorodka,BELOGORODKA,Bilohorodka,Zaslavl,50.0,26.63333333,50.007359,26.639441,"Білогородка, Ізяславська міська громада, Шепетівський район, Хмельницька область, 30343, Україна",337537394.0,Q1660287,,0.957,matched_nominatim
89,Bielopole,BELOPOLYE,Bilopillia,Berdichev,49.85,28.86666667,49.84531,28.86932,"Білопілля, Вінницька область, Україна",337543122.0,Q4082648,,0.941,matched_db_api
90,Bielyi,BELYI,Belyy,Bielyi,55.83333333,32.93333333,55.833073,32.939487,"Белый, Бельский муниципальный округ, Тверская область, Центральный федеральный округ, Россия",336306051.0,Q104984,,0.909,matched_nominatim
91,Bielynichi,BELYNICHI,Byalynichy,Mogilev,54.0,29.7,53.9982176,29.7099785,"Бялынічы, Бялыніцкі раён, Магілёўская вобласць, Беларусь",242978965.0,Q2630527,,0.947,matched_db_api
92,Belz,BELZ,Belz,Sokal,50.38333333,24.01666667,50.3823942,24.0127629,"Белз, Белзька міська громада, Шептицький район, Львівська область, Україна",527036873.0,Q156565,,1.0,matched_nominatim
93,Bełżyce,BELZHYCE,Podole,Lublin,51.18333333,22.28333333,51.175063,22.2749995,"Bełżyce, powiat lubelski, województwo lubelskie, Polska",31878133.0,Q854624,,1.0,matched_db_api
94,Będków,BENDKOW,Będków-Kolonia,Brzeziny,51.58333333,19.75,51.5882028,19.7447311,"Będków-Kolonia, powiat tomaszowski, województwo łódzkie, Polska",31881509.0,Q1824768,,1.0,matched_refined
95,Bendzin,BENDZIN,Będzin,Bedzin,50.33333333,19.11666667,50.3230785,19.1322201,"Będzin, powiat będziński, województwo śląskie, Polska",31902942.0,Q461513,,1.0,matched_db_api
96,Berdichev,BERDICHEV,Berdychiv,Berdichev,49.9,28.58333333,49.8940442,28.5814912,"Бердичів, Житомирська область, Україна",337541446.0,Q158799,,1.0,matched_db_api
97,Berestechko,BERESTECZKO,Pisky,Dubno,50.35,25.11666667,50.3585756,25.1209852,"Берестечко, Берестечківська міська громада, Луцький район, Волинська область, 45765, Україна",337523440.0,Q819126,,1.0,matched_nominatim
98,Berezdov,BEREZDOV,Berezdiv,Novograd-Volynskii,50.46666667,27.11666667,50.460449,27.116673,"Берездів, Берездівська сільська громада, Шепетівський район, Хмельницька область, 30053, Україна",1489631662.0,Q2040277,,1.0,matched_nominatim
99,Berezino,BEREZINO,Pahostski selski Savet,Igumen,53.85,29.0,53.8346711,28.9938174,"Беразіно, Бярэзінскі раён, Мінская вобласць, Беларусь",242978960.0,Q200833,,1.0,matched_db_api
100,Berezna,BEREZNA,Berezna,Chernigov,51.56666667,31.78333333,51.5778917,31.7902811,"Березна, Березнянська селищна громада, Чернігівський район, Чернігівська область, 15654, Україна",179418473.0,Q2473471,,1.0,matched_nominatim
101,Berezno,BEREZNE,Horodyshche,Rovno,51.0,26.75,51.0035653,26.7524487,"Березне, Березнівська міська громада, Рівненський район, Рівненська область, 34607, Україна",1186506546.0,Q148910,ברזנה,1.0,matched_nominatim
102,Bereznegovatyi,BEREZNEGOVATOE,Bereznehuvate,Kherson,47.3,32.85,47.308722,32.8486739,"Березнегувате, Березнегуватська селищна громада, Баштанський район, Миколаївська область, 56203, Україна",331637412.0,Q2446166,נהר טוב,0.857,matched_nominatim
103,Berezhnitsa,BEREZNICA,Berezhnytsia,Lutsk,51.43333333,26.46666667,51.440048,26.46607,"Бережниця, Дубровицька міська громада, Сарненський район, Рівненська область, 34164, Україна",337508161.0,Q4084328,,1.0,matched_nominatim
104,Berezovka,BEREZOVKA,Rozdol,Ananev,47.21666667,30.91666667,47.2016391,30.908595,"Березівка, Березівська міська громада, Березівський район, Одеська область, Україна",193430239.0,Q819103,,1.0,matched_nominatim
105,Berislav,BERISLAV,Beryslav,Kherson,46.83333333,33.41666667,46.8357749,33.416743,"Берислав, Бериславська міська громада, Бериславський район, Херсонська область, 74300, Україна",337686273.0,Q829317,בריסלב,1.0,matched_nominatim
106,Bershad,BERSHAD,Bershad,Olgopol,48.36666667,29.51666667,48.36594,29.51889,"Бершадь, Бершадська міська громада, Гайсинський район, Вінницька область, 24400-24404, Україна",207430698.0,Q827229,,1.0,matched_nominatim
107,Beshenkovichi,BESHENKOVICHI,Beshankovitski selski Savet,Lepel,55.03333333,29.46666667,55.0457981,29.4578212,"Бешанковічы, Бешанковіцкі раён, Віцебская вобласць, Беларусь",242978968.0,Q1033593,,1.0,matched_db_api
108,Betsche,BETSCHE,gmina Pszczew,Miedzyrzecz,52.46666667,15.76666667,52.4792371,15.7783386,"Pszczew, gmina Pszczew, powiat międzyrzecki, województwo lubuskie, 66-330, Polska",31613362.0,Q1003304,,1.0,matched_refined
109,Betygola,BETYGALA,Betygala,Kovno,55.36666667,23.36666667,55.3620812,23.3668782,"Betygala, Betygalos seniūnija, Kauno apskritis, Lietuva",444372788.0,Q2327069,,1.0,matched_db_api
110,Białaczów,BIALACHOW,Białaczów,Opoczno,51.3,20.3,51.298466,20.2949544,"Białaczów, powiat opoczyński, województwo łódzkie, Polska",31878125.0,Q4902737,,1.0,matched_db_api
111,Biała Podlaska,BIALA PODLASKA,Biała Podlaska,Biala,52.03333333,23.13333333,52.0338399,23.1193948,"Biała Podlaska, województwo lubelskie, Polska",31702832.0,Q209932,,1.0,matched_db_api
112,Biała Rawska,BIALA RAWSKA,Biała Rawska,Rawa,51.8,20.48333333,51.8075978,20.4720942,"Biała Rawska, powiat rawski, województwo łódzkie, Polska",31878124.0,Q148956,,1.0,matched_db_api
113,Białobrzegi,BIALOBRZEGI,Białobrzegi,Radom,51.65,20.95,51.6482305,20.9497458,"Białobrzegi, powiat białobrzeski, województwo mazowieckie, Polska",368033785.0,Q855976,,1.0,matched_db_api
114,Bialogon,BIALOGON,Kielce,Kielce,50.85,20.55,50.8536976,20.5531106,"Białogon, Kielce, województwo świętokrzyskie, 26-052, Polska",2147479879.0,,,1.0,matched_nominatim
115,Bialykamień,BIALY KAMIEN,Bilyi Kamin,Zloczow,49.9,24.83333333,49.8961704,24.8358088,"Білий Камінь, Золочівська міська громада, Золочівський район, Львівська область, 80710, Україна",337541376.0,Q2602343,,0.957,matched_nominatim
116,Bielostok,BIALYSTOK,Białystok,Bielostok,53.13333333,23.15,53.132398,23.1591679,"Białystok, województwo podlaskie, Polska",60038888.0,Q761,ביאליסטוק,0.941,matched_db_api
117,Biecz,BIECZ,Biecz,Gorlice,49.73333333,21.25,49.7305351,21.249421,"Biecz, powiat gorlicki, województwo małopolskie, Polska",1763537474.0,Q460971,,1.0,matched_db_api
118,Bielawy,BIELAWY,Bielawy,Lowicz,52.06666667,19.65,52.0750602,19.6568518,"Bielawy, gmina Bielawy, powiat łowicki, województwo łódzkie, 99-423, Polska",31711222.0,Q392339,,1.0,matched_nominatim
119,Bielitsy,BIELICA,Belitsa,Lida,53.65,25.31666667,53.651577,25.318424,"Беліца, Лідскі раён, Гродзенская вобласць, Беларусь",242989916.0,Q2429373,,0.8,matched_db_api
120,Bielopole,BIELOPOLIE,Bilopillia,Sumy,51.15,34.3,51.1460449,34.3121992,"Білопілля, Білопільська міська громада, Сумський район, Сумська область, 41800, Україна",337511281.0,Q591896,,0.941,matched_nominatim
121,Bielsk,BIELSK,Bielsk,Plock,52.66666667,19.8,52.6713156,19.8049119,"Bielsk, gmina Bielsk, powiat płocki, województwo mazowieckie, 09-230, Polska",279651512.0,Q4904511,,1.0,matched_nominatim
122,Biała,BIELSKO-BIALA,Bielsko-Biała,Bielsk,49.81666667,19.03333333,49.8072222,19.0866667,"Biała, Straconka, Bielsko-Biała, województwo śląskie, 43-300, Polska",3009690181.0,,,1.0,matched_nominatim
123,Bieżuń,BIEZUN,Kocewo,Sierpc,52.96666667,19.91666667,52.9617996,19.8899936,"Bieżuń, powiat żuromiński, województwo mazowieckie, Polska",283931972.0,Q858312,,1.0,matched_db_api
124,Bykovka,BIKOVKA,Sarnivka,Zhitomir,50.28333333,27.98333333,50.2927853,27.9746606,"Биківка, Романівська селищна громада, Житомирський район, Житомирська область, 13012, Україна",337525071.0,Q2670499,,1.0,matched_nominatim
125,Bilcze Złote,BILCZE ZLOTE,Bilche-Zolote,Brody,48.78333333,25.86666667,48.7752966,25.8779034,"Більче-Золоте, Тернопільська область, Україна",337586192.0,Q4086793,,1.0,matched_db_api
126,Biłgoraj,BILGORAI,Biłgoraj,Bilgoraj,50.55,22.7,50.5424846,22.7209326,"Biłgoraj, powiat biłgorajski, województwo lubelskie, Polska",371948750.0,Q319445,בילגוריי,1.0,matched_db_api
127,Bircza,BIRCZA,Stara Bircza,Dobromil,49.68333333,22.46666667,49.8680556,22.3277778,"Bircza, Drohobyczka, gmina Dubiecko, powiat przemyski, województwo podkarpackie, 37-753, Polska",3009690438.0,,,1.0,matched_nominatim
128,Birzhi,BIRZAI,Biržai,Poneviezh,56.2,24.75,56.1999121,24.7571107,"Biržai, Biržų miesto seniūnija, Panevėžio apskritis, Lietuva",195151555.0,Q804035,,0.923,matched_db_api
129,Bischofsburg,BISCHOFSBURG,Biskupiec,Reszel,53.86666667,20.96666667,53.8637983,20.954989,"Biskupiec, powiat olsztyński, województwo warmińsko-mazurskie, Polska",31526938.0,Q201186,,1.0,matched_db_api
130,Bischofswerder,BISCHOFSWERDER,Biskupiec,Susz,53.5,19.35,53.5016593,19.3479654,"Biskupiec, powiat nowomiejski, województwo warmińsko-mazurskie, Polska",692609644.0,Q866381,,1.0,matched_db_api
131,Biskupice,BISKUPICE,Biskupice,Lublin,51.13333333,22.95,51.1523459,22.946692,"Biskupice, powiat świdnicki, województwo lubelskie, Polska",1859515086.0,,,1.0,matched_db_api
132,Błaszki,BLASZKI,Błaszki,Kalisz,51.66666667,18.45,51.6525206,18.4333114,"Błaszki, powiat sieradzki, województwo łódzkie, Polska",31811278.0,Q989423,,1.0,matched_db_api
133,Blenduv,BLENDUV,Błędów,Grojec,51.77916667,20.69638889,51.7773605,20.6972794,"Błędów, gmina Błędów, powiat grójecki, województwo mazowieckie, Polska",6631062.0,Q2628943,,manual,matched_manual
134,Bober,BOBER,Mlachivka,Radomysl,51.15,29.55,51.1547716,29.5391169,"Бобер, Вишгородський район, Київська область, Україна",1427529313.0,Q12083017,,1.0,matched_nominatim
135,Bobowa,BOBOWA,Jankowa,Grybow,49.7,20.93333333,49.7978614,20.8699362,"Bobowa, Jastrzębia, gmina Ciężkowice, powiat tarnowski, województwo małopolskie, 33-191, Polska",3009690552.0,,,1.0,matched_nominatim
136,Bobr,BOBR,Bobr,Sienno,54.33333333,29.26666667,54.3416872,29.2744782,"Бобр, Крупскі раён, Мінская вобласць, Беларусь",242979065.0,Q2659074,,1.0,matched_db_api
137,Bobrinets,BOBRINETS,Shliakhove,Elizavetgrad,48.05,32.16666667,48.05729,32.15938,"Бобринець, Кіровоградська область, Україна",337661021.0,Q591884,,1.0,matched_db_api
138,Bóbrka,BOBRKA,Bibrka,Bobrka,49.63333333,24.3,49.6375667,24.2973942,"Бібрка, Львівська область, Україна",313245999.0,Q156808,,1.0,matched_db_api
139,Bobrovitsa,BOBROVITSA,Bobrovytsia,Kozelets,50.75,31.38333333,50.7415033,31.3860852,"Бобровиця, Бобровицька міська громада, Ніжинський район, Чернігівська область, 17400, Україна",174882455.0,Q149166,,1.0,matched_nominatim
140,Bobrovyi Kut,BOBROVYI KUT,Bobrovyi Kut,Kherson,47.1,32.95,47.099419,32.948002,"Бобровий Кут, Калинівська селищна громада, Бериславський район, Херсонська область, 74134, Україна",270989127.0,Q4088860,,1.0,matched_nominatim
141,Bobrowniki,BOBROWNIKI,Bobrowniki,Pulawy,51.56666667,21.93333333,51.5486415,21.9333804,"Bobrowniki, powiat rycki, województwo lubelskie, Polska",1905986014.0,,,1.0,matched_db_api
142,Bobruisk,BOBRUISK,Babruysk,Bobruisk,53.15,29.23333333,53.1449683,29.2281209,"Бабруйск, Магілёўская вобласць, Беларусь",193823659.0,Q207294,בוברויסק,1.0,matched_db_api
143,Bocheikovo,BOCHEYKOVO,Bacheykauski selski Savet,Lepel,55.01666667,29.15,55.0136223,29.1447601,"Бачэйкава, Бешанковіцкі раён, Віцебская вобласць, Беларусь",243027104.0,Q3919263,,1.0,matched_db_api
144,Bochnia,BOCHNIA,Bochnia,Bochnia,49.96666667,20.43333333,49.9693563,20.430541,"Bochnia, powiat bocheński, województwo małopolskie, Polska",248045354.0,Q815903,,1.0,matched_db_api
145,Botski,BOCKI,Boćki,Bielsk,52.65,23.05,52.6512834,23.0426375,"Boćki, powiat bielski, województwo podlaskie, Polska",692601106.0,Q896243,,1.0,matched_refined
146,Bodzanów,BODZANOW,Chodkowo,Plock,52.5,20.01666667,52.5008478,20.0299052,"Bodzanów, powiat płocki, województwo mazowieckie, Polska",1867069427.0,Q544822,,1.0,matched_db_api
147,Bodzentyn,BODZENTYN,Bodzentyn,Kielce,50.95,20.96666667,50.9408055,20.9582386,"Bodzentyn, powiat kielecki, województwo świętokrzyskie, Polska",31899213.0,Q890126,,1.0,matched_db_api
148,Bogachevka,BOGACHEVKA,Kryvoozerska selyshchna hromada,Balta,47.96666667,30.55,47.9748389,30.5543686,"Багачівка, Миколаївська область, Україна",627447092.0,Q4089151,,0.9,matched_db_api
149,Bogoria,BOGORJA,Kolonia Miłoszowice,Opatow,50.66666667,21.26666667,50.6519146,21.2601913,"Bogoria, powiat staszowski, województwo świętokrzyskie, Polska",31899212.0,Q2141621,,1.0,matched_db_api
150,Bogushevsk,BOGUSHEVSK,Bahushewsk,Orsha,54.85,30.2,54.8407019,30.2117003,"Багушэўск, Сенненскі раён, Віцебская вобласць, Беларусь",242979084.0,Q2412938,,1.0,matched_db_api
151,Boguslav,BOGUSLAV,Bohuslav,Kanev,49.55,30.88333333,49.54765,30.8733,"Богуслав, Богуславська міська громада, Обухівський район, Київська область, 09701, Україна",337555159.0,Q1936339,,1.0,matched_nominatim
152,Bohorodczany,BOHORODCZANY,Pidhiria,Bohorodczany,48.8,24.53333333,48.8092602,24.5456201,"Богородчани, Богородчанська селищна громада, Івано-Франківський район, Івано-Франківська область, 77701, Україна",337585063.0,Q639830,,1.0,matched_nominatim
153,Boiarka,BOJARKA,Boiarka,Zvenigorodka,49.33333333,30.66666667,49.3304953,30.6828061,"Боярка, Лисянська селищна громада, Звенигородський район, Черкаська область, 19311, Україна",337562951.0,Q4095492,,1.0,matched_nominatim
154,Bolechów,BOLECHOW,Bolekhiv,Dolina,49.06666667,23.86666667,49.0663203,23.8598949,"Болехів, Івано-Франківська область, Україна",312262525.0,Q146595,בולחוב,1.0,matched_db_api
155,Bolgrad,BOLGRAD,Bolhrad,Izmail,45.68333333,28.63333333,45.6779137,28.6132404,"Болград, Болградська міська громада, Болградський район, Одеська область, 68733, Україна",337693965.0,Q890122,,1.0,matched_nominatim
156,Bolimów,BOLIMOW,Bolimowska Wieś,Lowicz,52.08333333,20.16666667,52.0762415,20.163478,"Bolimów, powiat skierniewicki, województwo łódzkie, Polska",292137678.0,Q627392,,1.0,matched_db_api
157,Vradievka,BOLSHAIA VRADIEVKA,Vradiivka,Ananev,47.86666667,30.6,47.8594344,30.5891291,"Врадіївка, Врадіївська селищна громада, Первомайський район, Миколаївська область, 56301, Україна",337667868.0,Q1997201,,1.0,matched_nominatim
158,Bolshaia Aleksandrovka,BOLSHAYA ALEKSANDROVKA,Velyka Oleksandrivka,Kherson,47.31666667,33.31666667,47.3159392,33.2997671,"Велика Олександрівка, Великоолександрівська селищна громада, Бериславський район, Херсонська область, 74100, Україна",337678618.0,Q1009565,,0.818,matched_nominatim
159,Bolshie Nizgurtsy,BOLSHIYE NEZGORTSI,Velyki Nyzhirtsi,Berdichev,49.88333333,28.7,49.892894,28.6953862,"Великі Низгірці, Житомирська область, Україна",337541732.0,Q4106429,,0.875,matched_refined
160,Bolshoi Tokmak,BOLSHOY TOKMAK,Tokmak,Berdiansk,47.25,35.7,47.2550191,35.7092206,"Токмак, Токмацька міська громада, Пологівський район, Запорізька область, 71700, Україна",1557869790.0,Q760235,טוקמק,1.0,matched_refined
161,Bołszowce,BOLSZOWCE,Bilshivtsi,Rohatyn,49.18333333,24.75,49.18373,24.74602,"Більшівці, Івано-Франківська область, Україна",337568380.0,Q4092249,,1.0,matched_db_api
162,Mikhailovka,BOREMEL,Boremel,Dubno,50.46666667,25.2,50.4710604,25.1931736,"Боремель, Боремельська сільська громада, Дубенський район, Рівненська область, 35210, Україна",337521109.0,Q4093558,,1.0,matched_refined
163,Borisov,BORISOV,Barysaw,Borisov,54.23333333,28.48333333,54.2240665,28.5117849,"Барысаў, Барысаўскі раён, Мінская вобласць, Беларусь",242978952.0,Q19313,בוריסוב,1.0,matched_db_api
164,Borodianka,BORODIANKA,Borodianka,Kiev,50.65,29.98333333,50.6437677,29.9278296,"Бородянка, Бородянська селищна громада, Бучанський район, Київська область, 07801, Україна",295809953.0,Q2997894,בורודיאנקה,1.0,matched_nominatim
165,Borovka,BOROVKA,Traktove,Lampol,48.51666667,28.25,48.506905,28.255505,"Трактове, Вінницька область, Україна",337596180.0,Q4094325,,1.0,matched_db_api
166,Borowa,BOROWA,Borowa,Mielec,50.38333333,21.36666667,50.3871459,21.3567884,"Borowa, powiat mielecki, województwo podkarpackie, Polska",31898992.0,Q2061801,,1.0,matched_db_api
167,Borshchagovka,BORSHCHAGOVKA,Borshchahivka,Skvira,49.48333333,29.53333333,49.486198,29.53709,"Борщагівка, Погребищенська міська громада, Вінницький район, Вінницька область, 22233, Україна",337557456.0,Q4094862,,1.0,matched_nominatim
168,Borszczów,BORSZCZOW,Borshchiv,Brody,48.8,26.05,48.8025557,26.0401871,"Борщів, Тернопільська область, Україна",312230548.0,Q148923,,1.0,matched_db_api
169,Borynia,BORYNIA,Borynia Settlement Hromada,Turka,49.06666667,23.0,49.0714844,23.0022472,"Бориня, Львівська область, Україна",337572642.0,Q894302,בוריניה,1.0,matched_db_api
170,Borispol,BORYSOPOL,Boryspil,Pereiaslav,50.35,30.95,50.3512101,30.95077,"Бориспіль, Київська область, Україна",26150796.0,Q158910,בוריספיל,1.0,matched_db_api
171,Borzna,BORZNA,Borzna,Borzna,51.25,32.43333333,51.2534475,32.4263156,"Борзна, Борзнянська міська громада, Ніжинський район, Чернігівська область, 16400, Україна",180441087.0,Q148912,,1.0,matched_nominatim
172,Bragin,BRAGIN,Brahin,Riechitsa,51.78333333,30.26666667,51.7807462,30.2750015,"Брагін, Брагінскі раён, Гомельская вобласць, Беларусь",242978973.0,Q2470405,ברגין,1.0,matched_db_api
173,Brailov,BRAILOW,Brailiv,Vinnitsa,49.1,28.16666667,49.1092468,28.1594997,"Браїлів, Вінницька область, Україна",337571700.0,Q2641183,,1.0,matched_db_api
174,Branshchik,BRANSZCZYK,Nowy Brańszczyk,Ostrov,52.63333333,21.6,52.6282009,21.5848507,"Brańszczyk, gmina Brańszczyk, powiat wyszkowski, województwo mazowieckie, 07-221, Polska",692601096.0,Q302205,,1.0,matched_refined
175,Braslav,BRASLAW,Braslaw,Novoaleksandrovsk,55.63333333,27.05,55.639469,27.031643,"Браслаў, Браслаўскі раён, Віцебская вобласць, Беларусь",119357582.0,Q628623,ברסלב,1.0,matched_db_api
176,Bratoliubovka,BRATOLIUBOVKA,Hurivska silska hromada,Aleksandriia,48.21666667,32.96666667,48.2098436,32.9553792,"Братолюбівка, Кіровоградська область, Україна",605721308.0,Q4095925,,1.0,matched_db_api
177,Bratskoe,BRATSKOYE,Antonove,Elizavetgrad,47.86666667,31.58333333,47.8641873,31.5747875,"Братське, Братська селищна громада, Вознесенський район, Миколаївська область, 55409, Україна",7482840974.0,Q2453553,,1.0,matched_nominatim
178,Bratslav,BRATSLAW,Vovchok,Bratslav,48.83333333,28.95,48.8268749,28.9379724,"Брацлав, Брацлавська селищна громада, Тульчинський район, Вінницька область, 22870, Україна",337584288.0,Q903241,ברסלב,1.0,matched_nominatim
179,Braunsberg,BRAUNSBERG,Braniewo,Braniewo,54.38333333,19.83333333,54.3825966,19.827344,"Braniewo, powiat braniewski, województwo warmińsko-mazurskie, Polska",1838553920.0,Q160814,,1.0,matched_db_api
180,Brest-Litovsk,BREST-LITOVSK,Brest,Brest-Litovsk,52.1,23.7,52.093751,23.6851851,"Брэст, Брэсцкая вобласць, Беларусь",27171628.0,Q140147,ברסט,1.0,matched_db_api
181,Brianka,BRIANKA,Brianka,Slavianoserbsk,48.5,38.66666667,48.50361,38.66432,"Брянка, Луганська область, Україна",337596242.0,Q1659768,,1.0,matched_db_api
182,Briansk,BRIANSK,Bryansk,Briansk,53.25,34.35,53.2423778,34.3668288,"Брянск, городской округ Брянск, Брянская область, Центральный федеральный округ, Россия",27073428.0,Q2801,בריאנסק,1.0,matched_nominatim
183,Brichany,BRICENA,Briceni,Khotin,48.36666667,27.08333333,48.3613276,27.0849008,"Briceni, Moldova",265099144.0,Q2019727,,1.0,matched_db_api
184,Bricheva,BRICEVA,Briceva,Soroki,48.11666667,27.65,48.11138,27.6493716,"Briceva, Moldova",283559474.0,Q4096633,,1.0,matched_db_api
185,Strasburg,BRODNICA,Brodnica,Brodnica,53.25,19.4,53.258092,19.3993626,"Brodnica, powiat brodnicki, województwo kujawsko-pomorskie, Polska",82782266.0,Q690030,,1.0,matched_refined
186,Brody,BRODY,Brody,Brody,50.08333333,25.15,50.0833041,25.1437921,"Броди, Львівська область, Україна",313246733.0,Q465104,,1.0,matched_db_api
187,Brok,BROK,Brok,Ostrov,52.7,21.85,52.6989287,21.8601815,"Brok, powiat ostrowski, województwo mazowieckie, Polska",602099835.0,Q925506,,1.0,matched_db_api
188,Brożniów,BROSZNIOW,Broshniv-Osada,Dolina,49.0,24.18333333,48.98175,24.203064,"Брошнів, Івано-Франківська область, Україна",337577339.0,Q4097118,,0.941,matched_db_api
189,Brovary,BROVARY,Brovary,Oster,50.5,30.76666667,50.5111168,30.7900482,"Бровари, Київська область, Україна",3673183717.0,Q841026,ברובארי,1.0,matched_db_api
190,Brunovishki,BRUNAVA,Bauskas novads,Poneviezh,56.36666667,24.4,56.357194,24.3890691,"Brunava, Latvija",452639240.0,Q11214824,,0.818,matched_db_api
191,Brusilov,BRUSILOV,Brusyliv,Radomysl,50.28333333,29.53333333,50.28305,29.51889,"Брусилів, Брусилівська селищна громада, Житомирський район, Житомирська область, 12601, Україна",199207493.0,Q946994,,1.0,matched_nominatim
192,Brześć Kujawski,BRZESC KUJAWSKI,Brześć Kujawski,Wloclawek,52.6,18.9,52.6048164,18.9015463,"Brześć Kujawski, powiat włocławski, województwo kujawsko-pomorskie, Polska",598898210.0,Q985649,,1.0,matched_db_api
193,Brzesko Nowe,BRZESKO NOWE,Hebdów,Miechow,50.13333333,20.38333333,50.1322823,20.3767203,"Nowe Brzesko, powiat proszowicki, województwo małopolskie, Polska",31889649.0,Q2341047,,1.0,matched_refined
194,Brzeżany,BRZEZANY,Berezhany,Brzezany,49.45,24.93333333,49.4450296,24.938854,"Бережани, Тернопільська область, Україна",312233653.0,Q793424,,1.0,matched_db_api
195,Brzostek,BRZOSTEK,Brzostek,Pilzno,49.88333333,21.41666667,49.8784697,21.411865,"Brzostek, powiat dębicki, województwo podkarpackie, Polska",38403574.0,Q776418,,1.0,matched_db_api
196,Velikaia Berestovitsa,BRZOSTOWICA WIELKA,Vyalikaya Byerastavitsa,Grodno,53.2,24.01666667,53.1930575,24.017197,"Вялікая Бераставіца, Бераставіцкі раён, Гродзенская вобласць, Беларусь",242978891.0,Q1460634,ויאליקאיה בראסטאביצה,1.0,matched_db_api
197,Brzozdowce,BRZOZDOWCE,Pidhirtsi,Bobrka,49.45,24.15,49.456921,24.150412,"Берездівці, Львівська область, Україна",337558414.0,Q4084390,,1.0,matched_db_api
198,Bublitz,BUBLITZ,Bolechowice,Pommern,53.95,16.6,53.954693,16.5884779,"Bobolice, powiat koszaliński, województwo zachodniopomorskie, Polska",1758659795.0,Q511956,,1.0,matched_db_api
199,Buczacz,BUCZACZ,Pidzamochok,Buczacz,49.08333333,25.4,49.0630503,25.389969,"Бучач, Бучацька міська громада, Чортківський район, Тернопільська область, 48423, Україна",312235616.0,Q849109,בוצ'אץ',1.0,matched_nominatim
200,Buda Koshelevo,BUDA-KOSHELEVO,Buda-Kashalyova,Rogachev,52.71666667,30.56666667,52.7163311,30.5650702,"Буда-Кашалёва, Буда-Кашалёўскі раён, Гомельская вобласць, Беларусь",242978983.0,Q955729,,0.889,matched_db_api
201,Budzanów,BUDZANOW,Budaniv,Czortkow,49.16666667,25.71666667,49.1617378,25.7073812,"Буданів, Тернопільська область, Україна",337569396.0,Q1000641,,1.0,matched_db_api
202,Budziska,BUDZISKA,Ferdynandów,Lukow,51.66666667,22.21666667,51.6690392,22.2273067,"Budziska, gmina Adamów, powiat łukowski, województwo lubelskie, 21-412, Polska",1911965572.0,Q4985306,,1.0,matched_nominatim
203,Bütow,BUETOW,Bytów,Pommern,54.16666667,17.5,54.1694592,17.4890263,"Bytów, powiat bytowski, województwo pomorskie, Polska",1775164003.0,Q326577,,1.0,matched_db_api
204,Buk,BUK,Buk,Grodzisk,52.35,16.53333333,52.3573908,16.5167014,"Buk, powiat poznański, województwo wielkopolskie, Polska",31626656.0,Q667588,בוק,1.0,matched_db_api
205,Bukaczowce,BUKACZOWCE,Bukachivtsi,Rohatyn,49.25,24.5,49.2620345,24.4962275,"Букачівці, Івано-Франківська область, Україна",337565005.0,Q2603071,,1.0,matched_refined
206,Bukcha,BUKCHA,Bukchanski selski Savet,Mozyr,51.76666667,27.66666667,51.754517,27.676476,"Букча, Лельчыцкі раён, Гомельская вобласць, Беларусь",243013532.0,Q4098670,,1.0,matched_db_api
207,Buki,BUKI,Buky,Uman,49.08333333,30.41666667,49.091744,30.4026306,"Буки, Буцька селищна громада, Уманський район, Черкаська область, 20114, Україна",337572370.0,Q2473493,,1.0,matched_nominatim
208,Bukowsko,BUKOWSKO,Bukowsko,Sanok,49.48333333,22.06666667,49.479049,22.0609368,"Bukowsko, powiat sanocki, województwo podkarpackie, Polska",692614006.0,Q2664126,,1.0,matched_db_api
209,Burkanów,BURKANOW,Zolotnyky,Trembowla,49.28333333,25.38333333,49.27711,25.3616,"Бурканів, Тернопільська область, Україна",337564565.0,Q4099613,,1.0,matched_db_api
210,Bursztyn,BURSZTYN,Burshtyn,Rohatyn,49.26666667,24.63333333,49.2621603,24.6159932,"Бурштин, Бурштинська міська громада, Івано-Франківський район, Івано-Франківська область, 77111, Україна",312263993.0,Q146557,,1.0,matched_nominatim
211,Busk,BUSK,Busk,Kamionka,49.96666667,24.63333333,49.965355,24.6089531,"Буськ, Львівська область, Україна",313247150.0,Q282824,,1.0,matched_db_api
212,Busk,BUSKO,Busko-Zdrój,Stopnica,50.46666667,20.71666667,50.46759,20.71919,"Busko-Zdrój, powiat buski, województwo świętokrzyskie, Polska",31898571.0,Q256782,,1.0,matched_refined
213,Butla,BUTLA,Syhlovate,Turka,48.96666667,22.96666667,48.982883,22.996347,"Бітля, Львівська область, Україна",337577896.0,Q4087520,,1.0,matched_db_api
214,Butrimantsy,BUTRIMONYS,Trakininkai,Troki,54.5,24.25,54.5021596,24.2523307,"Butrimonys, Butrimonių seniūnija, Alytaus rajono savivaldybė, Alytaus apskritis, Lietuva",1296337949.0,Q2483374,,1.0,matched_refined
215,Burzenin,BUZHENIN,Witów,Sieradz,51.46666667,18.83333333,51.461107,18.8326548,"Burzenin, powiat sieradzki, województwo łódzkie, Polska",31809741.0,Q769395,,1.0,matched_db_api
216,Buzinovo,BUZINOVO,Buzynove,Tiraspol,46.98333333,30.48333333,46.983181,30.481396,"Бузинове, Іванівська селищна громада, Березівський район, Одеська область, 67204, Україна",337684416.0,Q4098367,,1.0,matched_nominatim
217,Bychawa,BYCHAWA,Bychawa,Lublin,51.01666667,22.53333333,51.0152225,22.534535,"Bychawa, powiat lubelski, województwo lubelskie, Polska",371949192.0,Q995820,,1.0,matched_db_api
218,Bromberg,BYDGOSZCZ,Bydgoszcz,Bydgoszcz,53.15,18.0,53.1219648,18.0002529,"Bydgoszcz, województwo kujawsko-pomorskie, Polska",31337673.0,Q41252,בידגושץ,1.0,matched_db_api
219,Staryi Bykhov,BYKHOV,Bykhaw,Staro-Bykhov,53.51666667,30.25,53.518013,30.244291,"Быхаў, Быхаўскі раён, Магілёўская вобласць, Беларусь",242978972.0,Q954948,ביחוב,1.0,matched_refined
220,Byshev,BYSHEV,Byshiv,Kiev,50.26666667,29.88333333,50.266571,29.88693,"Бишів, Київська область, Україна",337525663.0,Q4101337,,1.0,matched_db_api
221,Bystritsa,BYSTRZYCA,Varnyanski selski Savet,Vilnius,54.8,25.88333333,54.7990701,25.875701,"Варнянскі сельскі Савет, Астравецкі раён, Гродзенская вобласць, Беларусь",242995642.0,Q3920685,,1.0,matched_db_api
222,Brzeziny,BZHEZINY,Brzeziny,Brzeziny,51.8,19.75,51.8004949,19.7517694,"Brzeziny, powiat brzeziński, województwo łódzkie, Polska",60121372.0,Q324917,,1.0,matched_db_api
223,Cammin,CAMMIN,Kamień Pomorski,Pommern,53.96666667,14.78333333,53.9653947,14.7728556,"Kamień Pomorski, powiat kamieński, województwo zachodniopomorskie, Polska",27272766.0,Q161887,,1.0,matched_db_api
224,Kapreshty,CAPRESTI,Căprești,Soroki,47.75,28.46666667,47.7533722,28.4649435,"Căprești, Moldova",281158638.0,Q4213203,,0.824,matched_db_api
225,Novye Kaushany,CAUSANII-NOUI,Căușeni,Bendery,46.65,29.41666667,46.6495405,29.4067719,"Căușeni, Moldova",265099168.0,Q657744,,1.0,matched_refined
226,Cechowka,CECHOWKA,Sulejówek,Warszawa,52.23333333,21.26666667,52.2487566,21.3020063,"Cechówka, Sulejówek, powiat miński, województwo mazowieckie, 05-071, Polska",3009693793.0,,,1.0,matched_nominatim
227,Tseikiny,CEJKINIE,Girneliškė,Sventsiany,55.26666667,26.26666667,55.2855198,26.2291542,"Ceikinėliai, Ignalinos seniūnija, Utenos apskritis, Lietuva",3628986462.0,Q12651907,,1.0,matched_db_api
228,Chekishki,CEKISKE,Mikniava,Kovno,55.16666667,23.51666667,55.1572838,23.5208281,"Mikniava, Čekiškės seniūnija, Kauno apskritis, Lietuva",973881842.0,Q2153886,,0.889,matched_db_api
229,Chepeliutsy,CEPELEUTI,Cepeleuți,Khotin,48.3,27.3,48.3026571,27.3070451,"Cepeleuți, Moldova",283816061.0,,,0.909,matched_db_api
230,Czerwińsk,CERWINSK,Czerwińsk nad Wisłą,Plonsk,52.4,20.3,52.3940182,20.3123715,"Czerwińsk nad Wisłą, powiat płoński, województwo mazowieckie, Polska",31700401.0,Q1025875,,1.0,matched_refined
231,Venden,CESIS,Cēsu novads,Venden,57.3,25.25,57.3131712,25.2748551,"Cēsis, Latvija",1801823.0,Q107582,צסיס,1.0,matched_refined
232,Akkerman,CETATEA-ALBA,Bilhorod-Dnistrovskyi,Akkerman,46.2,30.35,46.1909823,30.345784,"Білгород-Дністровський, Білгород-Дністровська міська громада, Білгород-Дністровський район, Одеська область, 67700-67719, Україна",738536340.0,Q672990,בילהורוד-דניסטרובסקי,1.0,matched_nominatim
233,Cewków,CEWKOW,Cewków,Cieszanow,50.25,22.86666667,50.2523823,22.8706203,"Cewków, powiat lubaczowski, województwo podkarpackie, Polska",31898495.0,Q2311461,,1.0,matched_db_api
234,Charsznica,CHARSZNICA,Charsznica,Miechow,50.41666667,19.93333333,50.4130511,19.9355395,"Charsznica, powiat miechowski, województwo małopolskie, Polska",2168661289.0,Q9189158,,1.0,matched_db_api
235,Chashniki,CHASHNIKI,Chashniki,Lepel,54.86666667,29.15,54.8569819,29.1598825,"Чашнікі, Чашніцкі раён, Віцебская вобласць, Беларусь",242978956.0,Q954421,צ'אשניקי,1.0,matched_db_api
236,Chausy,CHAUSY,Kamenski selski Savet,Chausy,53.81666667,30.98333333,53.8071477,30.9732332,"Чавусы, Чавускі раён, Магілёўская вобласць, Беларусь",242978990.0,Q955113,,1.0,matched_db_api
237,Chechelnik,CHECHELNIK,Chechelnyk,Olgopol,48.21666667,29.36666667,48.2126987,29.3598689,"Чечельник, Чечельницька селищна громада, Гайсинський район, Вінницька область, 24800-24804, Україна",246046839.0,Q1721808,,1.0,matched_nominatim
238,Chechersk,CHECHERSK,Chachersk,Rogachev,52.91666667,30.91666667,52.9193134,30.9170879,"Чачэрск, Чачэрскі раён, Гомельская вобласць, Беларусь",242978992.0,Q867722,,1.0,matched_db_api
239,Chełm,CHELM,Chełm,Chelm,51.13333333,23.5,51.1339221,23.4711548,"Chełm, województwo lubelskie, Polska",253543591.0,Q234184,חלם,1.0,matched_db_api
240,Kulm,CHELMNO,Chełmno,Chelmno,53.35,18.43333333,53.3493915,18.4235473,"Chełmno, powiat chełmiński, województwo kujawsko-pomorskie, Polska",31592442.0,Q161962,,0.8,matched_db_api
241,Chemerovtsy,CHEMEROVTSY,Yampilchyk,Kamenets-Podolsk,49.0,26.36666667,49.0087176,26.3405624,"Чемерівці, Хмельницька область, Україна",337576097.0,Q2391379,,1.0,matched_db_api
242,Chęciny,CHENCINI,Sokołów Górny,Jedrzejow,50.73333333,20.45,50.8000835,20.4622228,"Chęciny, gmina Chęciny, powiat kielecki, województwo świętokrzyskie, Polska",2908871.0,Q991924,,1.0,matched_refined
243,Chereia,CHEREYA,Čareja,Sienno,54.61666667,29.28333333,54.6146314,29.2781754,"Чарэя, Чашніцкі раён, Віцебская вобласць, Беларусь",243032015.0,Q3917706,,1.0,matched_db_api
244,Cherikov,CHERIKOV,Cherykaw,Cherikov,53.56666667,31.38333333,53.5697773,31.3804512,"Чэрыкаў, Чэрыкаўскі раён, Магілёўская вобласць, Беларусь",4736396990.0,Q955126,,1.0,matched_db_api
245,Cherkasy,CHERKASY,Cherkasy,Cherkasy,49.43333333,32.06666667,49.4259097,32.0503202,"Черкаси, вулиця Максима Залізняка, Мікрорайон Зелений, Черкаси, Соснівський район, Черкаська міська громада, Черкаський район, Черкаська область, 18028, Україна",1970581474.0,Q1771041,,1.0,matched_nominatim
246,Chernevtsy,CHERNEVTSY,Chernivtsi,Lampol,48.53333333,28.11666667,48.5406973,28.1221153,"Чернівці, Чернівецька селищна громада, Могилів-Подільський район, Вінницька область, 24101, Україна",337594677.0,Q1999900,,1.0,matched_nominatim
247,Cherniakhov,CHERNIAKHOV,Cherniakhiv,Zhitomir,50.45,28.66666667,50.45299,28.66573,"Черняхів, Черняхівська селищна громада, Житомирський район, Житомирська область, 12301, Україна",143837898.0,Q872377,,1.0,matched_nominatim
248,Chernigov,CHERNIGOV,Chernihiv,Chernigov,51.5,31.3,51.494099,31.294332,"Чернігів, Чернігівська міська громада, Чернігівський район, Чернігівська область, 14007, Україна",26150436.0,Q157053,צ'רניהיב,1.0,matched_nominatim
249,Chernobyl,CHERNOBYL,Chornobyl,Radomysl,51.26666667,30.23333333,51.2705477,30.2195609,"Чорнобиль, Київська область, Україна",127834997.0,Q129677,צ'רנוביל,1.0,matched_refined
250,Chernoostrov,CHERNYI OSTROV,Marianivka,Proskurov,49.5,26.75,49.5050201,26.756082,"Чорний Острів, Хмельницька область, Україна",337556986.0,Q1973626,,1.0,matched_refined
251,Igumen,CHERVEN,Cherven,Igumen,53.7,28.43333333,53.7141823,28.4181408,"Чэрвень, Чэрвеньскі раён, Мінская вобласць, Беларусь",242978951.0,Q201458,,1.0,matched_db_api
252,Chervonnoe,CHERVONNOYE,Mali Moshkivtsi,Zhitomir,49.96666667,28.86666667,49.9528344,28.87532,"Малі Мошківці, Житомирська область, Україна",337539430.0,Q787722,,0.947,matched_db_api
253,Chigirin,CHIGIRIN,Chyhyryn,Chigirin,49.06666667,32.66666667,49.0775098,32.6664089,"Чигирин, Чигиринська міська громада, Черкаський район, Черкаська область, 20900, Україна",337573288.0,Q161980,,1.0,matched_nominatim
254,Kishinev,CHISINAU,Chișinău,Kishinev,47.0,28.85,47.0245117,28.8322923,"Chișinău, Moldova",129991407.0,Q21197,קישינב,1.0,matched_db_api
255,Chistiakova,CHISTIAKOVO,Chystiakove,Ust-Medveditskaia,48.03333333,38.58333333,48.0261217,38.618137,"Чистякове, Донецька область, Україна",256614002.0,Q162084,,0.909,matched_db_api
256,Chlewczany,CHLEWCZANY,Belz Urban Hromada,Rawa,50.31666667,23.96666667,50.3072442,23.9235631,"Хлівчани, Белзька міська громада, Шептицький район, Львівська область, 80070, Україна",337524918.0,Q4498134,,1.0,matched_nominatim
257,Chmielnik,CHMIELNIK,Suchowola,Stopnica,50.63333333,20.75,50.6145952,20.7510406,"Chmielnik, powiat kielecki, województwo świętokrzyskie, Polska",1854936827.0,Q991973,חמיילניק,1.0,matched_db_api
258,Chocimierz,CHOCIMIERZ,Khotymyr,Tlumacz,48.75,25.1,48.758011,25.10857,"Хотимир, Обертинська селищна громада, Івано-Франківський район, Івано-Франківська область, 78050, Україна",337586959.0,Q4500347,,1.0,matched_nominatim
259,Chodecz,CHODECZ,Chodeczek,Wloclawek,52.4,19.03333333,52.4108873,19.0405324,"Chodeczek, gmina Chodecz, powiat włocławski, województwo kujawsko-pomorskie, 87-860, Polska",2116381083.0,Q5103768,,0.875,matched_nominatim
260,Chodel,CHODEL,Chodel,Lublin,51.11666667,22.13333333,51.1121689,22.1350543,"Chodel, powiat opolski, województwo lubelskie, Polska",371949667.0,Q2264237,,1.0,matched_db_api
261,Chodorów,CHODOROW,Khodoriv,Bobrka,49.4,24.31666667,49.4065802,24.3140241,"Ходорів, Львівська область, Україна",337560166.0,Q997404,,1.0,matched_db_api
262,Czeladź,CHODZIEZ,Czeladź,Bedzin,50.31666667,19.1,50.3184581,19.0736572,"Czeladź, powiat będziński, województwo śląskie, Polska",31902399.0,Q161605,,1.0,matched_db_api
263,Konitz,CHOJNICE,Chojnice,Chojnice,53.7,17.56666667,53.6952912,17.5614973,"Chojnice, powiat chojnicki, województwo pomorskie, Polska",26432853.0,Q740241,,1.0,matched_db_api
264,Chołojów,CHOLOJOW,Vuzlove,Kamionka,50.23333333,24.55,50.224178,24.544689,"Вузлове, Радехівська міська громада, Шептицький район, Львівська область, 80252, Україна",337526455.0,Q4469854,,1.0,matched_nominatim
265,Chopovichi,CHOPOVICHI,Novobratske,Radomysl,50.83333333,28.95,50.830065,28.9474042,"Новобратське, Житомирська область, Україна",337515424.0,Q2980446,,1.0,matched_db_api
266,Chorostków,CHOROSTKOW,Karashyntsi,Husiatyn,49.23333333,25.91666667,49.2121531,25.9168525,"Хоростків, Хоростківська міська громада, Чортківський район, Тернопільська область, 48244, Україна",312256412.0,Q149178,חורוסטקוב,1.0,matched_nominatim
267,Khorosh,CHOROSZCZ,Żółtki-Kolonia,Bielostok,53.15,22.98333333,53.143925,22.9884588,"Choroszcz, powiat białostocki, województwo podlaskie, Polska",31577715.0,Q924100,,0.875,matched_db_api
268,Chorzele,CHORZELE,Chorzele,Przasnysz,53.26666667,20.9,53.2843783,20.9421874,"Chorzele, gmina Chorzele, powiat przasnyski, województwo mazowieckie, Polska",3009662284.0,,,1.0,matched_nominatim
269,Christburg,CHRISTBURG,Nowiny,Sztum,53.93333333,19.35,53.9239051,19.3479491,"Dzierzgoń, powiat sztumski, województwo pomorskie, Polska",31532261.0,Q551422,,1.0,matched_db_api
270,Khristinovka,CHRISTIANOVKA,Khrystynivka,Uman,48.83333333,29.96666667,48.8473986,29.9637515,"Христинівка, Христинівська міська громада, Уманський район, Черкаська область, 20021, Україна",2926773604.0,Q4501479,,1.0,matched_nominatim
271,Chrzanów,CHRZANOW,Chrzanów,Janow,50.78333333,22.61666667,50.7719699,22.6017221,"Chrzanów Trzeci, powiat janowski, województwo lubelskie, Polska",1859446968.0,Q2394660,,1.0,matched_db_api
272,Chudnov,CHUDNOV,Chudniv,Zhitomir,50.05,28.11666667,50.0524287,28.1153765,"Чуднів, Житомирська область, Україна",337535925.0,Q149271,צ'ודניב,1.0,matched_db_api
273,Churovichi,CHUROVICHI,Churovychy,Novozybkov,52.16666667,32.0,52.1718802,32.0027857,"Чуровичи, Климовский район, Брянская область, Россия",14738379.0,,,1.0,matched_db_api
274,Chyrów,CHYROW,Khyriv,Stare Miasto,49.53333333,22.85,49.5335126,22.8500099,"Хирів, Львівська область, Україна",337555734.0,Q1020128,חירוב,1.0,matched_db_api
275,Tsiekhanovets,CIECHANOWIEC,Ciechanowiec,Bielsk,52.66666667,22.51666667,52.6787967,22.4991103,"Ciechanowiec, powiat wysokomazowiecki, województwo podlaskie, Polska",1818704253.0,Q995159,,0.96,matched_db_api
276,Ciechocinek,CIECHOCINEK,Ciechocinek,Nieszawa,52.86666667,18.8,52.882552,18.7906883,"Ciechocinek, powiat aleksandrowski, województwo kujawsko-pomorskie, Polska",598900398.0,Q985659,,1.0,matched_db_api
277,Ciepielów,CIEPIELOW,Ciepielów,Ilza,51.25,21.56666667,51.2482289,21.5741193,"Ciepielów, powiat lipski, województwo mazowieckie, Polska",31877510.0,Q994016,,1.0,matched_db_api
278,Cieplice,CIEPLICE,Cieplice,Jaroslaw,50.25,22.63333333,50.2669444,22.5752778,"Cieplice, Kolonia Polska, gmina Kuryłówka, powiat leżajski, województwo podkarpackie, 37-303, Polska",3009696103.0,,,1.0,matched_nominatim
279,Cieszanów,CIESZANOW,Cieszanów,Cieszanow,50.23333333,23.13333333,50.2454329,23.1301265,"Cieszanów, powiat lubaczowski, województwo podkarpackie, Polska",31897853.0,Q653855,,1.0,matched_db_api
280,Ciężkowice,CIEZKOWICE,Ciężkowice,Grybow,49.78333333,20.96666667,49.786464,20.9737542,"Ciężkowice, powiat tarnowski, województwo małopolskie, Polska",1855033871.0,Q959508,,1.0,matched_db_api
281,Chimishliia,CIMISLIA,Cimișlia,Bendery,46.51666667,28.78333333,46.5214777,28.7832993,"Cimișlia, Moldova",265099170.0,Q2019719,,1.0,matched_db_api
282,Cisna,CISNA,Cisna,Lisko,49.21666667,22.33333333,49.2131799,22.3283323,"Cisna, powiat leski, województwo podkarpackie, Polska",692614103.0,Q2402303,,1.0,matched_db_api
283,Ćmielów,CMIELOW,Ćmielów,Opatow,50.88333333,21.51666667,50.8918364,21.5100875,"Ćmielów, powiat ostrowiecki, województwo świętokrzyskie, Polska",31897710.0,Q336448,,1.0,matched_db_api
284,Kraków,CRACOW,Krakow,Krakow,50.08333333,19.91666667,50.0619474,19.9368564,"Kraków, województwo małopolskie, Polska",1838666975.0,Q31487,,1.0,matched_db_api
285,Tsybulev,CYBULEV,Tsybuliv,Lipovets,49.06666667,29.85,49.0754398,29.8455542,"Цибулів, Монастирищенська міська громада, Уманський район, Черкаська область, 19114, Україна",337573271.0,Q2603013,,0.875,matched_nominatim
286,Cyców,CYCOW,Cyców-Kolonia Druga,Chelm,51.3,23.15,51.3038482,23.1345084,"Cyców, powiat łęczyński, województwo lubelskie, Polska",1859515162.0,,,1.0,matched_db_api
287,Cygany,CYGANY,Tsyhany,Brody,48.86666667,26.1,48.870359,26.1015893,"Цигани, Тернопільська область, Україна",337582345.0,Q4506364,,1.0,matched_db_api
288,Chernavchitsy,CZARNAWCZYCE,Charnauchytski selski Savet,Brest-Litovsk,52.21666667,23.73333333,52.2117285,23.7471308,"Чарнаўчыцы, Брэсцкі раён, Брэсцкая вобласць, Беларусь",242980215.0,Q377440,,1.0,matched_db_api
289,Czarnikau,CZARNKOW,Czarnków,Czarnkow,52.9,16.56666667,52.9050335,16.5639572,"Czarnków, powiat czarnkowsko-trzcianecki, województwo wielkopolskie, Polska",252871016.0,Q51438,,0.842,matched_db_api
290,Czarny Dunajec,CZARNY DUNAJEC,Czarny Dunajec,Nowy Targ,49.43333333,19.86666667,49.440493,19.8535612,"Czarny Dunajec, powiat nowotarski, województwo małopolskie, Polska",463302968.0,Q2368603,,1.0,matched_db_api
291,Chartoriisk,CZARTORYSK,Manevychi Settlement Hromada,Lutsk,51.21666667,25.88333333,51.226158,25.878981,"Чарторийськ, Волинська область, Україна",30723699.0,Q1007758,,1.0,matched_db_api
292,Czchów,CZCHOW,Czchów,Brzeg,49.83333333,20.68333333,49.8339446,20.6731487,"Czchów, powiat brzeski, województwo małopolskie, Polska",685489014.0,Q1003264,,1.0,matched_db_api
294,Czemierniki,CZEMIERNIKI,gmina Czemierniki,Lubartow,51.68333333,22.61666667,51.6743703,22.6380937,"Czemierniki, powiat radzyński, województwo lubelskie, Polska",362658837.0,Q2557505,,1.0,matched_db_api
295,Cheremoshno,CZEREMOSZNO,Kolodiazhne Rural Hromada,Kovel,51.31666667,25.01666667,51.3233953,25.0232037,"Черемошне, Волинська область, Україна",337509550.0,Q4512739,,1.0,matched_db_api
296,Cherniany,CZERNIANY,Charnyany,Brest-Litovsk,51.98333333,24.2,51.9861,24.21267,"Чарняны, Маларыцкі раён, Брэсцкая вобласць, Беларусь",242982243.0,Q20440077,,1.0,matched_db_api
297,Chervin,CZERWIN,Czerwin,Ostrolenka,52.95,21.75,52.9495,21.7581,"Czerwin, gmina Czerwin, powiat ostrołęcki, województwo mazowieckie, 07-407, Polska",692601947.0,Q1915100,,1.0,matched_refined
298,Czołhany,CZOLHANY,Mizhrichchia,Dolina,49.11666667,23.95,49.111176,23.949175,"Міжріччя, Болехівська міська громада, Калуський район, Івано-Франківська область, 77210, Україна",337571748.0,Q4288648,,1.0,matched_nominatim
299,Czortków,CZORTKOW,Chortkiv,Czortkow,49.01666667,25.8,49.0160555,25.7925191,"Чортків, Тернопільська область, Україна",312257558.0,Q148473,,1.0,matched_db_api
300,Czortowiec,CZORTOWIEC,Horodenka Urban Hromada,Horodenka,48.7,25.28333333,48.710972,25.278509,"Чортовець, Івано-Франківська область, Україна",337588311.0,Q4514680,,1.0,matched_db_api
301,Czudec,CZUDEC,Czudec,Rzeszow,49.95,21.83333333,49.9463655,21.8358282,"Czudec, powiat strzyżowski, województwo podkarpackie, Polska",571590531.0,,,1.0,matched_db_api
302,Chizhev,CZYZEWO,Czyżew,Ostrov,52.8,22.31666667,52.7975512,22.3123475,"Czyżew, powiat wysokomazowiecki, województwo podlaskie, Polska",31598114.0,Q9199998,,1.0,matched_db_api
303,Dobeiki,DABEIKIAI,Sterkonys,Vilkomir,55.58333333,25.31666667,55.5811352,25.3251883,"Sterkonys, Debeikių seniūnija, Utenos apskritis, Lietuva",600831970.0,Q2519996,,0.857,matched_db_api
304,Daber,DABER,Dobra,Pommern,53.58333333,15.3,53.584659,15.3073048,"Dobra, powiat łobeski, województwo zachodniopomorskie, Polska",1758659807.0,Q558579,,1.0,matched_db_api
305,Dagda,DAGDA,Dagda,Dvinsk,56.1,27.53333333,56.0948815,27.5374136,"Dagda, Latvija",119253538.0,Q757101,,1.0,matched_db_api
306,Daleszyce,DALESZYCE,Daleszyce,Kielce,50.81666667,20.8,50.801991,20.8066334,"Daleszyce, powiat kielecki, województwo świętokrzyskie, Polska",31896315.0,Q2507925,,1.0,matched_db_api
307,Dańdówka,DANDOWKA,Sosnowiec,Bedzin,50.26666667,19.18333333,50.2632027,19.1750896,"Dańdówka, Sosnowiec, Górnośląsko-Zagłębiowska Metropolia, województwo śląskie, 41-400, Polska",31902360.0,Q9202981,,1.0,matched_nominatim
308,Darachów,DARACHOW,Tiutkiv,Trembowla,49.3,25.55,49.29119,25.53875,"Дарахів, Тернопільська область, Україна",337563975.0,Q4155012,,1.0,matched_db_api
309,Novyia Dorogi,DARAGANOVO,Darahanauski selski Savet,Bobruisk,53.18333333,28.48333333,53.175121,28.49313,"Дараганава, Асіповіцкі раён, Магілёўская вобласць, Беларусь",243023437.0,Q16641752,,1.0,matched_refined
310,Dorbiany,DARBENAI,Juzumai,Telshi,56.01666667,21.25,56.0231924,21.254035,"Darbėnai, Darbėnų seniūnija, Klaipėdos apskritis, Lietuva",2150647942.0,Q2248234,,1.0,matched_db_api
311,Dorsunishki,DARSUNISKIS,Darsūniškis,Troki,54.73333333,24.11666667,54.7373802,24.119451,"Darsūniškis, Kruonio seniūnija, Kaišiadorių rajono savivaldybė, Kauno apskritis, Lietuva",1142713825.0,Q12652474,,0.909,matched_nominatim
312,Novyi I Staryi Dashev,DASHEV,Kamianohirka,Lipovets,49.0,29.45,49.002801,29.4403131,"Дашів, Дашівська селищна громада, Гайсинський район, Вінницька область, 22740, Україна",337576602.0,Q2653301,,1.0,matched_refined
313,Dashkovka,DASHOVKA,Dashkauka,Staro-Bykhov,53.73333333,30.26666667,53.7355369,30.2613755,"Дашкаўка, Магілёўскі раён, Магілёўская вобласць, Беларусь",243043398.0,Q4155518,,1.0,matched_db_api
314,Daugi,DAUGAI,Daugai,Troki,54.36666667,24.33333333,54.3600126,24.3306273,"Daugai, Daugų seniūnija, Alytaus apskritis, Lietuva",2195363909.0,Q7471305,,1.0,matched_db_api
315,Dvinsk,DAUGAVPILS,Daugavpils,Dvinsk,55.88333333,26.53333333,55.8712267,26.5159337,"Daugavpils, Latvija",30391426.0,Q80021,דאוגבפילס,0.923,matched_db_api
316,Daugelishki,DAUGIELISZKI,Naujasis Daugėliškis,Sventsiany,55.36666667,26.3,55.3695649,26.2977934,"Naujasis Daugėliškis, Naujojo Daugėliškio seniūnija, Ignalinos rajono savivaldybė, Utenos apskritis, Lietuva",458394309.0,Q9202525,,1.0,matched_refined
317,Davyd-Gorodok,DAWIDGRODEK,Davyd-Haradok,Mozyr,52.05,27.21666667,52.054893,27.212591,"Давыд-Гарадок, Столінскі раён, Брэсцкая вобласць, Беларусь",242979026.0,Q956621,,1.0,matched_db_api
318,Dekshnia,DEKSZNIE,Degsnės,Troki,54.36666667,24.8,54.3685101,24.7960422,"Degsnės, Valkininkų seniūnija, Varėnos rajono savivaldybė, Alytaus apskritis, Lietuva",2453218060.0,Q3545471,,1.0,matched_refined
319,Deliatichi,DELATYCZE,Lyubchanski selski Savet,Novogrudok,53.78333333,25.98333333,53.7847283,25.9799167,"Любчанскі сельскі Савет, Навагрудскі раён, Гродзенская вобласць, Беларусь",242992913.0,Q11693810,,1.0,matched_db_api
320,Delatyn,DELATYN,Deliatyn,Nadworna,48.53333333,24.63333333,48.5277174,24.6286388,"Делятин, Івано-Франківська область, Україна",337595495.0,Q1184359,,1.0,matched_db_api
321,Dębica,DEMBICA,Dębica,Pilzno,50.05,21.41666667,50.0514601,21.4104804,"Dębica, powiat dębicki, województwo podkarpackie, Polska",31895072.0,Q947404,,1.0,matched_db_api
322,Dęblin,DEMBLIN-IRENA,Dęblin,Pulawy,51.56666667,21.83333333,51.562491,21.8654383,"Dęblin, powiat rycki, województwo lubelskie, Polska",1854936845.0,Q983732,,1.0,matched_db_api
323,Porieche,DEMIDOV,Demidov,Porieche,55.26666667,31.51666667,55.2643778,31.5178326,"Демидов, Демидовский муниципальный округ, Смоленская область, Россия",173833660.0,Q134790,,1.0,matched_refined
324,Demidovka,DEMIDOWKA,Demydivka,Dubno,50.41666667,25.33333333,50.4285969,25.3299118,"Демидівка, Демидівська селищна громада, Дубенський район, Рівненська область, 35200, Україна",79657640.0,Q2993536,,1.0,matched_nominatim
325,Demycze,DEMYCZE,Zabolotiv,Sniatyn,48.46666667,25.3,,,,,,,,not_found
326,Denków,DENKOW,Ostrowiec Świętokrzyski,Opatow,50.93333333,21.43333333,50.9306183,21.4215831,"Denków, Ostrowiec Świętokrzyski, powiat ostrowiecki, województwo świętokrzyskie, 27-420, Polska",31896071.0,Q9205979,,1.0,matched_nominatim
327,Derazhno,DERAZHNO,Derazhne,Rovno,50.86666667,26.05,50.8624633,26.0492532,"Деражне, Деражненська сільська громада, Рівненський район, Рівненська область, 35053, Україна",1156681572.0,Q658167,דרז'נה,0.941,matched_nominatim
328,Derezhnia,DERAZHNYA,Derazhnia,Letichev,49.26666667,27.43333333,49.2686082,27.4337581,"Деражня, Хмельницька область, Україна",313202432.0,Q219775,,0.889,matched_db_api
329,Derevno,DEREWNO,Dzeraunaya,Oshmiany,53.7,26.56666667,53.699451,26.566231,"Дзераўная, Стаўбцоўскі раён, Мінская вобласць, Беларусь",242997518.0,Q822415,,0.933,matched_db_api
330,Deutsch Eylau,DEUTSCH EYLAU,Iława,Susz,53.6,19.56666667,53.5976095,19.5612175,"Iława, powiat iławski, województwo warmińsko-mazurskie, Polska",31589970.0,Q8194,,1.0,matched_db_api
331,Deutsch Krone,DEUTSCH-KRONE,Wałcz,Walcz,53.26666667,16.46666667,53.269745,16.4670655,"Wałcz, powiat wałecki, województwo zachodniopomorskie, Polska",31579732.0,Q935744,,1.0,matched_db_api
332,Diatkovo,DIATKOVO,Dyatkovo,Briansk,53.6,34.33333333,53.6003804,34.3335523,"Дятьково, Дятьковское городское поселение, Дятьковский район, Брянская область, Центральный федеральный округ, Россия",336306431.0,Q135559,,1.0,matched_nominatim
333,Didkovichi,DIDKOVICHI,Didkovychi,Ovruch,51.1,28.83333333,51.101189,28.833281,"Дідковичі, Коростенська міська громада, Коростенський район, Житомирська область, 11534, Україна",337511774.0,Q4156713,,1.0,matched_nominatim
334,Dymer,DIMER,Dymer,Kiev,50.78333333,30.3,50.7864057,30.3038532,"Димер, Димерська селищна громада, Вишгородський район, Київська область, 07330, Україна",1585808480.0,Q2670488,,1.0,matched_nominatim
335,Dlugosedlo,DLUGOSIODLO,Nowe Bosewo,Ostrov,52.76666667,21.6,52.759577,21.5929004,"Długosiodło, powiat wyszkowski, województwo mazowieckie, Polska",692601113.0,Q733569,,0.857,matched_db_api
336,Dmitrovka,DMITREVKA,Dmytrivka,Konotop,50.93333333,32.96666667,50.9343619,32.9457499,"Дмитрівка, Дмитрівська селищна громада, Ніжинський район, Чернігівська область, 16573, Україна",337513807.0,Q4162982,,0.889,matched_nominatim
337,Kamenskoe,DNEPRODZERZHINSK,Kamianske,Ekaterinoslav,48.5,34.61666667,48.5167748,34.6068797,"Кам’янське, Дніпропетровська область, Україна",1756064253.0,Q156719,קמיאנסקה,1.0,matched_db_api
338,Ekaterinoslav,DNEPROPETROVSK,Dnipro Urban Hromada,Ekaterinoslav,48.45,34.98333333,48.4680221,35.0417711,"Дніпро, Дніпровська міська громада, Дніпровський район, Дніпропетровська область, 49000, Україна",337597818.0,Q48256,דניפרו,1.0,matched_refined
339,Dobczyce,DOBCZYCE,Dobczyce,Wieliczka,49.86666667,20.08333333,49.8803432,20.0905415,"Dobczyce, powiat myślenicki, województwo małopolskie, Polska",508068396.0,Q1003279,,1.0,matched_db_api
340,Doblen,DOBELE,Dobeles novads,Mitava,56.61666667,23.26666667,56.6257485,23.277275,"Dobele, Latvija",29488309.0,Q729447,דובלה,1.0,matched_db_api
341,Dobra,DOBRA (I),Dobra,Turek,51.91666667,18.61666667,51.9161774,18.6159693,"Dobra, powiat turecki, województwo wielkopolskie, Polska",529115993.0,Q555150,,1.0,matched_db_api
342,Dobra,DOBRA (II),Dobra,Limanowa,49.71666667,20.26666667,49.7181214,20.2507691,"Dobra, powiat limanowski, województwo małopolskie, Polska",688086782.0,,,1.0,matched_db_api
343,Dobre,DOBRE,Brzozowica,Radzymin,52.33333333,21.68333333,52.32171,21.67852,"Dobre, powiat miński, województwo mazowieckie, Polska",31699972.0,Q2584782,,1.0,matched_db_api
344,Dobrianka,DOBRIANKA,Dobrianka,Gorodnia,52.06666667,31.18333333,52.063057,31.173548,"Добрянка, Добрянська селищна громада, Чернігівський район, Чернігівська область, 15011, Україна",337503046.0,Q4163909,,1.0,matched_nominatim
345,Dobraia,DOBROE,Dobre,Kherson,47.31666667,32.45,47.313309,32.44949,"Добре, Баштанська міська громада, Баштанський район, Миколаївська область, 56156, Україна",628994143.0,Q4163677,,1.0,matched_refined
346,Dobromil,DOBROMIL,Dobromyl,Dobromil,49.56666667,22.78333333,49.5710282,22.7851508,"Добромиль, Львівська область, Україна",324203591.0,Q268656,,1.0,matched_db_api
347,Dobromysl,DOBROMYSL,Dabramyslinski selski Savet,Orsha,54.93333333,30.66666667,54.9311009,30.6694939,"Дабрамыслі, Лёзненскі раён, Віцебская вобласць, Беларусь",243042871.0,Q6485625,,0.947,matched_db_api
348,Dobrotwór,DOBROTWOR,Staryi Dobrotvir,Kamionka,50.23333333,24.36666667,50.2053412,24.385568,"Добротвір, Львівська область, Україна",337526811.0,Q2474873,,1.0,matched_refined
349,Dobrovelichkovka,DOBROVELYTCHKOVKA,Dobrovelychkivka,Elizavetgrad,48.38333333,31.18333333,48.38791,31.17748,"Добровеличківка, Добровеличківська селищна громада, Новоукраїнський район, Кіровоградська область, 27000-27005, Україна",201866996.0,Q1020100,,1.0,matched_nominatim
350,Dobrush,DOBRUSH,Dobrush,Gomel,52.41666667,31.31666667,52.4207804,31.3159369,"Добруш, Добрушскі раён, Гомельская вобласць, Беларусь",242978986.0,Q955474,דוברוש,1.0,matched_db_api
351,Chotai,DOBRUSHINO,Dobrushynskoe selskoe poselenye,Evpatoriia,45.36666667,33.36666667,45.3742222,33.3660902,"Добрушино, Добрушинское сельское поселение, Сакский район, Республика Крым, 96510, Україна",30715288.0,Q4163826,,1.0,matched_refined
352,Dobrzyń,DOBRZYN NAD WISLA,Dobrzyń nad Wisłą,Lipno,52.65,19.33333333,52.6374518,19.3213714,"Dobrzyń nad Wisłą, powiat lipnowski, województwo kujawsko-pomorskie, Polska",1867069606.0,Q995806,,1.0,matched_refined
353,Dokshitsy,DOKSZYCE,Dokshytsy,Borisov,54.9,27.75,54.8945582,27.7603777,"Докшыцы, Докшыцкі раён, Віцебская вобласць, Беларусь",242978935.0,Q954618,דוקשיצה,1.0,matched_db_api
354,Dołhe Podbuskie,DOLHE PODBUSKIE,Skhidnytsia Settlement Hromada,Drohobycz,49.16666667,23.35,49.164433,23.331865,"Довге, Львівська область, Україна",337569437.0,Q4164604,,1.0,matched_db_api
355,Dolginov,DOLHINOW,Dawhinava,Vileika,54.65,27.48333333,54.6456778,27.4762063,"Даўгінава, Вілейскі раён, Мінская вобласць, Беларусь",243012885.0,Q2029657,,0.941,matched_db_api
356,Dolina,DOLINA,Obolonnia,Dolina,48.96666667,24.01666667,48.9782308,23.9789588,"Долина, Івано-Франківська область, Україна",312269689.0,Q157472,,1.0,matched_db_api
357,Dołczka,DOLZKA,Dibrova,Kalusz,49.16666667,24.48333333,49.176481,24.4895304,"Довжка, Івано-Франківська область, Україна",30704092.0,Q4164864,,0.923,matched_db_api
358,Domachev,DOMACZEWO,Damachauski selski Savet,Brest-Litovsk,51.75,23.6,51.7473452,23.5929791,"Дамачаўскі сельскі Савет, Брэсцкі раён, Брэсцкая вобласць, Беларусь",242978994.0,Q550040,דומצ'ב,0.941,matched_db_api
359,Domanevka,DOMANEVKA,Domanivka,Ananev,47.63333333,30.98333333,47.6322253,30.9892003,"Доманівка, Доманівська селищна громада, Вознесенський район, Миколаївська область, 56400, Україна",193430585.0,Q2000489,,0.889,matched_nominatim
360,Domanovo,DOMANOVO,Vishnyouski selski Savet,Bobruisk,53.03333333,29.26666667,53.03555,29.26097,"Вішнёўскі сельскі Савет, Бабруйскі раён, Магілёўская вобласць, Беларусь",243028060.0,Q16645640,,1.0,matched_db_api
361,Domaradz,DOMARADZ,Domaradz,Brzozow,49.78333333,21.95,49.8922222,21.9119444,"Domaradz, Baryczka, gmina Niebylec, powiat strzyżowski, województwo podkarpackie, 38-115, Polska",3009697860.0,,,1.0,matched_nominatim
362,Dąbie,DOMBIE,Domanin,Turek,52.08333333,18.83333333,52.0871691,18.8220738,"Dąbie, powiat kolski, województwo wielkopolskie, Polska",31625880.0,Q1005435,,1.0,matched_db_api
363,Dombrovo,DOMBROWA,Dąbrowa Białostocka,Sokolki,53.66666667,23.35,53.654439,23.3485102,"Dąbrowa Białostocka, powiat sokólski, województwo podlaskie, Polska",1755364655.0,Q986406,דומברובה ביאלוסטוצקה,1.0,matched_refined
364,Dąbrowa,DOMBROWA GORNICZA,Dąbrowa Górnicza,Bedzin,50.33333333,19.2,50.1822995,19.3891744,"Dąbrowa, Luszowice, gmina Chrzanów, powiat chrzanowski, województwo małopolskie, 32-500, Polska",3009700720.0,,,1.0,matched_nominatim
365,Dombrovitsy,DOMBROWICA,Dubrovytsia,Rovno,51.56666667,26.56666667,51.5709462,26.5660889,"Дубровиця, Дубровицька міська громада, Сарненський район, Рівненська область, 34100-34108, Україна",252154479.0,Q205765,דומברוביץ,1.0,matched_refined
366,Dąbrowice,DOMBROWICE,Dąbrowice,Kutno,52.31666667,19.1,52.3156388,19.08451,"Dąbrowice, powiat kutnowski, województwo łódzkie, Polska",31710268.0,Q985780,,1.0,matched_db_api
367,Amvrosievka,DONETSKO-AMVROSIEVKA,Amvrosiivka,Taganrog,47.8,38.48333333,47.7952806,38.4798317,"Амвросіївка, Амвросіївська міська громада, Донецький район, Донецька область, 87300-87304, Україна",2383900.0,Q1996358,,1.0,matched_nominatim
368,Dorogobuzh,DOROGOBUZH,Dorogobuzh,Dorogobuzh,54.91666667,33.3,54.9148236,33.2989051,"Дорогобуж, Дорогобужский муниципальный округ, Смоленская область, Центральный федеральный округ, Россия",336306191.0,Q135446,,1.0,matched_nominatim
369,Datnovo,DOTNUVA,Urnėžiai,Kovno,55.35,23.9,55.3658421,23.8879636,"Dotnuva, Dotnuvos seniūnija, Kauno apskritis, Lietuva",1827991148.0,Q1251216,,1.0,matched_refined
370,Dovbysh,DOVBISH,Nataliia,Novograd-Volynskii,50.36666667,27.98333333,50.371498,27.985924,"Довбиш, Довбиська селищна громада, Звягельський район, Житомирська область, 12724, Україна",337523156.0,Q2993483,,1.0,matched_nominatim
371,Dramburg,DRAMBURG,Drawsko Pomorskie,Pommern,53.53333333,15.8,53.5310786,15.8134179,"Drawsko Pomorskie, powiat drawski, województwo zachodniopomorskie, Polska",1758659809.0,Q326123,,1.0,matched_db_api
372,Dribin,DRIBIN,Drybin,Chausy,54.11666667,31.1,54.1182948,31.0931587,"Дрыбін, Дрыбінскі раён, Магілёўская вобласць, Беларусь",242978989.0,Q2630539,,1.0,matched_db_api
373,Drissa,DRISSA,Vyerkhnyadzvinsk,Drissa,55.78333333,27.95,55.7673597,27.9425299,"Дрыса, Верхнядзвінск, Верхнядзвінскі раён, Віцебская вобласць, Беларусь",566272443.0,Q2622731,,1.0,matched_nominatim
374,Drobin,DROBIN,Drobin,Plock,52.75,19.98333333,52.7377981,19.9893151,"Drobin, powiat płocki, województwo mazowieckie, Polska",500751187.0,Q1006081,דרובין,1.0,matched_db_api
375,Drogichin,DROHICZYN (I),Drahichyn,Kobrin,52.18333333,25.15,52.1855013,25.1602598,"Драгічын, Драгічынскі раён, Брэсцкая вобласць, Беларусь",242978900.0,Q956471,דרוהיצ'ין,1.0,matched_db_api
376,Drogichin,DROHICZYN (II),Drohiczyn,Bielsk,52.4,22.65,52.396648,22.658812,"Drohiczyn, powiat siemiatycki, województwo podlaskie, Polska",1855026515.0,Q769631,,0.947,matched_db_api
377,Drohobycz,DROHOBYCZ,Drohobych,Drohobycz,49.35,23.5,49.3513996,23.5061662,"Дрогобич, Львівська область, Україна",313248206.0,Q158821,דרוהוביץ',1.0,matched_db_api
378,Druia,DRUJA,Druja,Disna,55.78333333,27.45,55.7869548,27.464213,"Друя, Браслаўскі раён, Віцебская вобласць, Беларусь",130200330.0,Q2621918,,1.0,matched_db_api
379,Druisk,DRUJSK,Drueuski selski Savet,Novoaleksandrovsk,55.73333333,27.28333333,55.730759,27.280216,"Друйск, Браслаўскі раён, Віцебская вобласць, Беларусь",243012123.0,Q6488187,,1.0,matched_db_api
380,Druskeniki,DRUSKIENIKI,Druskininkai,Grodno,54.01666667,23.96666667,54.0171932,23.9772282,"Druskininkai, Druskininkų savivaldybė, Alytaus apskritis, Lietuva",1657212330.0,Q1261509,דרוסקינינקאי,1.0,matched_db_api
381,Druzhkopol,DRUSZKOPOL,Zhuravnyky,Vladimir-Volynskii,50.43333333,24.68333333,50.426411,24.681585,"Журавники, Горохівська міська громада, Луцький район, Волинська область, Україна",314192631.0,Q4181826,,1.0,matched_refined
382,Druzhkovka,DRUZHKOVA,Kostiantynivka urban hromada,Bakhmut,48.61666667,37.55,48.6198614,37.524945,"Дружківка, Донецька область, Україна",256613834.0,Q157795,דרוז'קיבקה,1.0,matched_db_api
383,Drzewica,DRZEWICA,Drzewica,Opoczno,51.45,20.48333333,51.5004809,20.5530436,"Drzewica, Gajówka, Kłonna, gmina Odrzywół, powiat przysuski, województwo mazowieckie, Polska",3009698193.0,,,1.0,matched_nominatim
384,Dubechno,DUBECZNO (I),Dubechne,Vladimir-Volynskii,51.55,24.36666667,51.5481067,24.3754757,"Дубечне, Дубечненська сільська громада, Ковельський район, Волинська область, 44412, Україна",337507107.0,Q4169120,,1.0,matched_nominatim
385,Dubiecko,DUBIECKO,Wybrzeże,Brzozow,49.81666667,22.38333333,49.8253187,22.3916222,"Dubiecko, powiat przemyski, województwo podkarpackie, Polska",692614019.0,Q2612477,,1.0,matched_db_api
386,Dubienka,DUBIENKA,Dubienka,Hrubieszow,51.05,23.88333333,51.0252909,23.6753869,"Dubienka, Żmudź, gmina Żmudź, powiat chełmski, województwo lubelskie, 22-114, Polska",3009698225.0,Q38745379,,1.0,matched_nominatim
387,Dubinki,DUBINGIAI,Dubingiai,Vilnius,55.06666667,25.45,55.0585136,25.4498643,"Dubingiai, Dubingių seniūnija, Molėtų rajono savivaldybė, Utenos apskritis, Lietuva",290359383.0,Q1883864,,1.0,matched_nominatim
388,Dubinovo,DUBINOVO,Plyuski selski Savet,Novoaleksandrovsk,55.76666667,26.95,55.76849,26.95624,"Плюскі сельскі Савет, Браслаўскі раён, Віцебская вобласць, Беларусь",243008487.0,Q20189245,,0.875,matched_db_api
389,Dubno,DUBNO,Dubno,Dubno,50.41666667,25.75,50.4187918,25.7455972,"Дубно, Дубенська міська громада, Дубенський район, Рівненська область, 35627, Україна",337522487.0,Q932184,דובנו,1.0,matched_nominatim
390,Dubossary,DUBOSSARY,Dubăsari town council,Tiraspol,47.26666667,29.16666667,47.26553,29.1615615,"Дубоссарский городской совет, Районул Дубэсарь / Дубоссарский район / Дубоссарський район, Нистрения / Приднестровье / Придністров'я, Moldova",278768080.0,Q688654,דובסרי,1.0,matched_db_api
391,Dubovo,DUBOVO,Dubova,Uman,48.63333333,30.45,48.636635,30.448812,"Дубова, Бабанська селищна громада, Уманський район, Черкаська область, 20362, Україна",133396529.0,Q4169369,,0.833,matched_nominatim
392,Dubrovny,DUBROVNO,Dubrowna,Gorki,54.56666667,30.68333333,54.5721785,30.6901469,"Дуброўна, Дубровенскі раён, Віцебская вобласць, Беларусь",242978980.0,Q954505,דוברובנה,0.875,matched_db_api
393,Dubrovo,DUBROWA,Zhaludotski selski Savet,Lida,53.55,25.05,53.55904,25.04874,"Жалудоцкі сельскі Савет, Шчучынскі раён, Гродзенская вобласць, Беларусь",242988664.0,Q21626404,,1.0,matched_db_api
394,Dukhovshchina,DUKHOVSHCHINA,,Dukhovshchina,55.18333333,32.4,55.1907803,32.4060434,"Духовщина, Духовщинский муниципальный округ, Смоленская область, Россия",336306145.0,Q135543,,1.0,matched_db_api
395,Dukla,DUKLA,Dukla,Krosno,49.56666667,21.68333333,49.55636,21.6847523,"Dukla, powiat krośnieński, województwo podkarpackie, Polska",40641710.0,Q336386,,1.0,matched_db_api
396,Dukora,DUKORA,Dukora,Igumen,53.66666667,27.95,53.669655,27.953768,"Дукора, Пухавіцкі раён, Мінская вобласць, Беларусь",243015754.0,Q143040,,1.0,matched_db_api
397,Dukshty,DUKSZTY,Senasis Dūkštas,Novoaleksandrovsk,55.53333333,26.33333333,55.519959,26.3217654,"Dūkštas, Dūkšto seniūnija, Utenos apskritis, Lietuva",442534913.0,Q2356406,דוקשטי,0.857,matched_db_api
398,Dombroveny,DUMBRAVENI (I),Dumbrăveni,Soroki,48.05,28.23333333,48.0518203,28.2259698,"Dumbrăveni, Moldova",281905624.0,,,0.8,matched_db_api
399,Dunajów,DUNAJOW,Dunaiv,Przemyslany,49.61666667,24.83333333,49.620213,24.822845,"Дунаїв, Перемишлянська міська громада, Львівський район, Львівська область, 81234, Україна",337552219.0,Q4170692,,1.0,matched_nominatim
400,Dundaga,DUNDAGA,Dundaga,Vindava,57.51666667,22.35,57.5059668,22.3559064,"Dundaga, Dundagas pagasts, Talsu novads, Latvija",29488824.0,Q962653,,1.0,matched_nominatim
401,Dunilovichi,DUNILOWICZE,Dunilavitski selski Savet,Vileika,55.06666667,27.23333333,55.0754285,27.2344135,"Дунілавічы, Пастаўскі раён, Віцебская вобласць, Беларусь",243011661.0,Q3917466,,1.0,matched_db_api
402,Durbe,DURBE,Dienvidkurzemes novads,Grobin,56.58333333,21.35,56.5860468,21.3726593,"Durbe, Latvija",29488934.0,Q840801,,1.0,matched_db_api
403,Dusiaty,DUSETOS,Dusetos,Novoaleksandrovsk,55.75,25.85,55.7486829,25.8455165,"Dusetos, Dusetų seniūnija, Zarasų rajono savivaldybė, Utenos apskritis, Lietuva",469109237.0,Q2044605,,1.0,matched_nominatim
404,Dvorets,DWORZEC,Dvaretski selski Savet,Slonim,53.4,25.56666667,53.405891,25.570776,"Дварэц, Дзятлаўскі раён, Гродзенская вобласць, Беларусь",242990839.0,Q3918885,,1.0,matched_db_api
405,Dynów,DYNOW,Dynów,Brzozow,49.81666667,22.23333333,49.8134771,22.2338151,"Dynów, powiat rzeszowski, województwo podkarpackie, Polska",506203648.0,Q910985,דינוב,1.0,matched_db_api
406,Koidanovo,DZERZHINSK (I),Dzyarzhynsk,Minsk,53.68333333,27.15,53.6852149,27.1314539,"Дзяржынск, Дзяржынскі раён, Мінская вобласць, Беларусь",242978932.0,Q200891,דזיארז'ינסק,1.0,matched_refined
407,Shcherbinovka,DZERZHINSK (II),Toretsk,Bakhmut,48.4,37.83333333,48.3943714,37.7901336,"Щербинівка, Донецька область, Україна",256613813.0,Q4528953,,1.0,matched_db_api
408,Dzhankoi,DZHANKOY,Dzhankoy,Perekop,45.71666667,34.4,45.7119746,34.3927394,"Джанкой, Джанкойський район, Республика Крым, 96181, Україна",256579283.0,Q161978,ג'נקוי,1.0,matched_nominatim
409,Działoszyn,DZIALOSHYN,Działoszyn,Wielun,51.11666667,18.86666667,51.1167859,18.8651624,"Działoszyn, powiat pajęczański, województwo łódzkie, Polska",31806052.0,Q1015152,,1.0,matched_db_api
410,Działoszyce,DZIALOSZYCE,Działoszyce,Pinczow,50.36666667,20.35,50.2630369,20.5611808,"Działoszyce, Wymysłów, gmina Kazimierza Wielka, powiat kazimierski, województwo świętokrzyskie, 28-512, Polska",3009698726.0,,,1.0,matched_nominatim
411,Dzików Stary,DZIKOW STARY,Stary Dzików,Cieszanow,50.25,22.93333333,50.2466301,22.929797,"Stary Dzików, powiat lubaczowski, województwo podkarpackie, Polska",31895225.0,Q2653684,,1.0,matched_db_api
412,Disna,DZISNA,Dzisna,Disna,55.56666667,28.21666667,55.5332754,28.0889639,"Дзісна, Завуццеўскі сельскі Савет, Мёрскі раён, Віцебская вобласць, Беларусь",565536011.0,Q432399,,1.0,matched_nominatim
413,Dziunkov,DZIUNKOV,Dziunkiv,Berdichev,49.45,29.45,49.458389,29.444389,"Дзюньків, Погребищенська міська громада, Вінницький район, Вінницька область, 22232, Україна",337558427.0,Q4160938,,1.0,matched_nominatim
414,Dzhurin,DZURIN,Dzhuryn,Lampol,48.68333333,28.3,48.681271,28.292053,"Джурин, Вінницька область, Україна",337589579.0,Q2065103,דז'ורין,1.0,matched_db_api
415,Dżurków,DZURKOW,Dzhurkiv,Kolomyja,48.63333333,25.2,48.6345812,25.1975761,"Джурків, Підгайчиківська сільська громада, Коломийський район, Івано-Франківська область, 78252, Україна",337591220.0,Q4160644,,1.0,matched_nominatim
416,Dźwinogród,DZWINOGROD,Hai,Bobrka,49.73333333,24.25,49.732727,24.251743,"Звенигород, Давидівська сільська громада, Львівський район, Львівська область, Україна",30703130.0,Q2026890,,1.0,matched_nominatim
417,Dzygovka,DZYGOVKA,Dzygivka,Lampol,48.36666667,28.33333333,48.353975,28.316277,"Дзиґівка, Вінницька область, Україна",337601064.0,Q2505762,דזיהיבקה,1.0,matched_db_api
418,Edintsy,EDINETI,Edineț,Khotin,48.16666667,27.3,48.1684275,27.2984813,"Edineț, Moldova",265099147.0,Q1150271,,1.0,matched_db_api
419,Ialovka,EGLAINE,Augšdaugavas novads,Illukst,55.95,26.13333333,55.9503998,26.1233239,"Eglaine, Latvija",2069382349.0,Q5348044,,1.0,matched_refined
420,Eishishki,EJSZYSZKI,Eišiškės,Lida,54.16666667,25.0,54.1686462,25.0001234,"Eišiškės, Eišiškių seniūnija, Vilniaus apskritis, Lietuva",277151877.0,Q58880,איישישוק,0.889,matched_db_api
421,Elbing,ELBING,Elbląg,Elblag,54.16666667,19.38333333,54.1558708,19.4044583,"Elbląg, województwo warmińsko-mazurskie, Polska",31532258.0,Q104712,אלבלונג,1.0,matched_db_api
422,Ielnia,ELNIA,Yelnya,Elnia,54.56666667,33.18333333,54.5764954,33.1891698,"Ельня, Ельнинский муниципальный округ, Смоленская область, Центральный федеральный округ, 216330, Россия",336306252.0,Q102364,,1.0,matched_nominatim
423,Emilchik,EMILCHINO,Yemilchyne,Novograd-Volynskii,50.86666667,27.8,50.872091,27.8047443,"Ємільчине, Житомирська область, Україна",337514704.0,Q2641633,,0.824,matched_db_api
424,Erzhvilki,ERZVILKAS,Eržvilkas,Rossieny,55.26666667,22.71666667,55.2625692,22.7061958,"Eržvilkas, Eržvilko seniūnija, Jurbarko rajono savivaldybė, Tauragės apskritis, Lietuva",889244642.0,Q2277462,,0.824,matched_nominatim
425,Eydtkuhnen,EYDTKUHNEN,Detskoe,Stolupiany,54.63333333,22.73333333,54.6393711,22.7350233,"Чернышевское, Нестеровский муниципальный округ, Калининградская область, Северо-Западный федеральный округ, Россия",161735601.0,Q655358,,1.0,matched_refined
426,Falenica,FALENICA,Warsaw,Minsk Mazowiecki,52.16666667,21.23333333,52.1608783,21.211679,"Warszawa, województwo mazowieckie, Polska",692623002.0,Q3569401,,1.0,matched_db_api
427,Foleshty,FALESTI,Călugăr,Bieltsy,47.56666667,27.71666667,47.5735141,27.7068016,"Fălești, Moldova",265099157.0,Q2078085,,0.875,matched_db_api
428,Falkenburg,FALKENBURG,Złocieniec,Pommern,53.53333333,16.0,53.5310477,16.0107245,"Złocieniec, powiat drawski, województwo zachodniopomorskie, Polska",1758659810.0,Q249049,,1.0,matched_db_api
429,Fastov,FASTOW,Fastiv,Vasilkov,50.08333333,29.91666667,50.0799307,29.9162821,"Фастів, Фастівська міська громада, Фастівський район, Київська область, 08500, Україна",337535126.0,Q161984,פסטוב,1.0,matched_nominatim
430,Felshtin,FELSHTIN,Hvardiiske,Proskurov,49.31666667,26.71666667,49.33617,26.70948,"Гвардійське, Хмельницька область, Україна",337562557.0,Q4134452,,0.947,matched_refined
431,Felsztyn,FELSZTYN,Skelivka,Stare Miasto,49.53333333,22.96666667,49.537186,22.965303,"Скелівка, Хирівська міська громада, Самбірський район, Львівська область, 82052, Україна",337555637.0,Q4421801,,1.0,matched_nominatim
432,Filipovo,FILIPOW,Filipów,Suvalki,54.18333333,22.61666667,54.1796287,22.6215914,"Filipów, powiat suwalski, województwo podlaskie, Polska",613353790.0,Q2395193,,0.8,matched_db_api
433,Firlej,FIRLEJ,Firlej,Lubartow,51.55,22.51666667,51.5582926,22.5054567,"Firlej, powiat lubartowski, województwo lubelskie, Polska",1858296190.0,Q2221577,,1.0,matched_db_api
434,Flatow,FLATOW,Złotów,Zlotow,53.35,17.05,53.3631938,17.034694,"Złotów, powiat złotowski, województwo wielkopolskie, Polska",31578422.0,Q249166,,1.0,matched_db_api
435,Fordon,FORDON,Bydgoszcz,Bydgoszcz,53.15,18.18333333,53.1477778,18.1694444,"Fordon, Stary Fordon, Bydgoszcz, województwo kujawsko-pomorskie, Polska",3009672930.0,,,1.0,matched_nominatim
436,Frampol,FRAMPOL,Kosohirka,Kamenets-Podolsk,49.1,26.75,49.095501,26.747589,"Косогірка, Ярмолинецька селищна громада, Хмельницький район, Хмельницька область, 32155, Україна",337572286.0,Q4235146,,0.857,matched_nominatim
437,Fraustadt,FRAUSTADT,Wschowa,Wschowa,51.8,16.31666667,51.8038354,16.3172771,"Wschowa, powiat wschowski, województwo lubuskie, Polska",31782947.0,Q717938,,1.0,matched_db_api
438,Fraidorf,FRAYDORF (I),Novosyolovskoye,Evpatoriia,45.43333333,33.6,45.4400925,33.5965762,"Новосёловское, Перекопський район, Республика Крым, Україна",337695588.0,Q2090212,,1.0,matched_refined
439,Freienwalde,FREIENWALDE,Radomyśl,Pommern,53.45,15.31666667,53.4663949,15.3314436,"Chociwel, powiat stargardzki, województwo zachodniopomorskie, Polska",31592354.0,Q1021263,,1.0,matched_refined
440,Freystadt,FREYSTADT,Kisielice,Susz,53.6,19.26666667,53.6076054,19.2593923,"Kisielice, powiat iławski, województwo warmińsko-mazurskie, Polska",31588983.0,Q989801,,1.0,matched_refined
441,Friedland,FRIEDLAND,Shevchenko,Frydlad,54.45,21.01666667,54.4462998,21.0183439,"Правдинск, Правдинский муниципальный округ, Калининградская область, Северо-Западный федеральный округ, Россия",767068249.0,Q183193,,1.0,matched_nominatim
442,Zakharevka,FRUNZOVKA,Zakharivka,Tiraspol,47.33333333,29.75,47.3316351,29.758089,"Захарівка, Захарівська селищна громада, Роздільнянський район, Одеська область, Україна",237475433.0,Q2652127,,1.0,matched_nominatim
443,Frysztak,FRYSZTAK,Twierdza,Jaslo,49.83333333,21.61666667,49.8393809,21.6073264,"Frysztak, powiat strzyżowski, województwo podkarpackie, Polska",38404570.0,Q498777,,1.0,matched_db_api
444,Gats-Sokolia צ Lonka,GACH,Gać,Lomzha,53.08333333,22.25,53.2365292,22.4687248,"Gać, Giełczyn, gmina Trzcianne, powiat moniecki, województwo podlaskie, Polska",3009673007.0,Q11699505,,1.0,matched_refined
445,Gaivoron,GAIVORON,Haivoron,Gaisin,48.35,29.85,48.3406905,29.8593204,"Гайворон, Гайворонська міська громада, Голованівський район, Кіровоградська область, 26300, Україна",2449053011.0,Q591848,הייבורון,1.0,matched_nominatim
446,Garbatka,GARBATKA,Garbatka-Letnisko,Kozienice,51.48333333,21.63333333,51.5011706,21.6429551,"Garbatka, Garbatka-Letnisko Północ, Garbatka-Letnisko, gmina Garbatka-Letnisko, powiat kozienicki, województwo mazowieckie, 26-930, Polska",3009702492.0,,,1.0,matched_nominatim
447,Gorzhdy,GARGZDAI,Gargždai,Telshi,55.71666667,21.4,55.7175688,21.3950166,"Gargždai, Gargždų seniūnija, Klaipėdos apskritis, Lietuva",32445950.0,Q259272,,0.923,matched_db_api
448,Godlevo,GARLIAVA,Garliava,Mariampol,54.81666667,23.86666667,54.8279294,23.8746799,"Garliava, Garliavos seniūnija, Kauno apskritis, Lietuva",32441785.0,Q1004312,,0.857,matched_db_api
449,Gartz,GARTZ AN DER ODER,gmina Widuchowa,Pommern,53.2,14.38333333,53.208577,14.3914352,"Gartz (Oder), Uckermark, Brandenburg, Deutschland",240073960.0,Q571998,,1.0,matched_db_api
450,Garwolin,GARWOLIN,Garwolin,Garwolin,51.9,21.63333333,51.8973315,21.6149645,"Garwolin, powiat garwoliński, województwo mazowieckie, Polska",1855026517.0,Q583896,,1.0,matched_db_api
451,Gaisin,GAYSIN,Haisyn,Gaisin,48.8,29.4,48.8120874,29.3893874,"Гайсин, Гайсинська міська громада, Гайсинський район, Вінницька область, 23700, Україна",337584871.0,Q574553,,1.0,matched_nominatim
452,Danzig,GDANSK,Gdańsk,Gdansk,54.35,18.66666667,54.3482907,18.6540233,"Gdańsk, województwo pomorskie, Polska",26432122.0,Q1792,גדנסק,1.0,matched_db_api
453,Gdov,GDOV,Sloboda,Gdov,58.73333333,27.81666667,58.7430744,27.8153569,"Гдов, городское поселение Гдов, Гдовский район, Псковская область, Северо-Западный федеральный округ, Россия",304552666.0,Q134396,,1.0,matched_nominatim
454,Gdów,GDOW,Gdów,Wieliczka,49.91666667,20.2,49.9085036,20.1996034,"Gdów, powiat wielicki, województwo małopolskie, Polska",463300527.0,,,1.0,matched_db_api
455,Gdingen,GDYNIA,Gdynia,Wejherowo,54.5,18.55,54.5164982,18.5402738,"Gdynia, województwo pomorskie, Polska",26432430.0,Q385,גדיניה,1.0,matched_db_api
456,Gelvani,GELVONAI,Gelvonai,Vilnius,55.06666667,24.7,55.0666904,24.6922301,"Gelvonai, Gelvonų seniūnija, Širvintų rajono savivaldybė, Vilniaus apskritis, Lietuva",1271387198.0,Q2046850,,0.8,matched_nominatim
457,Genichesk,GENICHESK,Henichesk,Melitopol,46.18333333,34.76666667,46.1661695,34.8088828,"Генічеськ, Генічеська міська громада, Генічеський район, Херсонська область, 75500-75509, Україна",337691804.0,Q761130,הניצ'סק,1.0,matched_nominatim
458,Germanovka,GERMANOWKA,Hermanivka,Kiev,49.98333333,30.56666667,49.99054,30.55847,"Германівка, Обухівська міська громада, Обухівський район, Київська область, 08753, Україна",337537982.0,Q4137286,,1.0,matched_nominatim
459,Gidle,GIDLE,Gidle,Noworadomsk,50.96666667,19.48333333,50.9640585,19.4684614,"Gidle, gmina Gidle, powiat radomszczański, województwo łódzkie, 97-540, Polska",31902291.0,Q847181,,1.0,matched_nominatim
460,Gedroitsy,GIEDRAICIAI,Alka,Vilnius,55.08333333,25.28333333,55.0734157,25.2612495,"Giedraičiai, Giedraičių seniūnija, Molėtų rajono savivaldybė, Utenos apskritis, Lietuva",307745519.0,Q3068575,,1.0,matched_refined
461,Gielniów,GIELNIOW,Wywóz,Opoczno,51.4,20.48333333,51.3997224,20.4762225,"Gielniów, powiat przysuski, województwo mazowieckie, Polska",31876987.0,Q2441134,,1.0,matched_db_api
462,Gilgenburg,GILGENBURG,Dąbrówno,Ostroda,53.43333333,20.05,53.4330094,20.0360833,"Dąbrówno, powiat ostródzki, województwo warmińsko-mazurskie, Polska",31577486.0,Q1272595,,1.0,matched_db_api
463,Girtakol,GIRKALNIS,Girkalnis,Rossieny,55.31666667,23.21666667,55.3113722,23.202031,"Girkalnis, Girkalnio seniūnija, Raseinių rajono savivaldybė, Kauno apskritis, Lietuva",779327116.0,Q2418779,,1.0,matched_nominatim
464,Gliniany,GLINIANY,Hlyniany,Przemyslany,49.81666667,24.51666667,49.8220371,24.5165092,"Глиняни, Глинянська міська громада, Львівський район, Львівська область, 80720, Україна",313247874.0,Q997502,הליניאני,1.0,matched_nominatim
465,Glinki,GLINKI,Hlynky,Rovno,50.58333333,26.41666667,50.575562,26.39912,"Глинки, Білокриницька сільська громада, Рівненський район, Рівненська область, 35342, Україна",337519511.0,Q7287119,,1.0,matched_nominatim
466,Glińsko,GLINSKO,Hlynsk,Zolkiew,50.06666667,23.9,50.062061,23.909487,"Глинськ, Жовківська міська громада, Львівський район, Львівська область, 80351, Україна",337535689.0,Q4139851,,1.0,matched_nominatim
467,Głogów,GLOGOW,Głogów Małopolski,Rzeszow,50.15,21.96666667,50.1511809,21.9627571,"Głogów Małopolski, powiat rzeszowski, województwo podkarpackie, Polska",31894993.0,Q1025309,,1.0,matched_refined
468,Głowaczów,GLOWACZOW,Leżenice,Kozienice,51.63333333,21.31666667,51.6231797,21.3177054,"Głowaczów, powiat kozienicki, województwo mazowieckie, Polska",368033629.0,Q942482,,1.0,matched_db_api
469,Głowno,GLOWNO,Głowno,Brzeziny,51.96666667,19.73333333,51.9660873,19.7135665,"Głowno, powiat zgierski, województwo łódzkie, Polska",31880924.0,Q867358,,1.0,matched_db_api
470,Glukhov,GLUKHOV,Hlukhiv,Glukhov,51.68333333,33.91666667,51.67831,33.9093,"Глухів, Глухівська міська громада, Шосткинський район, Сумська область, 41400, Україна",197762293.0,Q864827,,1.0,matched_nominatim
471,Głusk,GLUSK,Lublin,Lublin,51.18333333,22.6,51.1911864,22.5968718,"Lublin, województwo lubelskie, Polska",31876867.0,,,1.0,matched_db_api
472,Glusk,GLUSSK,Khvastavitski selski Savet,Bobruisk,52.88333333,28.68333333,52.8990282,28.6855599,"Глуск, Глускі раён, Магілёўская вобласць, Беларусь",242978953.0,Q2995174,הלוסק,1.0,matched_db_api
473,Gniewoszów,GNIEWOSZOW,Gniewoszów,Kozienice,51.46666667,21.8,51.4743655,21.8125648,"Gniewoszów, powiat kozienicki, województwo mazowieckie, Polska",362655278.0,Q2210366,,1.0,matched_db_api
474,Gnesen,GNIEZNO,Gniezno,Gniezno,52.55,17.6,52.5359736,17.595889,"Gniezno, powiat gnieźnieński, województwo wielkopolskie, Polska",158801054.0,Q51432,,1.0,matched_db_api
475,Gnivan,GNIVAN,Hnivan,Vinnitsa,49.1,28.33333333,49.0933696,28.338343,"Гнівань, Гніванська міська громада, Вінницький район, Вінницька область, 23310, Україна",337572390.0,Q155330,,1.0,matched_nominatim
476,Gollantsch,GOLANCZ,Gołańcz,Wagrowiec,52.95,17.3,52.9431644,17.2999756,"Gołańcz, powiat wągrowiecki, województwo wielkopolskie, Polska",264534777.0,Q52828,,1.0,matched_db_api
477,Golaia pristan,GOLAYA PRISTAN,Hola Prystan,Aleshki,46.51666667,32.53333333,46.5320381,32.5345028,"Гола Пристань, Голопристанська міська громада, Скадовський район, Херсонська область, 75600, Україна",337689476.0,Q760224,,1.0,matched_nominatim
478,Goldap,GOLDAP,Gołdap,Goldap,54.3,22.3,54.3077084,22.3018576,"Gołdap, powiat gołdapski, województwo warmińsko-mazurskie, Polska",31524739.0,Q947414,גולדאפ,1.0,matched_db_api
479,Golina,GOLINA,Golina,Konin,52.25,18.1,52.24276,18.09534,"Golina, powiat koniński, województwo wielkopolskie, Polska",31623989.0,Q1192513,,1.0,matched_db_api
480,Gollnow,GOLLNOW,Goleniów,Pommern,53.56666667,14.81666667,53.5656939,14.8299285,"Goleniów, powiat goleniowski, województwo zachodniopomorskie, Polska",1758659834.0,Q329597,,1.0,matched_db_api
481,Gołogóry,GOLOGORY,Holohory,Zloczow,49.75,24.71666667,49.7524219,24.7226803,"Гологори, Золочівська міська громада, Золочівський район, Львівська область, 80736, Україна",337546576.0,Q4142058,,1.0,matched_nominatim
482,Goloskov,GOLOSKOV,Holoskove,Balta,48.16666667,30.45,48.1676232,30.4409659,"Голоскове, Кривоозерська селищна громада, Первомайський район, Миколаївська область, 55123, Україна",337657653.0,Q4142177,,0.941,matched_nominatim
483,Golovanevsk,GOLOVANEVSK,Holovanivsk,Balta,48.38333333,30.46666667,48.3611759,30.4006445,"Голованівськ, Голованівська селищна громада, Голованівський район, Кіровоградська область, 26500, Україна",366337749.0,Q7286416,,1.0,matched_nominatim
484,Golovchin,GOLOVCHIN,Halouchyn,Mstislavl,54.06666667,29.91666667,54.0582741,29.9141978,"Галоўчын, Бялыніцкі раён, Магілёўская вобласць, Беларусь",243033652.0,Q1428701,,1.0,matched_db_api
485,Golub / Dobrzyń,GOLUB-DOBRZYN,Golub-Dobrzyń,Wabrzezno,53.11666667,19.05,53.1138924,19.0544501,"Golub-Dobrzyń, powiat golubsko-dobrzyński, województwo kujawsko-pomorskie, Polska",31590395.0,Q325251,,0.96,matched_db_api
486,Gumbinnen,GOMBIN,Gusev,Gabin,54.6,22.2,54.5921685,22.2014752,"Гусев, Гусевский городской округ, Калининградская область, Северо-Западный федеральный округ, Россия",19338643.0,Q5663,גוסב,1.0,matched_nominatim
487,Gomel,GOMEL (I),Homyel,Gomel,52.43333333,30.98333333,52.4238936,31.0131698,"Гомель, Гомельская вобласць, Беларусь",26151301.0,Q2678,הומל,1.0,matched_db_api
488,Goniondz,GONIONDZ,Goniądz,Bielostok,53.48333333,22.75,53.489222,22.7323721,"Goniądz, powiat moniecki, województwo podlaskie, Polska",31577128.0,Q985386,,1.0,matched_db_api
489,Goraj,GORAJ,Goraj,Bilgoraj,50.71666667,22.66666667,50.6528567,22.8341694,"Goraj, Czarnystok, gmina Radecznica, powiat zamojski, województwo lubelskie, Polska",3009702631.0,,,1.0,matched_nominatim
490,Góra Kalwaria,GORA KALWARIA,Góra Kalwaria,Grojec,51.98333333,21.23333333,51.9843765,21.2140226,"Góra Kalwaria, powiat piaseczyński, województwo mazowieckie, Polska",31876827.0,Q985642,גורה קלוואריה,1.0,matched_db_api
491,Gora Wisniowa,GORA WISNIOWA,Wiśniowa Góra,Lodz,51.71666667,19.63333333,51.6798376,19.5965311,"Wola Rakowa, powiat łódzki wschodni, województwo łódzkie, Polska",3009714455.0,,,0.75,matched_refined
492,Gorkaia,GORKAYA,Malynivska rural hromada,Aleksandrovsk,47.73333333,36.56666667,,,,,,,,not_found
493,Gorki,GORKI,Horki,Gorki,54.28333333,30.98333333,54.289463,30.9810782,"Горкі, Горацкі раён, Магілёўская вобласць, Беларусь",242978991.0,Q954812,הורקי,1.0,matched_db_api
494,Gorlice,GORLICE,Gorlice,Gorlice,49.66666667,21.16666667,49.65829,21.1593832,"Gorlice, powiat gorlicki, województwo małopolskie, Polska",1763537486.0,Q947521,גורליצה,1.0,matched_db_api
495,Gorlovka,GORLOVKA,Horlivka,Bakhmut,48.3,38.05,48.3058686,38.0027664,"Горлівка, Донецька область, Україна",256613740.0,Q157260,הורליבקה,1.0,matched_db_api
496,Gornostaipol,GORNOSTIPOL,Laputky,Radomysl,51.06666667,30.25,51.071659,30.261841,"Лапутьки, Київська область, Україна",337512124.0,Q3543790,,1.0,matched_db_api
497,Gorodets,GORODETS,Mikalaeuski selski Savet,Rogachev,52.96666667,30.6,52.974869,30.60705,"Меркулавічы, Чачэрскі раён, Гомельская вобласць, Беларусь",243042375.0,Q4290999,,1.0,matched_refined
498,Gorodok,GORODOK (I),Haradok,Gorodok,55.46666667,30.0,55.4614306,29.9872766,"Гарадок, Гарадоцкі раён, Віцебская вобласць, Беларусь",242978970.0,Q954265,הרדוק,1.0,matched_db_api
499,Gorodok,GORODOK (II),Horodok,Kamenets-Podolsk,49.16666667,26.56666667,49.1652124,26.5865127,"Городок, Хмельницька область, Україна",313201927.0,Q219856,,1.0,matched_db_api
500,Gorodishche,GORODYSHCHE,Horodyshche,Cherkasy,49.28333333,31.45,49.2903792,31.4446702,"Городище, Городищенська міська громада, Черкаський район, Черкаська область, 19502, Україна",337564052.0,Q219869,,1.0,matched_nominatim
501,Gorval,GORVAL,Hlybauski selski Savet,Riechitsa,52.56666667,30.18333333,52.570889,30.190239,"Глыбаўскі сельскі Савет, Рэчыцкі раён, Гомельская вобласць, Беларусь",243043183.0,Q4143771,,1.0,matched_db_api
502,Gory,GORY,Hory,Chausy,54.26666667,31.2,54.267302,31.2040533,"Горы, Горацкі раён, Магілёўская вобласць, Беларусь",243044653.0,Q20468169,,1.0,matched_db_api
503,Gorzków,GORZKOW,Zamostek,Krasnystaw,50.95,23.01666667,50.9457044,23.0012322,"Gorzków-Wieś, gmina Gorzków, powiat krasnostawski, województwo lubelskie, 22-315, Polska",7430170.0,Q5587058,,0.778,matched_refined
504,Glazmanka,GOSTINI,Maiļupsala,Dvinsk,56.61666667,25.78333333,56.6161759,25.7858012,"Gaiziņi, Maiļupsala, Aiviekstes pagasts, Aizkraukles novads, LV-5120, Latvija",2073536693.0,,,manual,matched_manual
505,Gostomel,GOSTOMYL,Hostomel,Kiev,50.58333333,30.26666667,50.58826,30.25909,"Гостомель, Гостомельська селищна громада, Бучанський район, Київська область, 08290, Україна",337519314.0,Q357038,הוסטומל,1.0,matched_nominatim
506,Gostynin,GOSTYNIN,Gostynin,Gostyn,52.43333333,19.48333333,52.4287607,19.4612956,"Rataje, powiat gostyniński, województwo mazowieckie, Polska",31709532.0,Q983735,,1.0,matched_db_api
507,Goszczyn,GOSZCZYN,Goszczyn,Grojec,51.73333333,20.85,51.7322001,20.8538194,"Goszczyn, powiat grójecki, województwo mazowieckie, Polska",1908946184.0,,,1.0,matched_db_api
508,Gowarczów,GOWARCHOW,Gowarczów,Konskie,51.28333333,20.43333333,51.2784974,20.438142,"Gowarczów, powiat konecki, województwo świętokrzyskie, Polska",31876774.0,Q2599348,,1.0,matched_db_api
509,Govorovo,GOWOROWO,Grodzisk Mały,Ostrolenka,52.9,21.56666667,52.9006864,21.5570366,"Goworowo, gmina Goworowo, powiat ostrołęcki, województwo mazowieckie, 07-440, Polska",1315117581.0,Q2442947,,1.0,matched_refined
510,Gorzkowice,GOZHKOWICE,Plucice,Piotrkow,51.21666667,19.6,51.2151631,19.5959459,"Gorzkowice, gmina Gorzkowice, powiat piotrkowski, województwo łódzkie, 97-350, Polska",31880886.0,Q2217528,,1.0,matched_nominatim
511,Grabów,GRABOW,Grabów,Leczyca,52.13333333,19.01666667,52.12736,19.00855,"Grabów, powiat łęczycki, województwo łódzkie, Polska",692608340.0,Q985746,,1.0,matched_db_api
512,Grabowiec,GRABOWIEC (I),Hrabovets,Bohorodczany,48.75,24.61666667,48.7450732,24.6177936,"Грабовець, Богородчанська селищна громада, Івано-Франківський район, Івано-Франківська область, 77762, Україна",337587160.0,Q4147261,,1.0,matched_nominatim
513,Grabowiec,GRABOWIEC (II),Grabowiec,Hrubieszow,50.83333333,23.56666667,50.8217588,23.5494427,"Grabowiec, powiat zamojski, województwo lubelskie, Polska",1849110449.0,,,1.0,matched_db_api
514,Grabow,GRABOW NAD PROSNA,Grabów nad Prosną,Ostrzeszow,51.51666667,18.11666667,51.5060515,18.1188808,"Grabów nad Prosną, powiat ostrzeszowski, województwo wielkopolskie, Polska",31803186.0,Q206125,,1.0,matched_db_api
515,Gradizhsk,GRADIZHSK,Hradyzk,Kremenchug,49.21666667,33.11666667,49.2311773,33.1206291,"Градизьк, Градизька селищна громада, Кременчуцький район, Полтавська область, 39072, Україна",337566080.0,Q2011635,,1.0,matched_nominatim
516,Graevo,GRAJEWO,Grajewo,Shchuchin,53.65,22.45,53.6469842,22.4548627,"Grajewo, powiat grajewski, województwo podlaskie, Polska",349239193.0,Q336204,גרייבו,1.0,matched_db_api
517,Granica,GRANICA (I),Regów Nowy,Kozienice,51.46666667,21.81666667,51.4711028,21.8119833,"Granica, Gniewoszów, gmina Gniewoszów, powiat kozienicki, województwo mazowieckie, 26-920, Polska",1809440279.0,Q9275717,,1.0,matched_nominatim
